Time, Altitude, Yaw, Pitch, Roll, Ax, Ay, Az, Pitch_rate, Roll_rate,Yaw_rate, Magx, Magy, Magz0.759454,0.092947,-0.162462,0.015650,0.045396,0.684742,-0.641646,7.714118,-0.019156,0.060661,0.294790,36.993164,82.297266,21.533203
0.859573,0.296659,-0.354921,0.024852,0.094100,-0.047884,0.296881,9.926360,0.029798,0.046826,-0.076624,38.422852,81.580078,21.533203
0.959785,-0.002646,-0.536713,0.016592,0.127415,-0.392649,0.301669,9.864111,0.012771,0.014899,0.052147,38.601562,81.042187,23.083594
1.060472,-0.080690,-0.673718,0.009813,0.112994,0.411803,0.526724,9.782708,-0.015963,-0.020220,-0.002128,38.422852,82.655859,22.222266
1.161903,-0.388289,-0.828432,0.000570,0.076973,1.091756,0.148441,9.519346,0.009578,-0.557654,0.114936,38.244141,81.042187,21.705469
1.263423,-0.010001,-0.975964,0.016752,-0.031843,1.805228,0.258574,9.806650,0.001064,-1.355822,-0.233065,35.206055,77.635547,21.877734
1.364702,-0.060160,-1.087990,-0.023087,-0.130051,2.609680,0.081403,9.299079,0.036184,-0.602351,0.090459,36.814453,72.435937,25.495313
1.466324,-0.409193,-1.162514,-0.087228,-0.245946,3.011906,0.100556,9.198523,0.042569,-0.558718,0.052147,35.206055,70.105078,26.701172
1.568106,0.040969,-1.243726,-0.105199,-0.351760,4.017470,0.114922,8.825027,-0.034055,-0.608736,-0.145799,35.206055,70.105078,26.701172
1.670343,-0.273518,-1.338415,-0.134248,-0.468646,4.601656,0.162806,8.590396,-0.074496,-0.307561,-0.173469,34.669922,67.415625,27.217969
1.770791,-0.392552,-1.363824,-0.138907,-0.499636,4.855441,0.181959,8.475474,-0.062789,0.042569,-0.124514,35.384766,64.188281,28.596094
1.872625,-0.262735,-1.361677,-0.133518,-0.483467,4.572925,0.177171,8.508993,-0.105358,-0.247964,-0.217102,33.418945,62.933203,27.390234
1.974115,0.326694,-1.368931,-0.137639,-0.554065,5.406107,0.282516,8.145074,-0.110679,-0.538497,-0.226680,35.384766,63.112500,26.184375
2.075164,-0.060434,-1.392077,-0.139686,-0.605192,5.679046,0.138864,7.843405,0.023413,-0.485286,0.018092,36.635742,60.781641,26.356641
2.177032,-0.095577,-1.414432,-0.139945,-0.676520,6.191405,0.134075,7.321469,0.080881,-0.833288,0.095780,36.993164,58.271484,26.356641
2.278000,0.025930,-1.483967,-0.097221,-0.789173,7.192182,0.186748,6.909666,0.104294,-0.805618,0.080881,36.993164,58.271484,26.356641
2.379953,0.042454,-1.532719,-0.053853,-0.894639,7.781155,0.000000,5.664681,-0.131964,-0.507635,-0.127707,36.993164,58.271484,26.356641
2.481009,0.297362,-1.590439,0.004005,-0.962338,7.982268,0.277727,5.272032,-0.001064,-0.819453,-0.031927,36.993164,58.271484,26.356641
2.582733,-0.198440,-1.601249,0.065249,-1.045382,8.470685,-0.028730,4.821922,0.061725,-0.723672,0.015963,36.993164,58.271484,26.356641
2.684095,0.096438,-1.647199,0.126819,-1.142248,8.844181,0.363919,3.902549,0.017028,-0.410791,0.007450,36.993164,58.271484,26.356641
2.785439,-0.048300,-1.630846,0.206223,-1.185215,9.145850,-0.421379,3.615245,-0.169212,-0.877985,-0.068110,38.065430,37.831641,23.944922
2.886545,-0.098965,-1.632943,0.267340,-1.242155,9.442731,-0.411803,1.259350,-0.161762,-0.641727,-0.046826,38.601562,32.273438,20.671875
2.988170,0.123181,-1.651986,0.332498,-1.360556,10.065224,0.383072,1.268927,0.053211,-0.434203,-0.050019,37.529297,28.328906,19.293750
3.089927,-0.129631,-1.666468,0.408401,-1.390321,8.652645,0.818817,2.073379,0.035119,0.432075,0.017028,38.958984,27.253125,18.260156
3.191553,0.143921,-1.677800,0.378498,-1.363434,9.595960,0.229843,1.867477,0.014899,0.006385,0.004257,37.529297,27.253125,18.260156
3.293380,-0.029551,-1.678636,0.444577,-1.374218,9.720459,0.248997,1.714248,0.015963,0.010642,0.006385,37.529297,29.763281,21.016406
3.394903,0.130040,-1.674883,0.424536,-1.379388,9.667786,0.196325,1.580173,0.018092,0.012771,0.005321,39.137695,27.791016,19.121484
3.496829,0.307985,-1.690934,0.461337,-1.375737,9.562441,0.263362,1.671153,0.019156,0.029798,0.009578,38.065430,27.073828,20.155078
3.598689,0.201646,-1.674264,0.454572,-1.409984,9.619902,0.402226,1.225831,0.019156,-0.089395,0.001064,38.065430,27.432422,19.810547
3.700395,0.180964,-1.672627,0.471687,-1.392654,9.619902,0.167594,1.422156,0.021284,-0.123450,0.009578,38.065430,27.432422,19.810547
3.801814,0.142101,-1.652657,0.498844,-1.432318,9.667786,0.114922,1.254562,0.014899,-0.084074,0.006385,38.065430,27.432422,19.810547
3.903066,0.042484,-1.650457,0.507124,-1.441147,9.758766,0.148441,1.106121,0.020220,-0.134092,0.003193,38.065430,27.432422,19.810547
4.004576,0.156673,-1.668325,0.526640,-1.433438,9.777920,0.292093,1.106121,0.014899,-0.154313,0.003193,38.065430,27.432422,19.810547
4.105432,0.001091,-1.645208,0.553282,-1.458994,9.730036,0.167594,0.857124,0.017028,-0.047890,0.007450,38.065430,27.432422,19.810547
4.207104,0.068426,-1.652476,0.547139,-1.474907,9.758766,0.177171,0.847547,0.020220,0.024477,0.006385,38.065430,27.432422,19.810547
4.308349,-0.005649,-1.647807,0.550820,-1.475395,9.715670,0.272939,0.809240,0.015963,-0.002128,0.004257,38.065430,27.432422,19.810547
4.409569,0.129791,-1.626531,0.580854,-1.494966,9.801862,0.167594,0.579397,0.018092,-0.169212,0.007450,38.065430,27.432422,19.810547
4.510686,0.210546,-1.626563,0.585882,-1.506709,9.782708,0.138864,0.474052,0.020220,0.018092,0.008514,38.065430,27.432422,19.810547
4.612508,0.322605,-1.615072,0.578163,-1.492046,9.792285,0.081403,0.608127,0.018092,0.018092,0.009578,38.065430,27.432422,19.810547
4.713920,0.083987,-1.627060,0.580727,-1.513291,9.720459,0.186748,0.579397,0.019156,-0.050019,0.010642,37.886719,24.384375,16.192969
4.815222,0.613961,-1.601577,0.572595,-1.561236,9.787496,0.167594,0.110133,0.018092,-0.258606,0.004257,38.601562,25.101562,15.159375
4.916750,0.021973,-1.579692,0.547948,-1.553865,9.883264,0.143652,0.124498,0.014899,0.095780,0.008514,36.814453,24.742969,15.159375
5.018129,0.102339,-1.599388,0.523997,-1.540043,9.749189,0.153229,0.282516,0.014899,0.286276,0.006385,36.814453,24.742969,15.159375
5.119987,-0.228193,-1.611011,0.546576,-1.508996,9.844957,0.177171,0.469264,-0.239450,0.544883,-0.017028,38.244141,25.101562,17.571094
5.221422,0.283216,-1.666474,0.416840,-1.418439,9.514557,0.454898,1.757344,0.015963,0.268185,0.006385,37.171875,26.535937,15.159375
5.323545,-0.196161,-1.652897,0.431349,-1.427908,9.691728,0.191536,1.240196,0.019156,-0.283084,0.009578,40.031250,26.535937,17.571094
5.424543,-0.150819,-1.623103,0.457685,-1.497583,9.806650,1.249773,0.081403,-0.080881,-0.605544,-0.012771,40.567383,25.280859,15.331641
5.526429,0.046725,-1.618696,0.537823,-1.561851,9.404424,0.033519,0.033519,-0.014899,-0.440589,-0.012771,39.316406,24.742969,14.814844
5.627801,0.142253,-1.597380,0.510116,-1.562465,9.777920,0.191536,0.134075,0.015963,0.280955,0.013835,38.601562,22.232812,11.714063
5.729469,0.000072,-1.600613,0.543013,-1.566489,10.261548,0.253785,0.311246,-0.025541,-0.425690,-0.008514,38.601562,21.157031,12.403125
5.830938,0.397777,-1.547352,0.593241,-1.588572,9.873688,-0.742203,-0.191536,0.083009,0.335231,-0.018092,38.065430,18.467578,12.575391
5.932259,0.512142,-1.585819,0.636386,-1.579488,9.849746,0.239420,-0.124498,0.017028,0.003193,0.007450,36.635742,18.826172,12.919922
6.033564,0.201666,-1.569500,0.581234,-1.611474,9.730036,0.167594,-0.220267,0.013835,-0.064918,0.013835,37.529297,20.798437,11.369531
6.135449,0.370479,-1.582471,0.588155,-1.582914,9.830592,0.162806,-0.090980,0.004257,0.024477,0.008514,36.993164,20.619141,12.230859
6.236890,0.247580,-1.570562,0.588756,-1.595360,9.854534,0.167594,-0.253785,0.019156,0.055340,0.008514,37.708008,21.694922,12.919922
6.338706,-0.013596,-1.562007,0.590324,-1.623455,9.782708,0.234632,-0.411803,0.014899,-0.052147,0.013835,36.814453,21.157031,12.403125
6.440900,0.285932,-1.564160,0.585911,-1.600096,9.888053,0.138864,-0.296881,0.017028,0.040441,0.005321,36.814453,20.439844,11.714063
6.541820,0.131150,-1.568655,0.591425,-1.600479,9.921572,0.196325,-0.325611,0.021284,0.040441,0.009578,36.814453,20.081250,11.714063
6.643236,-0.050062,-1.550418,0.575510,-1.617836,9.830592,0.090980,-0.416591,0.015963,0.025541,0.005321,36.635742,21.336328,11.886328
6.744619,0.133431,-1.576772,0.578077,-1.599721,9.787496,0.225055,-0.158017,0.003193,0.219230,0.002128,37.171875,21.157031,12.403125
6.846184,0.270692,-1.573703,0.566220,-1.593116,9.864111,0.162806,-0.263362,-0.017028,0.038312,0.007450,36.814453,20.798437,12.747656
6.947623,0.353759,-1.557350,0.573169,-1.639781,9.777920,0.248997,-0.459687,0.014899,-0.004257,0.010642,38.422852,22.053516,11.886328
7.049014,0.153234,-1.575546,0.569390,-1.585954,9.892841,0.110133,0.311246,-0.225616,-0.034055,0.019156,37.708008,19.543359,12.230859
7.149962,0.036485,-1.547892,0.589254,-1.640985,9.983821,-0.047884,-0.900220,-0.272441,0.008514,0.015963,38.422852,21.336328,11.541797
7.251258,0.188228,-1.545590,0.590083,-1.666599,9.591172,-0.057461,0.799663,-0.433139,0.112808,0.012771,38.601562,20.439844,11.025000
7.353617,-0.085305,-1.552444,0.594247,-1.647988,8.815451,0.344765,2.068590,-0.468259,-0.071303,0.015963,38.601562,20.439844,11.025000
7.454215,0.126321,-1.545617,0.592365,-1.640243,9.797073,0.258574,0.459687,-0.201138,-0.032991,0.015963,38.601562,20.439844,11.025000
7.555711,0.008724,-1.547240,0.569044,-1.633906,9.849746,0.134075,-0.411803,0.000000,0.030863,0.004257,38.601562,20.439844,11.025000
7.657608,0.066760,-1.566571,0.563811,-1.610474,9.720459,0.067038,0.114922,-0.110679,-0.005321,0.017028,38.601562,20.439844,11.025000
7.759222,0.059727,-1.542446,0.585640,-1.628670,9.821015,0.090980,-0.541090,0.015963,-0.019156,0.010642,38.601562,20.439844,11.025000
7.860959,0.001352,-1.565166,0.486703,-1.631845,9.873688,0.167594,-0.430956,0.006385,0.094716,0.007450,43.248047,20.439844,6.890625
7.961801,0.150334,-1.556879,0.496845,-1.630271,9.844957,0.167594,-0.497994,0.020220,-0.004257,0.008514,41.639648,19.543359,8.441016
8.063260,0.305580,-1.558402,0.502342,-1.621232,9.825804,0.095768,-0.368707,0.012771,0.044697,0.007450,41.639648,19.543359,8.441016
8.164745,0.089832,-1.580869,0.507606,-1.619605,9.821015,0.205901,-0.478840,0.018092,0.002128,0.008514,41.639648,19.543359,8.441016
8.265624,0.020985,-1.558282,0.479686,-1.625731,9.849746,0.138864,-0.502782,0.017028,0.005321,0.007450,42.175781,20.081250,7.579688
8.367090,-0.009165,-1.541541,0.488674,-1.638853,9.902418,0.143652,-0.708684,0.001064,0.134092,0.000000,40.746094,20.081250,7.924219
8.469068,0.076630,-1.566323,0.442217,-1.636949,9.801862,0.167594,-0.454898,0.020220,-0.005321,0.007450,41.460938,20.081250,6.546094
8.570442,0.011732,-1.565410,0.444989,-1.633859,9.777920,0.248997,-0.579397,0.018092,0.020220,0.009578,41.639648,21.694922,7.751953
8.672203,0.508561,-1.554339,0.443023,-1.624735,9.873688,0.119710,-0.565032,0.017028,0.052147,0.005321,41.103516,20.798437,7.235156
8.773942,0.280920,-1.562438,0.432940,-1.648678,9.763554,0.215478,-0.622492,0.024477,0.028734,0.004257,42.175781,19.364062,5.857031
8.875233,0.235684,-1.561965,0.432527,-1.612194,9.768343,0.129287,-0.469264,0.024477,0.092588,0.005321,41.997070,19.543359,7.062891
8.977177,0.137734,-1.598810,0.437502,-1.602486,9.844957,1.067814,0.258574,0.241579,0.185175,-0.006385,41.639648,19.184766,7.062891
9.078055,0.282182,-1.598871,0.400926,-1.577030,9.983821,0.172383,0.225055,0.351194,-0.018092,0.015963,42.354492,19.184766,5.340234
9.179820,0.153033,-1.603182,0.370545,-1.543980,10.122685,0.354342,0.349553,0.459745,0.235194,0.003193,41.103516,20.081250,8.613281
9.281589,0.230765,-1.595096,0.376431,-1.549583,9.959879,0.052672,-0.215478,0.329910,0.294790,0.014899,39.852539,20.619141,9.819141
9.382739,0.339094,-1.588138,0.405735,-1.560167,11.051635,0.857124,-1.742979,1.215344,-0.111744,0.105358,39.495117,22.053516,12.230859
9.484529,0.083495,-1.637297,0.393032,-1.434885,9.710882,0.234632,0.857124,0.019156,-0.018092,0.007450,38.065430,20.977734,15.676172
9.586138,0.270204,-1.664473,0.458438,-1.427482,9.610325,0.287304,1.149217,0.201138,0.037248,0.019156,38.065430,20.977734,15.331641
9.687795,0.221192,-1.597260,0.544486,-1.516711,9.643844,-0.028730,-0.138864,0.502314,-0.295854,0.044697,38.065430,20.977734,15.331641
9.789494,0.087642,-1.583728,0.579583,-1.555878,9.787496,0.023942,-0.359130,0.247964,-0.307561,0.019156,34.848633,20.977734,15.331641
9.891037,0.293648,-1.591920,0.602880,-1.566928,10.055647,0.253785,-0.129287,0.175597,-0.184111,0.007450,35.206055,19.901953,13.264453
9.992194,-0.047842,-1.579779,0.635780,-1.595592,9.801862,0.205901,-0.181959,0.234129,0.077688,-0.001064,34.491211,20.260547,13.953516
10.094045,0.363778,-1.580369,0.622449,-1.581564,9.605537,0.129287,-0.009577,0.318203,0.157505,0.003193,33.061523,19.543359,13.264453
10.195482,0.276534,-1.574192,0.655500,-1.607312,9.758766,0.316035,-0.359130,0.017028,-0.046826,0.014899,32.704102,19.901953,14.298047
10.297141,0.098993,-1.563459,0.679238,-1.616644,9.801862,0.172383,-0.301669,0.017028,0.061725,0.007450,33.061523,17.750391,12.919922
10.398287,0.209776,-1.567784,0.724135,-1.594000,9.844957,0.215478,-0.272939,0.013835,0.023413,0.007450,30.738281,17.571094,14.125781
10.499122,0.135969,-1.578618,0.674946,-1.607573,9.806650,0.196325,-0.306458,0.018092,0.032991,0.007450,33.418945,19.184766,13.608984
10.600444,-0.039389,-1.557906,0.632431,-1.604876,9.792285,0.167594,-0.263362,0.017028,0.037248,0.006385,31.631836,20.619141,13.608984
10.701949,0.251270,-1.563907,0.662835,-1.607088,9.753978,0.153229,-0.296881,0.014899,0.025541,0.009578,31.453125,18.288281,13.436719
10.804112,0.247599,-1.584967,0.716902,-1.594120,9.768343,0.253785,-0.196325,0.017028,0.031927,0.007450,33.776367,18.826172,14.987109
10.905286,0.143922,-1.554341,0.696191,-1.625526,9.811438,0.220267,-0.363919,0.011706,0.028734,0.009578,32.882812,18.646875,14.125781
11.006538,0.341544,-1.575963,0.659700,-1.612087,9.720459,0.196325,-0.205901,0.015963,0.041505,0.011706,32.882812,19.005469,13.092187
11.107853,0.222974,-1.562745,0.703531,-1.599814,9.806650,0.191536,-0.335188,0.020220,0.019156,0.010642,32.525391,17.212500,13.436719
11.209148,0.491273,-1.545131,0.677311,-1.643443,9.279926,-0.158017,-1.110910,0.668333,0.076624,0.002128,33.597656,20.439844,12.747656
11.310904,0.380855,-1.567934,0.642359,-1.609749,9.864111,0.134075,-0.373495,0.019156,-0.199010,0.029798,31.095703,19.005469,12.747656
11.412607,0.311261,-1.546053,0.667990,-1.628395,9.868899,0.143652,-0.478840,0.017028,-0.002128,0.012771,31.453125,16.853906,11.369531
11.513432,0.368189,-1.561262,0.646943,-1.631127,9.782708,0.220267,-0.387861,0.014899,0.042569,0.008514,31.274414,18.108984,10.852734
11.615763,0.044177,-1.547496,0.652734,-1.612639,9.811438,0.143652,-0.454898,0.013835,0.037248,0.008514,30.738281,18.646875,13.436719
11.717183,0.518222,-1.546416,0.685698,-1.638382,9.888053,0.177171,-0.569820,0.014899,-0.029798,0.012771,29.666016,17.212500,12.403125
11.819173,-0.000319,-1.562200,0.685044,-1.617745,9.844957,0.114922,-0.339977,0.015963,-0.062789,0.017028,31.453125,17.212500,12.058594
11.921055,0.487268,-1.523808,0.717023,-1.661256,9.864111,0.177171,-0.732626,0.012771,-0.124514,0.017028,31.989258,17.750391,12.919922
12.022733,-0.094736,-1.515177,0.736694,-1.672159,10.093954,-0.019154,-0.421379,0.014899,0.043633,0.011706,33.061523,16.674609,11.197266
12.124317,0.037843,-1.500650,0.708530,-1.703120,9.734824,0.191536,-0.948104,0.074496,0.186239,0.000000,33.061523,16.674609,11.197266
12.226434,0.378260,-1.544091,0.682204,-1.650319,10.510545,-0.153229,3.854665,0.922682,0.119193,-0.038312,32.704102,17.033203,10.163672
12.327751,0.035822,-1.623025,0.642439,-1.530862,10.017340,0.057461,0.751779,0.368222,-0.191560,0.013835,30.380859,16.495313,11.369531
12.429581,0.205795,-1.585979,0.600309,-1.610804,9.643844,0.670376,-0.426168,0.023413,-0.077688,0.012771,26.806641,17.212500,10.680469
12.531061,0.413428,-1.527593,0.691560,-1.653986,9.821015,0.153229,-0.684742,0.013835,-0.091523,0.019156,27.700195,15.957422,10.852734
12.632491,0.095713,-1.532817,0.671832,-1.682376,9.811438,0.215478,-0.780510,0.012771,-0.023413,0.017028,28.057617,16.674609,10.508203
12.734537,0.216272,-1.528415,0.712193,-1.670702,9.797073,0.225055,-0.689530,0.013835,-0.015963,0.013835,29.308594,16.136719,11.714063
12.835992,0.539580,-1.520732,0.723712,-1.677470,9.854534,0.143652,-0.746991,0.018092,0.035119,0.011706,25.376953,15.419531,11.369531
12.937734,0.083856,-1.512370,0.713128,-1.674996,9.821015,0.177171,-0.842759,0.018092,0.019156,0.009578,27.164062,15.419531,10.680469
13.039689,0.320728,-1.510426,0.763915,-1.672336,9.806650,0.014365,-0.062249,0.159634,-0.138349,0.004257,26.985352,13.447266,10.852734
13.141045,0.092850,-1.495481,0.772431,-1.734221,10.223241,0.263362,-1.460463,0.485286,-0.246900,-0.031927,26.627930,13.088672,8.441016
13.242238,0.039022,-1.499582,0.773345,-1.711236,9.749189,0.258574,-1.144428,0.199010,-0.119193,-0.010642,27.164062,12.192187,8.957813
13.343685,0.063949,-1.458926,0.725774,-1.782312,9.686940,0.172383,-1.388637,0.020220,0.161762,0.011706,24.304688,12.909375,6.890625
13.445647,0.309075,-1.482926,0.671667,-1.731717,9.758766,0.158017,-1.192312,0.013835,-0.021284,0.015963,24.125977,14.523047,8.441016
13.546976,0.282937,-1.496619,0.670774,-1.722493,9.730036,0.148441,-1.125275,0.014899,0.091523,0.011706,24.662109,13.267969,6.890625
13.648759,0.348786,-1.511223,0.618050,-1.723399,9.821015,0.263362,-1.297657,0.014899,0.001064,0.009578,25.555664,15.598828,7.407422
13.749781,0.221997,-1.482983,0.662377,-1.728719,9.763554,0.205901,-1.359907,0.005321,-0.077688,0.013835,26.091797,15.060937,8.613281
13.851806,0.517051,-1.472525,0.708310,-1.748645,9.658209,0.201113,-1.321599,0.010642,-0.119193,0.008514,24.483398,14.164453,9.130078
13.953818,0.409964,-1.412000,0.760460,-1.813711,9.653421,0.129287,-1.795651,-0.019156,-0.152184,0.015963,25.376953,11.833594,7.235156
14.055237,0.402990,-1.417152,0.762524,-1.815147,9.782708,0.071826,-1.661576,-0.036184,0.020220,0.014899,24.483398,14.164453,8.785547
14.157425,0.366815,-1.360205,0.779248,-1.894884,9.825804,0.205901,-2.221819,-0.532112,-0.470387,0.130900,24.483398,14.164453,8.785547
14.259240,0.372413,-1.336011,0.761358,-1.907246,9.323021,0.100556,-1.216254,-0.508699,1.180225,0.137285,24.483398,14.164453,8.785547
14.360491,0.276907,-1.413813,0.608548,-1.784654,9.998186,0.234632,0.948104,-0.666204,1.653804,-0.022349,24.483398,14.164453,8.785547
14.462057,0.241571,-1.475285,0.520807,-1.743010,9.442731,0.507571,2.600103,-1.672961,-0.069175,-0.259671,24.483398,14.164453,8.785547
14.564007,0.190574,-1.488042,0.414648,-1.749837,8.494627,2.020706,1.383849,-0.703452,1.794282,-0.245836,24.483398,14.164453,8.785547
14.665290,0.140788,-1.508917,0.248737,-1.648547,8.743624,-0.804452,5.573701,0.025541,2.842543,-0.010642,24.483398,14.164453,8.785547
14.767380,-0.151830,-1.502871,-0.044942,-1.484927,8.413225,-1.082179,7.891289,0.197946,3.290581,0.123450,24.483398,14.164453,8.785547
14.869070,0.135271,-1.478875,-0.234084,-1.345097,4.031836,-0.095768,9.045294,-0.007450,1.913475,-0.090459,24.483398,14.164453,8.785547
14.970829,-0.018132,-1.430166,-0.350845,-1.189373,2.159570,0.277727,9.720459,0.054275,0.689617,0.122386,24.483398,14.164453,8.785547
15.072127,0.040650,-1.378998,-0.346098,-1.045735,1.905785,0.124498,9.557653,-0.046826,0.111744,0.034055,24.483398,14.164453,8.785547
15.173505,0.047421,-1.334226,-0.375928,-0.858481,-0.517148,1.398214,10.223241,0.858829,2.148669,0.156441,35.742188,69.567188,25.839844
15.274827,-0.318429,-1.301039,-0.365016,-0.665340,-0.742203,0.493206,10.280702,0.286276,0.847123,-0.006385,35.206055,76.201172,26.012109
15.376331,0.217908,-1.296719,-0.284691,-0.503337,0.143652,0.536301,9.686940,0.012771,0.005321,0.005321,35.206055,76.201172,26.012109
15.477477,-0.013407,-1.288391,-0.210840,-0.327655,0.225055,0.593762,9.619902,0.018092,0.028734,0.011706,35.206055,76.201172,26.012109
15.579191,0.084386,-1.254555,-0.135252,-0.151874,0.181959,0.464475,9.591172,0.022349,0.035119,0.010642,35.206055,76.201172,26.012109
15.680294,0.070270,-1.163035,-0.068398,-0.010874,0.158017,0.588974,9.600749,0.022349,0.038312,0.005321,35.206055,76.201172,26.012109
15.782098,-0.051732,-1.138465,-0.058701,0.012498,0.134075,0.574608,9.768343,0.018092,0.038312,0.008514,35.206055,76.201172,26.012109
15.883849,-0.049914,-1.174923,-0.051552,0.019275,0.100556,0.574608,9.806650,0.020220,0.038312,0.003193,33.061523,79.428516,23.255859
15.985223,0.127236,-1.181506,-0.052275,0.011883,0.114922,0.502782,9.624691,0.024477,0.039376,0.008514,32.346680,79.069922,23.255859
16.087145,0.019610,-1.169300,-0.063646,0.014011,0.124498,0.608127,9.648633,0.015963,0.034055,0.005321,33.418945,80.504297,23.600391
16.188520,-0.275175,-1.169427,-0.067168,0.012978,0.172383,0.588974,9.725247,0.019156,0.031927,0.005321,33.597656,78.890625,23.428125
16.289961,-0.160841,-1.157240,-0.071845,0.003763,0.153229,0.603339,9.586383,0.018092,0.034055,0.007450,33.955078,79.607812,24.806250
16.391526,-0.162899,-1.169354,-0.039057,-0.007970,0.349553,0.225055,9.519346,0.034055,-0.081945,0.008514,33.061523,79.428516,22.566797
16.492834,-0.107010,-1.178249,-0.049238,0.030605,-0.047884,0.545878,9.782708,0.025541,0.003193,0.015963,32.167969,78.890625,21.360938
16.595170,0.027197,-1.177712,-0.029438,0.011522,-0.138864,1.115698,10.400412,-0.069175,-0.015963,0.096844,32.167969,78.890625,21.360938
16.696740,-0.046075,-1.149108,-0.053865,0.021477,-0.014365,0.627281,9.921572,0.020220,0.050019,0.006385,33.240234,78.173437,23.428125
16.798295,-0.196955,-1.182168,-0.060277,0.014138,0.067038,0.766145,9.734824,0.020220,0.042569,0.008514,32.525391,79.966406,23.772656
16.899582,0.023190,-1.194556,-0.058260,-0.002625,-0.296881,1.163582,7.891289,-0.060661,0.170276,0.277763,31.810547,79.966406,22.394531
17.001189,-0.202263,-1.166629,-0.054245,0.021804,0.296881,0.579397,9.816227,-0.010642,-0.138349,0.007450,32.882812,79.966406,23.428125
17.102884,0.166729,-1.171229,-0.046711,0.007712,-0.177171,0.239420,9.806650,0.092588,0.284148,0.000000,33.776367,79.428516,23.944922
17.204149,0.029660,-1.165854,-0.007356,-0.022838,0.272939,-0.737414,10.582371,-1.185546,-0.326717,-0.207524,33.955078,78.532031,22.394531
17.305407,-0.115851,-1.156444,0.025322,-0.184580,-0.397437,-1.589750,9.481039,-0.779012,-0.095780,0.329910,36.099609,77.456250,22.739062
17.407286,-0.346189,-1.118111,0.148821,-0.157220,-1.039084,-2.719813,9.672575,-0.771563,-0.059597,-0.021284,38.065430,78.711328,18.432422
17.508789,-0.051208,-1.069365,0.281571,-0.206444,0.287304,-3.576937,8.791508,-0.892884,0.124514,-0.197946,40.746094,78.173437,15.503906
17.610509,-0.257256,-0.993564,0.358712,-0.305942,0.397437,-4.285621,8.968679,-0.883306,0.221359,0.154313,43.069336,77.635547,15.331641
17.711968,0.012228,-0.941735,0.422213,-0.342025,0.114922,-5.568913,7.996634,-0.915233,0.287341,0.180918,43.962891,77.456250,12.747656
17.814072,-0.013945,-0.886599,0.471834,-0.388149,-0.134075,-5.779603,6.373365,-0.743893,0.241579,-0.127707,44.320312,77.456250,10.680469
17.915346,-0.170219,-0.783539,0.596434,-0.468465,-0.651223,-6.962338,7.283161,-0.249028,-0.150056,-0.028734,46.464844,75.663281,8.613281
18.017038,-0.108471,-0.689671,0.662779,-0.537537,-0.928950,-6.852205,6.382942,-0.258606,0.014899,0.031927,47.537109,76.380469,8.957813
18.118946,0.208187,-0.718741,0.647662,-0.527101,-0.478840,-7.311892,6.493075,-0.072367,0.188368,0.148991,47.537109,76.380469,8.957813
18.221326,-0.121293,-0.649537,0.643954,-0.603216,-0.656011,-7.201759,6.560113,-0.533176,0.086202,0.037248,47.537109,76.380469,8.957813
18.322568,0.214833,-0.577825,0.694814,-0.673236,-1.029507,-7.704541,5.334281,-0.448038,0.133028,0.136221,47.537109,76.380469,8.957813
18.423886,-0.129260,-0.470955,0.684216,-0.789822,-0.651223,-8.710106,5.540183,-0.256478,0.128771,-0.012771,49.324219,76.739063,2.411719
18.525796,-0.257423,-0.409375,0.620603,-0.854118,-0.866701,-7.417237,4.927267,-0.748150,0.160698,-0.188368,48.966797,76.021875,1.378125
18.627800,-0.286623,-0.309438,0.599685,-0.972714,-0.454898,-8.427590,4.319140,-0.523598,0.133028,-0.211781,49.502930,75.842578,1.205859
18.729375,0.192420,-0.303600,0.532155,-1.022824,0.186748,-8.978256,4.381389,-0.405469,0.122386,-0.273506,50.396484,73.870312,-0.344531
18.831484,0.222584,-0.225117,0.415629,-1.170963,0.656011,-8.681375,2.964022,-0.508699,0.063853,-0.084074,51.111328,72.435937,-2.067188
18.933472,0.287118,-0.141114,0.283657,-1.268001,0.191536,-8.250419,1.752556,-0.488479,0.076624,0.074496,53.613281,73.511719,-5.512500
19.034815,0.185928,-0.082432,0.183710,-1.331289,0.517148,-10.199299,2.365471,-0.405469,0.143670,0.142606,56.293945,72.615234,-6.718359
19.136354,0.351676,0.019402,0.100454,-1.400792,-0.277727,-9.849746,1.379060,-0.267120,0.217102,0.088331,56.651367,75.125391,-10.163672
19.238114,0.247440,-0.013802,0.012412,-1.434973,0.004788,-8.906430,1.063026,0.005321,-0.007450,-0.030863,56.651367,73.691016,-10.852734
19.339391,0.227666,-0.018068,-0.004485,-1.432159,0.119710,-9.442731,1.264138,0.006385,-0.017028,0.127707,57.008789,75.125391,-10.508203
19.440827,0.089079,0.069480,0.014239,-1.435835,-0.675165,-9.567230,1.259350,-0.104294,-0.026606,0.262863,55.400391,76.380469,-10.680469
19.542270,0.213716,0.059934,-0.019560,-1.436819,-0.368707,-9.404424,1.355118,-0.070239,0.079817,0.095780,56.293945,76.559766,-10.852734
19.644444,0.173796,0.045893,-0.040620,-1.471514,-0.421379,-9.730036,1.029507,-0.071303,0.056404,0.019156,56.293945,76.559766,-10.852734
19.745891,0.113193,0.076602,-0.054187,-1.471169,-0.699107,-9.423578,0.962469,0.038312,0.003193,0.124514,55.042969,77.814844,-11.025000
19.847654,-0.227040,0.061121,-0.042363,-1.473463,-0.536301,-9.576807,0.948104,0.085138,-0.038312,0.013835,54.864258,75.483984,-10.852734
19.949562,0.152667,0.081929,-0.024458,-1.450156,-0.727837,-9.629479,1.182736,-0.003193,0.061725,0.002128,54.149414,76.559766,-10.852734
20.051755,-0.006469,0.064379,-0.051136,-1.422980,-0.531513,-9.375694,1.450886,0.059597,0.048954,-0.042569,53.613281,76.021875,-12.747656
20.153566,0.291959,0.044653,-0.041727,-1.438847,-0.181959,-9.730036,1.417367,0.057468,0.038312,-0.050019,55.400391,78.173437,-11.714063
20.255621,-0.045753,0.027633,-0.007544,-1.449813,-0.220267,-9.634267,1.201889,0.025541,0.008514,-0.012771,56.115234,77.814844,-10.335938
20.356913,0.387417,0.054328,-0.026843,-1.438263,-0.426168,-9.423578,1.187524,0.009578,0.027670,0.045762,55.221680,75.483984,-11.197266
20.458516,0.163096,0.045008,-0.006858,-1.438876,-0.426168,-9.543288,1.264138,0.041505,-0.043633,-0.054275,57.008789,76.201172,-9.819141
20.560849,0.068535,0.050687,-0.012865,-1.434901,-0.584185,-9.572018,1.288080,0.004257,-0.039376,0.062789,55.757812,76.021875,-11.714063
20.662972,0.244775,0.047278,-0.007617,-1.442554,-0.426168,-9.418789,1.187524,0.021284,-0.002128,-0.014899,55.042969,76.380469,-9.991406
20.764910,0.130849,0.041936,-0.011008,-1.456936,-0.363919,-9.337386,1.091756,0.019156,0.012771,-0.050019,55.042969,76.380469,-9.991406
20.866631,0.234500,0.020945,-0.003447,-1.447820,-0.114922,-9.538499,1.268927,0.038312,0.007450,0.002128,55.042969,76.380469,-9.991406
20.968075,-0.051117,0.056784,0.000843,-1.457229,-0.507571,-9.691728,1.168370,0.041505,-0.044697,0.035119,55.042969,76.380469,-9.991406
21.069766,0.415358,0.032749,-0.002094,-1.430976,-0.258574,-9.394847,1.292869,-0.011706,-0.018092,0.065982,55.042969,76.380469,-9.991406
21.170986,0.295904,0.035931,-0.004774,-1.449904,-0.416591,-9.758766,1.163582,0.012771,0.022349,-0.055340,55.579102,74.766797,-9.819141
21.272470,0.234563,0.057366,-0.014350,-1.442152,-0.536301,-9.284714,1.125275,0.007450,-0.055340,-0.017028,56.293945,76.918359,-11.886328
21.373951,-0.086887,0.038261,-0.014682,-1.471927,-0.354342,-9.433155,0.952892,0.027670,0.025541,-0.030863,55.757812,77.097656,-9.302344
21.475228,0.119124,0.014062,0.000370,-1.440966,-0.129287,-9.519346,1.225831,0.030863,0.006385,0.042569,53.613281,76.739063,-9.991406
21.576758,0.399145,0.042006,-0.016532,-1.453324,-0.306458,-9.457097,1.101333,0.047890,0.014899,-0.030863,54.685547,75.663281,-11.369531
21.678559,0.240995,0.059078,-0.026377,-1.457928,-0.550666,-9.217676,1.053449,-0.002128,0.111744,-0.030863,54.685547,75.663281,-11.369531
21.779909,0.074696,0.020526,0.009747,-1.455005,-0.196325,-9.485827,1.225831,0.003193,0.025541,0.052147,54.328125,76.021875,-9.302344
21.881310,0.157593,0.046664,-0.019496,-1.457976,-0.426168,-9.351752,1.043872,0.019156,0.037248,-0.029798,55.042969,75.304688,-10.680469
21.982498,0.192154,0.066466,-0.056397,-1.453311,-0.517148,-9.179369,0.938527,0.037248,0.038312,0.008514,56.115234,74.587500,-12.058594
22.083502,0.279938,0.051298,-0.038891,-1.452935,-0.450110,-9.418789,1.053449,0.024477,0.027670,-0.002128,55.757812,76.380469,-11.025000
22.185247,0.149614,0.042612,-0.032980,-1.446534,-0.335188,-9.528923,1.225831,0.019156,0.045762,0.017028,56.651367,77.635547,-11.197266
22.288036,0.166794,0.047826,-0.016272,-1.440370,-0.363919,-9.538499,1.225831,0.019156,0.021284,-0.013835,56.115234,76.021875,-10.680469
22.389447,-0.078859,0.041256,0.006473,-1.445810,-0.363919,-9.433155,1.221043,0.034055,0.018092,0.024477,56.651367,76.918359,-9.474609
22.491077,0.084187,0.047737,0.011578,-1.439869,-0.440533,-9.500192,1.149217,0.037248,0.017028,-0.015963,56.293945,76.559766,-9.130078
22.593525,-0.005679,0.040830,0.015278,-1.447863,-0.450110,-9.404424,1.091756,0.025541,-0.034055,0.038312,55.757812,75.304688,-9.646875
22.694992,-0.175510,0.046839,0.003501,-1.446362,-0.440533,-9.514557,1.230620,0.019156,0.039376,0.036184,57.723633,75.842578,-10.163672
22.796364,0.144906,0.037762,0.003990,-1.447022,-0.454898,-9.366117,1.115698,0.011706,0.040441,-0.002128,54.506836,76.559766,-10.163672
22.897707,0.099368,0.022519,0.021048,-1.425525,-0.292093,-9.457097,1.474828,0.065982,-0.001064,0.028734,57.544922,76.021875,-9.302344
22.999264,0.148812,0.036551,0.041622,-1.418326,-0.244209,-9.538499,1.537077,0.136221,0.005321,-0.021284,55.757812,76.021875,-9.302344
23.100550,0.411024,0.055069,0.080933,-1.393629,-0.517148,-9.136274,1.776498,0.653434,0.046826,0.055340,55.579102,75.842578,-9.130078
23.202275,0.075396,-0.002973,0.101921,-1.411088,-0.248997,-9.849746,1.824382,0.445910,-0.044697,0.043633,56.293945,76.559766,-7.062891
23.303952,0.241790,-0.028829,0.179432,-1.344640,-0.153229,-8.465897,2.006341,1.359014,-0.039376,0.299047,55.221680,75.125391,-6.718359
23.405682,-0.099895,-0.075997,0.361048,-1.211983,-0.335188,-6.880936,4.481946,2.159311,-0.233065,0.050019,52.362305,74.049609,-1.550391
23.507240,-0.106096,-0.184677,0.573240,-1.003434,-1.312023,-4.357447,6.612785,1.810245,0.582131,-0.277763,49.681641,71.718750,4.478906
23.608594,0.234034,-0.377656,0.674712,-0.708804,-0.732626,-5.257667,8.264784,1.235564,0.042569,-0.045762,44.141602,76.201172,8.096484
23.710195,0.027494,-0.530785,0.671773,-0.531394,-1.288080,-3.639187,9.299079,0.718351,-0.148991,0.155377,41.997070,77.994141,10.852734
23.811889,-0.288047,-0.731808,0.627084,-0.308267,-1.072602,-2.513912,9.955091,0.867343,-0.031927,0.047890,40.924805,81.938672,11.541797
23.913865,-0.015289,-0.902798,0.532697,-0.159193,-0.809240,-2.015918,9.026140,0.577874,-0.044697,0.009578,41.282227,83.014453,14.298047
24.015204,-0.315668,-1.027281,0.401506,-0.049808,0.014365,-1.517924,10.845734,0.790719,-0.366093,-0.094716,38.958984,84.269531,16.192969
24.116615,0.025473,-1.098682,0.273524,0.016077,-0.574608,0.205901,8.925584,0.493800,-0.325653,-0.204331,38.601562,81.042187,20.327344
24.218124,0.160499,-1.119331,0.145471,0.019969,-0.373495,0.014365,9.730036,0.092588,0.120257,0.139413,35.920898,80.504297,23.944922
24.320493,0.196109,-1.146284,-0.010042,0.031792,-0.229843,0.225055,9.878476,0.011706,0.031927,0.001064,35.920898,80.504297,23.944922
24.422099,-0.186801,-1.149091,-0.021523,0.013418,-0.033519,0.248997,9.696517,0.023413,0.055340,0.007450,36.635742,81.580078,25.667578
24.524338,-0.109335,-1.147617,-0.037916,-0.001113,0.186748,0.363919,9.696517,0.017028,0.040441,0.031927,36.635742,81.580078,25.667578
24.625603,0.124996,-1.133525,-0.003190,0.070366,-0.785298,-0.181959,10.098743,0.025541,0.487415,-0.024477,36.635742,81.580078,25.667578
24.727218,0.019694,-1.110769,-0.050356,0.158484,-1.618480,0.521936,9.935937,0.355451,0.941838,-0.068110,36.635742,81.580078,25.667578
24.828852,0.103299,-1.097921,-0.005806,0.308828,-4.074931,0.857124,9.121908,-0.026606,1.386684,0.040441,36.635742,81.580078,25.667578
24.930201,-0.272410,-1.181885,-0.026065,0.460543,-4.644751,0.665588,8.283938,-0.192625,1.662318,-0.078753,30.023438,89.648438,9.646875
25.031505,-0.233374,-1.282823,-0.011427,0.583333,-6.110003,-0.043096,7.091625,-0.084074,1.609107,-0.131964,26.627930,88.034766,6.029297
25.132713,-0.280566,-1.357795,-0.038308,0.705608,-6.770802,-0.598550,6.607997,-0.146863,1.996485,0.158569,26.627930,87.676172,-1.205859
25.234449,-0.325061,-1.402697,-0.049629,0.840427,-8.130709,-0.560243,5.185841,-0.006385,1.028041,0.264992,25.913086,86.241797,-7.751953
25.336032,0.052701,-1.409364,-0.093786,1.001305,-9.165004,0.933739,2.020706,0.385249,0.955673,0.124514,28.772461,84.090234,-9.819141
25.437767,0.311733,-1.464878,-0.092154,1.189300,-9.500192,0.033519,2.873042,0.148991,0.677911,-0.107487,33.418945,83.731641,-11.886328
25.539784,0.109426,-1.516595,-0.101493,1.337977,-8.973468,0.320823,1.010353,0.035119,0.464002,-0.183047,37.708008,84.090234,-14.642578
25.641580,0.067419,-1.633053,-0.130652,1.412137,-9.940725,-0.445322,1.604115,0.008514,0.412919,-0.056404,38.780273,83.373047,-17.054297
25.743237,-0.142246,-1.602339,-0.186517,1.475457,-9.720459,-0.205901,0.272939,-0.038312,0.283084,0.019156,39.137695,83.014453,-21.533203
25.844743,-0.127934,-1.600985,-0.208684,1.513886,-9.639056,-0.162806,0.483629,0.133028,0.064918,-0.007450,41.103516,83.910938,-19.638281
25.946575,0.134835,-1.606096,-0.231845,1.509521,-10.065224,-0.181959,0.517148,0.055340,0.042569,-0.024477,43.248047,84.628125,-22.739062
26.047860,0.032136,-1.603685,-0.234924,1.520215,-9.605537,-0.124498,0.454898,-0.005321,0.014899,-0.061725,41.282227,83.373047,-21.877734
26.149495,-0.245144,-1.610547,-0.235770,1.518845,-9.801862,-0.215478,0.536301,0.013835,0.060661,0.006385,40.567383,84.090234,-22.566797
26.251564,-0.218093,-1.589764,-0.245247,1.544884,-9.476250,-0.105345,0.306458,0.014899,0.122386,0.046826,39.852539,84.807422,-21.877734
26.352792,0.310994,-1.605476,-0.246784,1.520532,-9.825804,-0.248997,0.541090,0.029798,0.044697,0.037248,41.460938,84.986719,-22.739062
26.454222,0.314264,-1.601242,-0.251253,1.530304,-10.046070,-0.277727,0.727837,0.072367,0.015963,0.002128,41.818359,85.703906,-22.050000
26.556131,0.005153,-1.581741,-0.257007,1.538191,-9.844957,-0.047884,0.258574,0.013835,0.042569,0.009578,40.567383,85.166016,-23.600391
26.657605,0.045006,-1.562980,-0.261128,1.552471,-9.797073,0.052672,0.196325,-0.004257,0.059597,0.011706,40.567383,85.166016,-23.600391
26.759805,0.260323,-1.600237,-0.257264,1.528636,-9.730036,-0.220267,0.555455,-0.019156,0.152184,0.037248,41.460938,86.779687,-23.428125
26.861125,-0.020904,-1.592858,-0.245060,1.550034,-9.806650,-0.167594,0.205901,0.028734,0.052147,0.026606,42.175781,85.703906,-22.739062
26.962940,-0.007733,-1.592618,-0.272623,1.542904,-9.677363,-0.134075,0.272939,0.024477,0.048954,0.002128,42.533203,86.421094,-24.461719
27.064587,0.273496,-1.572480,-0.269289,1.555055,-9.792285,0.023942,0.177171,0.014899,0.015963,-0.020220,43.426758,85.166016,-23.600391
27.166242,0.306157,-1.608770,-0.265424,1.532199,-10.060435,-0.292093,0.430956,0.022349,0.048954,-0.007450,41.818359,86.062500,-24.117188
27.268157,0.305815,-1.582937,-0.269924,1.583243,-9.921572,-0.105345,0.062249,0.019156,0.128771,0.004257,41.997070,87.676172,-22.911328
27.370012,0.169482,-1.599780,-0.272055,1.562181,-9.672575,-0.263362,-0.105345,-0.006385,0.109615,0.017028,41.818359,87.138281,-24.461719
27.471314,-0.191215,-1.596690,-0.282673,1.579096,-9.806650,-0.339977,-0.162806,0.031927,0.053211,0.005321,43.248047,86.421094,-24.806250
27.572504,0.136478,-1.578722,-0.283918,1.568260,-9.691728,-0.114922,-0.043096,0.031927,0.028734,-0.011706,43.248047,86.421094,-24.806250
27.674402,0.280672,-1.585259,-0.290663,1.587727,-9.792285,-0.186748,-0.225055,-0.015963,0.095780,0.014899,43.069336,88.034766,-25.667578
27.776197,0.045208,-1.587632,-0.296929,1.577392,-9.811438,-0.196325,0.038307,0.054275,0.027670,-0.023413,42.533203,87.496875,-25.495313
27.878382,0.467141,-1.594976,-0.287482,1.580683,-9.734824,-0.421379,-0.095768,0.007450,-0.122386,0.239450,43.069336,86.600391,-24.978516
27.979996,0.375829,-1.574557,-0.292358,1.583872,-9.686940,-0.023942,-0.114922,-0.013835,0.031927,0.020220,40.924805,88.393359,-25.667578
28.081487,0.200478,-1.560957,-0.300661,1.618111,-9.878476,-0.071826,-0.474052,0.028734,0.059597,-0.015963,40.924805,88.393359,-25.667578
28.183026,0.443400,-1.571984,-0.298439,1.611680,-9.888053,-0.110133,-0.316035,0.006385,0.040441,0.024477,42.175781,88.931250,-26.184375
28.284172,0.163877,-1.583555,-0.303198,1.577590,-10.046070,-0.138864,-0.038307,-0.063853,0.349066,0.039376,41.639648,88.034766,-26.701172
28.385701,0.313132,-1.512191,-0.331591,1.660280,-9.749189,0.320823,-0.962469,0.045762,0.223487,-0.343744,43.426758,88.034766,-28.768359
28.486795,-0.195097,-1.600910,-0.360512,1.667279,-9.270349,-1.072602,-0.244209,0.197946,-0.133028,-0.790719,43.426758,88.034766,-28.768359
28.588742,-0.020867,-1.744521,-0.404344,1.644590,-9.988609,-2.030283,-0.785298,-0.179854,0.334166,-0.467194,41.639648,87.317578,-30.146484
28.690443,0.109765,-1.735873,-0.492994,1.710589,-9.150639,-2.264915,-1.216254,-0.171340,-0.089395,-0.305432,39.495117,84.090234,-33.936328
28.791985,-0.021108,-1.758228,-0.523961,1.686777,-9.251195,-2.686294,-0.459687,0.212845,0.006385,-0.005321,39.673828,84.628125,-35.486719
28.894048,-0.226817,-1.767073,-0.521675,1.662087,-9.634267,-2.518700,-0.531513,0.020220,0.333102,0.484222,39.137695,83.014453,-34.625391
28.995795,-0.074626,-1.599307,-0.500035,1.751242,-9.030929,-0.622492,-2.619257,0.056404,0.092588,0.925875,40.388672,85.345312,-35.831250
29.097645,0.070167,-1.494709,-0.480244,1.779329,-9.193734,-0.210690,-1.776498,0.087266,0.031927,0.327781,41.818359,86.062500,-37.209375
29.199042,0.219462,-1.473715,-0.441178,1.758489,-9.600749,0.354342,-1.819593,-0.070239,0.104294,0.131964,42.175781,85.703906,-35.142187
29.299966,0.045218,-1.457253,-0.437750,1.790843,-10.089166,0.205901,-1.762132,0.106422,-0.056404,0.040441,42.533203,86.062500,-34.453125
29.401579,0.157159,-1.502634,-0.427776,1.729730,-9.734824,-0.004788,-1.388637,0.081945,-0.158569,0.023413,43.962891,87.855469,-34.797656
29.502678,0.260712,-1.503479,-0.403062,1.726476,-9.390059,0.043096,-1.335965,0.123450,-0.312882,-0.014899,43.069336,87.676172,-32.558203
29.603384,-0.257378,-1.522602,-0.376547,1.736998,-10.098743,0.129287,-2.145205,-0.063853,-0.758792,-0.203267,41.997070,88.751953,-31.524609
29.704739,-0.056853,-1.496591,-0.250146,1.705141,-8.523358,-0.124498,0.617704,0.285212,-3.557702,-0.374607,36.993164,90.186328,-23.944922
29.805863,0.058414,-1.522306,0.193226,1.587851,-7.503428,0.110133,6.823475,0.252221,-5.354112,0.092588,29.844727,91.620703,-6.373828
29.906968,0.096105,-1.513398,0.477689,1.490989,-2.930503,-0.656011,9.667786,0.462938,-2.955351,-0.180918,29.844727,91.620703,-6.373828
30.008407,0.056728,-1.442091,0.663453,1.330664,-1.517924,0.411803,9.586383,-0.351194,-1.836851,0.095780,29.844727,91.620703,-6.373828
30.109848,-0.130460,-1.399392,0.737037,1.221671,0.105345,1.048660,8.959103,-0.059597,-0.006385,0.304368,29.844727,91.620703,-6.373828
30.211567,-0.392230,-1.336537,0.654806,1.099342,-0.071826,0.181959,9.763554,0.014899,0.021284,0.007450,29.844727,91.620703,-6.373828
30.312775,-0.326359,-1.292958,0.567311,0.975575,-0.081403,0.268151,9.691728,0.022349,0.025541,0.006385,29.844727,91.620703,-6.373828
30.414417,-0.119224,-1.233964,0.496574,0.837540,-0.110133,0.138864,9.749189,0.017028,0.044697,0.003193,35.027344,79.249219,26.184375
30.515954,0.014557,-1.179428,0.417938,0.694516,-0.086191,0.186748,9.595960,0.017028,0.020220,0.008514,34.312500,78.890625,25.839844
30.617129,-0.219313,-1.126432,0.328301,0.546875,-0.100556,0.172383,9.696517,0.019156,0.056404,0.079817,35.384766,80.325000,24.461719
30.718969,-0.227532,-1.092191,0.228213,0.393843,-0.167594,0.186748,9.653421,0.019156,0.031927,0.005321,35.384766,81.042187,25.839844
30.820102,0.089238,-1.074624,0.120987,0.234384,-0.158017,0.186748,9.643844,0.020220,0.044697,0.003193,36.278320,79.787109,25.667578
30.921497,0.057749,-1.107619,0.014018,0.077451,-0.167594,0.186748,9.825804,0.019156,0.018092,0.008514,35.206055,80.504297,24.633984
31.023021,-0.445098,-1.147626,-0.023468,0.030791,-0.090980,0.287304,9.610325,0.015963,0.010642,0.010642,36.099609,80.683594,25.150781
31.124137,-0.299051,-1.152295,-0.006097,0.035748,-0.153229,0.162806,9.691728,0.013835,0.024477,0.011706,35.206055,80.504297,25.323047
31.225959,-0.038834,-1.149610,-0.014963,0.022033,-0.086191,0.248997,9.610325,0.015963,0.025541,0.006385,34.669922,79.249219,25.150781
31.327452,-0.435559,-1.142524,-0.015313,0.019428,-0.119710,0.186748,9.773131,0.014899,0.024477,0.007450,36.635742,81.580078,26.012109
31.429078,-0.332910,-1.153702,-0.011835,0.033182,-0.234632,0.229843,9.706094,0.017028,0.031927,0.008514,35.742188,81.759375,26.184375
31.530755,-0.146774,-1.161270,-0.009311,0.017868,-0.124498,0.205901,9.653421,0.021284,0.032991,0.004257,34.312500,80.683594,25.495313
31.631286,-0.024392,-1.157228,-0.003764,0.037325,-0.196325,0.167594,9.701305,0.015963,0.028734,0.006385,34.669922,80.325000,25.495313
31.733122,-0.552153,-1.146175,-0.004928,0.014877,-0.124498,0.129287,9.725247,0.014899,0.024477,0.005321,35.742188,80.683594,25.150781
31.834213,-0.220341,-1.141053,-0.011776,0.025660,-0.205901,0.248997,9.662998,0.015963,0.035119,0.007450,35.742188,80.683594,25.150781
31.935579,0.077228,-1.148155,-0.008299,0.014979,-0.138864,0.186748,9.749189,0.014899,0.026606,0.007450,35.027344,80.683594,24.117188
32.036850,-0.197791,-1.168507,-0.002539,0.020735,-0.181959,0.153229,9.653421,0.018092,0.030863,0.010642,33.597656,81.042187,24.117188
32.138380,-0.184085,-1.158591,-0.013049,0.025885,-0.138864,0.177171,9.710882,0.012771,0.010642,0.009578,34.848633,80.145703,24.978516
32.240115,-0.148019,-1.146197,-0.009615,0.029693,-0.234632,0.191536,9.639056,0.024477,0.040441,0.005321,35.742188,81.042187,26.184375
32.341851,-0.241125,-1.165606,-0.036347,0.019057,-0.067038,0.114922,7.067683,0.018092,0.257542,-0.027670,34.312500,81.400781,23.772656
32.442707,-0.277927,-1.149228,-0.023489,0.018864,-0.067038,0.248997,9.864111,0.008514,-0.018092,0.004257,35.920898,80.862891,24.633984
32.543797,-0.159341,-1.151622,-0.006847,0.008697,-0.047884,0.143652,9.787496,0.019156,0.040441,0.009578,35.920898,80.504297,24.633984
32.644808,-0.093074,-1.183387,-0.015052,0.018584,-0.067038,0.215478,9.725247,0.018092,0.032991,0.006385,33.418945,81.221484,25.667578
32.746151,0.046575,-1.173388,-0.022746,0.013447,-0.090980,0.191536,9.730036,0.012771,0.028734,0.005321,33.418945,81.221484,25.667578
32.847802,-0.297984,-1.174827,-0.024280,0.015596,-0.076614,0.253785,9.749189,0.020220,0.028734,0.005321,33.418945,81.221484,25.667578
32.949325,-0.194078,-1.178479,-0.021714,0.022423,-0.090980,0.215478,9.682152,0.018092,0.031927,0.009578,33.418945,81.221484,25.667578
33.050639,-0.128585,-1.178554,-0.012255,0.025532,-0.124498,0.191536,9.576807,0.021284,0.039376,0.006385,33.418945,81.221484,25.667578
33.152523,0.062065,-1.144805,-0.022033,0.029634,-0.143652,0.248997,9.653421,0.021284,0.021284,0.006385,36.099609,80.683594,23.772656
33.254816,-0.174421,-1.135463,-0.020234,0.013395,-0.028730,0.225055,9.710882,0.018092,0.031927,0.006385,36.099609,79.607812,24.806250
33.357036,0.008890,-1.153629,0.000061,0.032299,-0.181959,0.172383,9.753978,0.009578,-0.004257,0.009578,35.206055,81.221484,24.289453
33.458751,-0.293761,-1.142219,-0.008280,0.035640,-0.339977,0.277727,9.931148,0.003193,0.004257,0.010642,36.099609,79.966406,23.772656
33.560115,-0.253866,-1.150931,-0.010143,0.016680,-0.076614,0.129287,9.864111,0.018092,0.001064,0.011706,34.848633,79.787109,24.978516
33.661273,-0.223333,-1.159499,-0.026896,0.009952,0.000000,0.277727,9.442731,0.014899,-0.013835,0.014899,34.133789,80.145703,24.633984
33.764070,-0.296311,-1.137405,-0.032227,0.017327,-0.052672,0.220267,9.907206,0.011706,-0.010642,0.013835,36.099609,79.607812,25.839844
33.865687,-0.349924,-1.156107,-0.015919,0.017515,-0.119710,0.158017,9.744401,0.019156,0.031927,0.005321,34.848633,80.145703,24.289453
33.967589,-0.068653,-1.158043,-0.025220,-0.002836,0.052672,0.196325,8.896853,0.018092,0.041505,0.004257,35.206055,80.862891,25.667578
34.068410,-0.134147,-1.161668,0.000040,0.013019,-0.095768,0.138864,9.677363,0.020220,0.039376,0.003193,35.563477,81.221484,23.944922
34.170299,-0.198348,-1.152489,-0.014584,0.004307,0.014365,0.162806,9.639056,0.017028,0.028734,0.009578,35.206055,79.787109,24.289453
34.271616,-0.068096,-1.139300,-0.048567,0.016846,0.033519,0.421379,9.749189,0.013835,-0.009578,0.013835,36.099609,79.966406,25.839844
34.372704,0.017934,-1.137877,-0.012870,0.013695,-0.067038,0.167594,9.528923,0.019156,0.026606,0.010642,36.099609,79.966406,25.839844
34.474760,-0.030902,-1.154121,-0.018105,0.029671,-0.158017,0.258574,9.715670,0.018092,0.043633,0.004257,33.776367,79.787109,25.323047
34.575451,-0.201431,-1.153602,-0.023500,0.020945,-0.081403,0.272939,9.830592,0.011706,0.004257,0.011706,35.206055,80.145703,24.633984
34.677356,-0.105878,-1.141091,-0.011069,0.024723,-0.153229,0.186748,9.461885,0.018092,0.026606,0.007450,36.099609,79.249219,24.461719
34.778801,-0.214958,-1.152611,-0.013227,0.040378,-0.205901,0.258574,9.600749,0.018092,0.051083,0.004257,35.027344,79.966406,26.528906
34.880255,0.020748,-1.168085,-0.003751,0.017194,-0.047884,0.153229,9.428366,0.021284,0.044697,0.002128,34.669922,80.325000,23.428125
34.981880,0.069078,-1.150973,-0.027257,0.025350,-0.076614,0.277727,9.768343,0.018092,0.018092,0.008514,35.027344,78.890625,25.150781
35.083948,-0.402499,-1.146161,-0.027577,0.006421,0.306458,0.541090,8.556877,0.014899,0.020220,0.010642,35.027344,78.890625,25.150781
35.185388,0.067226,-1.151927,-0.013454,0.028409,-0.124498,0.172383,9.639056,0.025541,0.065982,0.002128,35.027344,78.890625,25.150781
35.287694,-0.182921,-1.149414,-0.010980,0.025487,-0.229843,0.263362,10.103531,0.020220,0.037248,0.007450,35.027344,78.890625,25.150781
35.388939,0.020952,-1.151631,-0.028816,0.010950,-0.244209,0.349553,9.260772,0.018092,0.011706,0.010642,35.027344,78.890625,25.150781
35.491213,-0.141350,-1.149176,-0.018193,0.022747,-0.119710,0.229843,9.490615,0.018092,0.046826,0.000000,35.027344,78.890625,25.150781
35.592915,-0.371185,-1.153296,-0.013045,0.020528,-0.071826,0.158017,9.624691,0.023413,0.061725,0.001064,35.027344,78.890625,25.150781
35.695052,-0.113507,-1.142726,-0.012395,0.012488,-0.110133,0.181959,9.916783,0.020220,0.047890,0.007450,35.027344,78.890625,25.150781
35.796613,-0.351421,-1.144209,-0.024847,0.008000,-0.033519,0.253785,9.883264,0.011706,-0.007450,0.018092,35.027344,78.890625,25.150781
35.898381,-0.263576,-1.157448,-0.023954,0.011380,0.047884,0.220267,9.581595,0.020220,0.063853,-0.001064,35.027344,78.890625,25.150781
36.000731,-0.104749,-1.143433,-0.010573,0.029205,-0.129287,0.215478,9.749189,0.021284,0.056404,0.000000,35.742188,78.532031,24.117188
36.102328,-0.431581,-1.147109,0.002287,0.025843,-0.177171,0.124498,9.624691,0.017028,0.034055,0.006385,35.742188,79.966406,25.150781
36.204260,-0.041054,-1.146686,-0.023547,0.012791,-0.019154,0.196325,9.524134,0.024477,0.070239,-0.001064,35.920898,80.145703,24.978516
36.305698,-0.128242,-1.154340,-0.012359,0.029534,-0.344765,0.191536,9.318233,0.018092,0.023413,0.005321,35.206055,80.145703,24.633984
36.407466,-0.494206,-1.144837,-0.014655,0.013226,-0.043096,0.196325,9.409213,0.022349,0.073431,-0.004257,35.206055,79.069922,23.944922
36.508685,-0.032268,-1.157076,-0.006789,0.034837,-0.181959,0.191536,9.653421,0.018092,0.043633,0.006385,35.206055,81.221484,24.289453
36.610058,-0.182324,-1.157120,-0.013809,0.004011,0.316035,-0.023942,9.888053,0.020220,0.041505,0.003193,35.027344,81.042187,24.806250
36.711026,-0.103986,-1.169605,-0.019071,0.017919,-0.071826,0.220267,9.423578,0.020220,0.073431,-0.003193,34.669922,81.759375,24.117188
36.812714,-0.183821,-1.154706,-0.017606,-0.001978,0.081403,0.129287,9.859322,0.024477,0.062789,0.000000,35.742188,80.325000,23.428125
36.914432,-0.148638,-1.160176,-0.012748,0.008265,-0.019154,0.234632,9.892841,0.010642,-0.035119,0.020220,35.027344,80.683594,26.184375
37.016323,-0.145164,-1.148812,-0.028419,0.014974,-0.014365,0.277727,10.036493,0.019156,0.002128,0.011706,35.563477,79.787109,25.323047
37.117500,-0.258223,-1.132393,-0.022566,0.019074,-0.081403,0.272939,9.768343,0.008514,-0.036184,0.017028,36.635742,79.428516,24.978516
37.219428,-0.474559,-1.144130,-0.029358,0.023196,-0.047884,0.229843,9.327810,0.017028,0.006385,0.008514,35.206055,79.428516,25.667578
37.320545,-0.196367,-1.138961,-0.012626,0.028787,-0.143652,0.167594,9.552865,0.020220,0.069175,-0.002128,36.457031,80.325000,25.839844
37.421773,-0.402980,-1.161280,-0.017223,0.020100,-0.023942,0.205901,9.662998,0.022349,0.092588,-0.005321,35.563477,80.504297,24.289453
37.523841,-0.073814,-1.152352,-0.015805,-0.001708,0.622492,0.129287,10.256760,0.028734,0.017028,0.008514,34.491211,80.862891,24.289453
37.625750,-0.225354,-1.156707,-0.009607,0.023455,-0.158017,0.229843,9.414001,0.018092,0.040441,0.005321,34.491211,80.862891,24.289453
37.727036,0.200517,-1.149310,-0.016162,0.027607,-0.138864,0.225055,9.931148,0.021284,0.029798,0.005321,35.742188,80.325000,26.184375
37.829114,-0.122537,-1.169341,-0.017129,0.022009,-0.124498,0.248997,9.730036,0.013835,-0.001064,0.018092,33.597656,79.966406,24.806250
37.930818,-0.245879,-1.145847,-0.022930,0.017668,-0.043096,0.244209,9.969456,0.014899,-0.013835,0.018092,35.742188,79.249219,24.117188
38.032551,-0.170154,-1.142833,-0.053044,0.018548,0.043096,0.445322,8.595184,0.018092,0.027670,0.005321,35.742188,79.249219,24.117188
38.133817,-0.008361,-1.138318,-0.017549,0.012240,-0.057461,0.229843,10.352528,0.005321,-0.043633,0.022349,35.742188,79.249219,24.117188
38.235786,-0.235635,-1.141070,-0.003506,0.031261,-0.277727,0.124498,8.705317,0.024477,0.061725,0.001064,36.457031,80.325000,23.772656
38.337854,-0.163075,-1.150761,-0.029673,0.014093,-0.110133,-0.047884,9.552865,0.017028,0.003193,0.001064,36.099609,81.400781,24.461719
38.438695,-0.241552,-1.157463,-0.012506,0.041575,-0.292093,0.244209,10.022128,0.007450,-0.027670,0.025541,33.955078,79.607812,24.806250
38.540274,-0.275769,-1.148543,-0.027093,0.008031,0.057461,0.263362,9.648633,0.026606,0.095780,-0.009578,34.669922,78.532031,24.117188
38.642339,-0.148955,-1.148000,-0.000259,0.008388,0.000000,-0.426168,12.109872,0.018092,0.053211,-0.003193,35.920898,80.145703,25.667578
38.744255,-0.236684,-1.152782,-0.005630,0.004328,0.215478,0.292093,10.649409,-0.001064,-0.077688,0.031927,35.563477,80.504297,25.323047
38.845985,-0.262135,-1.151224,-0.038041,0.034102,-0.885855,0.325611,9.232042,0.018092,0.123450,-0.001064,35.206055,80.504297,26.701172
38.947798,-0.036495,-1.153740,-0.000790,0.027357,-0.244209,0.095768,9.404424,0.015963,0.053211,0.002128,35.027344,79.966406,25.495313
39.049184,-0.183763,-1.149455,-0.011718,0.020954,-0.019154,0.330400,9.466673,0.019156,0.041505,0.008514,36.099609,82.117969,26.528906
39.150494,-0.102903,-1.146806,-0.033981,0.017728,-0.028730,0.383072,9.581595,0.015963,0.029798,0.008514,36.099609,80.325000,24.806250
39.252231,-0.262950,-1.151535,-0.018734,0.024491,-0.110133,0.244209,9.715670,0.015963,0.029798,0.009578,35.563477,80.145703,24.633984
39.353366,-0.113764,-1.156789,-0.007335,0.027981,-0.186748,0.186748,10.208876,0.020220,0.018092,0.008514,34.848633,80.145703,25.667578
39.455118,0.008322,-1.147630,0.003937,0.016630,-0.349553,-0.181959,8.801085,-0.013835,-0.060661,0.003193,35.742188,79.249219,25.839844
39.557180,-0.197157,-1.145771,-0.008858,0.013784,0.067038,0.205901,10.170569,0.012771,0.010642,0.011706,35.920898,80.504297,25.323047
39.659014,-0.106533,-1.140825,-0.035363,0.042291,-0.067038,0.550666,8.508993,0.021284,-0.005321,0.032991,35.742188,80.683594,26.184375
39.761489,-0.257140,-1.146733,-0.017655,0.001276,0.210690,0.129287,10.079589,0.014899,0.017028,0.011706,35.563477,80.504297,24.978516
39.863384,-0.434814,-1.163693,-0.029172,0.031740,-0.220267,0.373495,9.931148,0.027670,0.068110,0.004257,34.133789,80.862891,25.323047
39.964992,-0.448132,-1.154957,-0.010028,0.010315,-0.119710,0.153229,9.562441,0.013835,0.015963,0.004257,37.171875,78.890625,25.495313
40.067067,-0.105181,-1.123479,-0.033669,0.002843,0.129287,0.335188,10.529699,0.024477,-0.010642,0.007450,37.171875,78.890625,25.495313
40.169709,-0.244598,-1.149726,-0.025578,0.014306,0.450110,0.177171,10.132261,0.026606,-0.010642,0.017028,35.206055,80.862891,25.667578
40.271880,-0.037672,-1.153888,-0.016007,0.013095,-0.114922,0.129287,10.888829,0.019156,0.038312,-0.001064,35.027344,79.966406,22.739062
40.373797,-0.310472,-1.143327,-0.039743,0.017155,0.483629,0.287304,9.078813,-0.003193,-0.111744,0.032991,35.563477,80.145703,24.978516
40.474803,-0.658886,-1.150207,0.004573,0.017738,-0.167594,0.162806,9.548076,0.020220,0.010642,0.014899,35.027344,80.325000,24.461719
40.576407,-0.301116,-1.158147,-0.013608,0.019839,-0.067038,0.201113,9.581595,0.014899,0.025541,0.008514,34.848633,79.787109,24.289453
40.678136,0.042313,-1.170859,-0.025260,0.002299,-0.009577,0.205901,9.600749,0.017028,0.026606,0.008514,33.597656,81.042187,25.150781
40.779169,-0.195028,-1.133786,-0.010831,0.013100,-0.100556,0.229843,9.658209,0.019156,0.031927,0.006385,36.099609,80.325000,25.150781
40.880782,-0.554644,-1.142835,-0.012676,0.015087,-0.129287,0.234632,9.471462,0.019156,0.009578,0.010642,35.206055,80.145703,25.667578
40.982013,-0.112484,-1.133845,0.011948,0.025435,-0.244209,0.043096,9.188946,0.010642,0.044697,0.009578,35.920898,78.711328,26.012109
41.084159,-0.095280,-1.141885,-0.021364,0.034599,-0.201113,0.301669,9.490615,0.018092,0.025541,0.008514,36.278320,80.504297,26.012109
41.184904,-0.262145,-1.146485,-0.033679,0.001003,0.344765,0.277727,6.933608,0.007450,0.042569,0.004257,35.206055,79.787109,24.633984
41.286638,-0.221473,-1.157162,-0.011262,0.021623,-0.181959,0.148441,9.533711,0.018092,0.038312,0.007450,34.491211,79.428516,26.356641
41.388600,-0.120291,-1.159521,-0.024131,0.025184,-0.081403,0.268151,9.787496,0.019156,0.032991,0.007450,34.491211,79.428516,26.356641
41.490436,-0.270891,-1.151949,-0.022680,0.010522,-0.014365,0.244209,9.610325,0.020220,0.021284,0.011706,34.491211,79.428516,26.356641
41.592529,-0.310217,-1.157637,-0.018001,0.014637,-0.043096,0.215478,9.873688,0.019156,0.027670,0.008514,35.206055,81.221484,24.289453
41.693884,-0.085650,-1.152727,-0.017710,0.011790,0.138864,0.244209,10.443508,0.019156,0.013835,0.011706,34.491211,78.352734,23.944922
41.796755,-0.101439,-1.150111,-0.022409,0.021486,-0.009577,0.220267,9.706094,0.018092,0.035119,0.006385,35.742188,79.966406,24.806250
41.898414,-0.069740,-1.142729,-0.014478,0.018698,0.043096,0.201113,9.830592,0.014899,0.026606,0.006385,35.742188,79.966406,24.806250
42.000508,-0.028163,-1.151115,-0.021761,0.005688,-0.071826,0.248997,9.744401,0.018092,0.028734,0.006385,34.669922,80.325000,25.495313
42.102411,0.045571,-1.172066,-0.015609,0.007582,-0.009577,0.172383,9.744401,0.019156,0.026606,0.005321,32.704102,79.069922,23.944922
42.203687,-0.463922,-1.158907,-0.001966,0.010794,-0.062249,0.162806,9.844957,0.017028,0.030863,0.004257,35.920898,81.221484,24.633984
42.305608,-0.134864,-1.160269,-0.003635,0.010897,-0.033519,0.143652,9.710882,0.018092,0.027670,0.006385,35.206055,81.221484,26.012109
42.407290,-0.198956,-1.158312,-0.014792,0.015232,-0.090980,0.162806,9.672575,0.018092,0.026606,0.008514,35.563477,81.938672,23.600391
42.510017,-0.032784,-1.157574,-0.014412,0.018017,-0.047884,0.186748,9.782708,0.017028,0.028734,0.006385,34.848633,79.428516,26.012109
42.611822,-0.397681,-1.148599,-0.021829,0.008728,-0.023942,0.205901,9.658209,0.017028,0.032991,0.005321,35.742188,81.042187,26.873438
42.715238,-0.129537,-1.159961,-0.023325,0.022009,-0.076614,0.239420,9.595960,0.017028,0.029798,0.010642,34.848633,80.504297,26.012109
42.818958,-0.204786,-1.160938,-0.016615,0.022680,-0.124498,0.225055,9.653421,0.018092,0.027670,0.005321,34.312500,79.607812,24.461719
42.922255,-0.698165,-1.143641,-0.003677,0.018181,-0.134075,0.162806,9.662998,0.017028,0.031927,0.006385,35.920898,80.504297,24.289453
43.026836,-0.147765,-1.161694,-0.012072,0.004174,-0.009577,0.148441,9.782708,0.018092,0.027670,0.007450,34.491211,80.862891,25.667578
43.127526,-0.165651,-1.154255,-0.014876,0.022536,-0.148441,0.234632,9.610325,0.017028,0.028734,0.009578,35.027344,79.966406,25.495313
43.229597,0.103603,-1.150579,-0.012225,0.020627,-0.124498,0.172383,9.686940,0.015963,0.026606,0.008514,35.027344,80.325000,25.495313
43.331357,-0.071506,-1.134793,-0.015364,0.011487,-0.019154,0.138864,9.629479,0.014899,0.028734,0.006385,36.278320,79.428516,24.978516
43.432224,0.133996,-1.157447,-0.017271,0.022701,-0.143652,0.292093,9.730036,0.015963,0.028734,0.009578,35.027344,82.117969,24.806250
43.534187,-0.141752,-1.157647,-0.010613,0.010587,-0.081403,0.248997,9.595960,0.015963,0.032991,0.008514,35.027344,82.117969,24.806250
43.636445,0.028091,-1.161174,-0.010736,0.010161,-0.076614,0.186748,9.686940,0.017028,0.030863,0.006385,35.027344,82.117969,24.806250
43.738631,-0.153290,-1.163804,-0.007165,0.015216,-0.067038,0.225055,9.706094,0.018092,0.030863,0.007450,35.027344,82.117969,24.806250
43.840892,-0.257930,-1.175887,-0.006206,0.019240,-0.129287,0.138864,9.816227,0.015963,0.027670,0.007450,33.955078,81.759375,25.150781
43.942022,0.229469,-1.157638,-0.015168,0.002435,-0.028730,0.143652,9.715670,0.014899,0.026606,0.005321,34.669922,81.042187,22.739062
44.044411,0.057556,-1.170488,-0.024034,0.012290,-0.014365,0.201113,9.691728,0.015963,0.029798,0.006385,33.597656,79.607812,24.806250
44.146441,-0.390813,-1.170234,-0.019628,0.019522,-0.143652,0.258574,9.725247,0.018092,0.027670,0.006385,33.597656,79.607812,24.806250
44.248745,-0.068339,-1.157947,-0.021552,0.015950,-0.062249,0.167594,9.662998,0.021284,0.027670,0.006385,35.384766,79.966406,24.806250
44.350439,-0.172050,-1.176161,-0.018205,0.005195,-0.014365,0.201113,9.677363,0.018092,0.027670,0.008514,33.776367,80.145703,24.633984
44.452335,-0.220176,-1.146455,-0.034957,0.009569,-0.019154,0.287304,9.710882,0.020220,0.029798,0.007450,35.742188,80.325000,23.772656
44.554183,-0.062993,-1.159901,-0.011555,0.024534,-0.129287,0.248997,9.629479,0.013835,0.027670,0.007450,34.669922,81.042187,25.150781
44.655381,-0.082114,-1.148147,-0.014366,0.020329,-0.124498,0.225055,9.744401,0.017028,0.028734,0.008514,35.742188,79.966406,25.495313
44.757324,-0.267852,-1.140772,-0.019396,0.023620,-0.076614,0.258574,9.701305,0.017028,0.028734,0.008514,36.635742,80.145703,26.012109
44.859070,-0.123261,-1.141630,-0.017316,0.021915,-0.081403,0.186748,9.749189,0.015963,0.029798,0.008514,34.848633,78.711328,22.911328
44.960992,-0.060155,-1.128149,-0.015676,0.004821,-0.023942,0.191536,9.662998,0.019156,0.029798,0.004257,36.457031,78.532031,25.150781
45.063542,0.037120,-1.155827,-0.016359,0.018855,-0.033519,0.181959,9.643844,0.017028,0.028734,0.010642,35.563477,80.145703,24.978516
45.164909,-0.053858,-1.142304,-0.012378,0.002594,-0.043096,0.158017,9.696517,0.017028,0.028734,0.006385,36.278320,81.221484,25.323047
45.266365,-0.575571,-1.150920,-0.017196,0.003809,-0.014365,0.172383,9.710882,0.017028,0.031927,0.003193,34.848633,79.428516,24.978516
45.368083,-0.279130,-1.154423,-0.006607,0.016340,-0.129287,0.191536,9.715670,0.023413,0.030863,0.011706,34.848633,80.862891,25.323047
45.469816,-0.166739,-1.138725,-0.001730,0.010637,-0.086191,0.114922,9.734824,0.017028,0.030863,0.007450,36.457031,80.683594,23.428125
45.571254,-0.199398,-1.145381,-0.029956,0.014853,-0.057461,0.272939,9.825804,0.014899,0.032991,0.007450,35.920898,80.862891,24.633984
45.672796,0.053783,-1.150797,-0.022877,0.024446,-0.086191,0.258574,9.720459,0.019156,0.027670,0.004257,35.920898,80.862891,24.633984
45.773985,-0.367526,-1.151369,-0.025776,0.020370,-0.052672,0.292093,9.677363,0.020220,0.027670,0.009578,35.920898,80.862891,24.633984
45.875845,-0.045632,-1.151157,-0.016938,0.027234,-0.119710,0.229843,9.706094,0.018092,0.029798,0.006385,35.920898,80.862891,24.633984
45.977705,0.088352,-1.150637,-0.017888,0.022959,-0.090980,0.253785,9.715670,0.017028,0.029798,0.010642,35.384766,79.607812,24.806250
