Time, Altitude, Yaw, Pitch, Roll, Ax, Ay, Az, Pitch_rate, Roll_rate,Yaw_rate, Magx, Magy, Magz0.837395,-0.201235,-0.169001,0.028294,0.056371,-0.148441,0.158017,9.643844,0.015963,0.030863,0.007450,29.844727,80.145703,24.978516
0.937623,-0.281927,-0.355932,0.037374,0.113768,-0.086191,0.191536,9.662998,0.017028,0.028734,0.006385,30.023438,79.966406,25.150781
1.037656,-0.077835,-0.537622,0.028172,0.153980,-0.023942,0.158017,9.686940,0.017028,0.028734,0.006385,29.844727,79.787109,24.978516
1.137955,0.096587,-0.711982,0.008651,0.168374,-0.062249,0.201113,9.653421,0.017028,0.027670,0.005321,31.989258,79.428516,25.667578
1.239351,-0.382279,-0.878005,-0.010864,0.154320,-0.114922,0.114922,9.706094,0.018092,0.028734,0.007450,30.559570,80.145703,25.667578
1.340891,-0.070456,-1.033926,-0.019917,0.108667,-0.234632,0.153229,9.619902,0.020220,0.029798,0.004257,31.274414,79.787109,24.978516
1.442405,-0.289829,-1.173381,-0.012126,0.029589,-0.100556,0.153229,9.533711,0.015963,0.027670,0.006385,30.559570,78.352734,26.012109
1.543670,-0.164555,-1.197862,-0.006198,0.020694,-0.047884,0.143652,9.763554,0.015963,0.028734,0.009578,31.989258,80.862891,26.356641
1.645376,-0.547827,-1.204746,-0.012095,0.026601,-0.134075,0.181959,9.653421,0.018092,0.028734,0.007450,30.380859,79.607812,26.528906
1.747550,0.003227,-1.203675,-0.022162,0.016561,-0.071826,0.196325,9.595960,0.021284,0.028734,0.007450,30.023438,78.890625,27.217969
1.849057,-0.298003,-1.206794,-0.004618,0.008712,-0.071826,0.071826,9.634267,0.018092,0.026606,0.006385,29.487305,79.069922,26.701172
1.950645,-0.281823,-1.216481,-0.010262,0.019803,-0.090980,0.129287,9.773131,0.017028,0.025541,0.008514,30.023438,81.042187,25.495313
2.051992,-0.467518,-1.210073,-0.024829,0.014435,-0.071826,0.258574,9.696517,0.017028,0.030863,0.005321,30.023438,81.042187,25.495313
2.153411,-0.564277,-1.199490,-0.013311,0.010064,-0.062249,0.162806,9.706094,0.018092,0.031927,0.008514,30.559570,79.787109,26.356641
2.254649,-0.681732,-1.184417,-0.013974,0.020678,-0.076614,0.181959,9.720459,0.013835,0.030863,0.006385,31.810547,78.173437,26.873438
2.356590,-0.407846,-1.209769,-0.011826,0.014568,-0.100556,0.090980,9.725247,0.017028,0.030863,0.006385,29.844727,80.504297,26.701172
2.457813,-0.687721,-1.211168,-0.009031,0.011555,-0.081403,0.110133,9.639056,0.019156,0.028734,0.007450,29.844727,80.504297,26.701172
2.559354,-0.243913,-1.216683,-0.007842,0.017404,-0.076614,0.119710,9.706094,0.018092,0.032991,0.008514,29.844727,80.504297,26.701172
2.660957,-0.565625,-1.209414,-0.005510,0.027221,-0.167594,0.158017,9.557653,0.019156,0.031927,0.008514,29.844727,80.504297,26.701172
2.762705,-0.424677,-1.191694,-0.008197,0.018471,-0.129287,0.129287,9.567230,0.014899,0.029798,0.005321,31.453125,79.249219,25.839844
2.863881,-0.298471,-1.207272,-0.024457,0.010347,-0.057461,0.177171,9.658209,0.018092,0.029798,0.010642,29.844727,79.787109,26.356641
2.965574,-0.471403,-1.193854,-0.015553,0.008798,0.033519,0.201113,9.629479,0.018092,0.029798,0.008514,30.738281,79.249219,27.217969
3.066596,-0.497266,-1.201895,-0.003931,0.020636,-0.134075,0.186748,9.610325,0.015963,0.031927,0.007450,30.559570,81.221484,27.390234
3.168516,-0.710155,-1.198112,-0.018642,0.015580,-0.081403,0.196325,9.639056,0.017028,0.030863,0.008514,30.559570,79.069922,24.633984
3.269927,-0.346445,-1.217601,-0.009137,0.004668,-0.004788,0.124498,9.662998,0.015963,0.027670,0.006385,30.023438,80.325000,24.461719
3.371767,-0.626806,-1.199615,-0.005444,0.023185,-0.134075,0.119710,9.801862,0.015963,0.027670,0.005321,30.380859,78.173437,25.839844
3.473151,-0.472698,-1.201334,-0.005230,0.031047,-0.177171,0.186748,9.706094,0.013835,0.029798,0.006385,30.380859,79.607812,26.873438
3.574211,-0.370061,-1.197728,-0.009895,0.027810,-0.100556,0.196325,9.787496,0.104294,0.035119,0.003193,30.738281,79.249219,25.150781
3.676108,-0.629289,-1.206541,-0.020816,0.017236,-0.047884,0.239420,9.706094,0.003193,0.028734,0.022349,29.666016,79.249219,25.150781
3.778208,-0.440373,-1.210501,0.006792,0.031160,-0.689530,-0.090980,8.078036,0.041505,0.064918,0.008514,29.666016,79.249219,25.150781
3.879303,-0.523365,-1.195082,-0.022147,0.006950,-0.057461,0.167594,9.639056,0.010642,0.032991,0.005321,30.559570,79.428516,26.012109
3.980917,-0.490292,-1.211868,-0.004305,0.040006,-0.277727,0.172383,9.730036,0.004257,0.027670,0.007450,29.129883,79.069922,26.701172
4.082536,-0.716639,-1.196421,-0.030300,0.014210,-0.086191,0.263362,9.658209,0.020220,0.030863,0.004257,30.559570,80.145703,25.667578
4.184318,-0.561927,-1.220412,-0.019939,0.020143,-0.067038,0.220267,9.739612,0.019156,0.031927,0.004257,29.308594,80.325000,26.528906
4.286073,-0.582211,-1.220024,-0.008118,-0.015213,0.172383,0.019154,9.504981,0.017028,0.024477,-0.004257,29.308594,80.325000,26.528906
4.387634,-0.537586,-1.214059,-0.022523,0.016016,-0.033519,0.301669,9.634267,0.030863,0.015963,0.015963,29.308594,80.325000,26.528906
4.489001,-0.269644,-1.216387,-0.014877,0.025151,-0.186748,0.215478,9.753978,0.009578,0.039376,0.010642,29.308594,80.325000,26.528906
4.590776,-0.110679,-1.193029,-0.019847,0.016448,-0.086191,0.177171,9.720459,0.014899,0.028734,0.010642,30.916992,79.428516,25.323047
4.692009,-0.536241,-1.198265,-0.026126,0.018129,-0.076614,0.272939,9.768343,0.018092,0.035119,0.007450,30.916992,80.862891,24.633984
4.793308,-0.486961,-1.197735,-0.027738,0.020284,-0.119710,0.277727,9.730036,0.015963,0.028734,0.007450,30.380859,79.607812,25.495313
4.895123,-0.489865,-1.202553,-0.012491,0.021615,0.047884,0.387861,9.710882,0.031927,0.027670,0.001064,30.916992,80.504297,24.978516
4.997059,-0.506050,-1.221503,-0.004932,0.023794,-0.129287,0.196325,9.495404,0.010642,0.026606,0.017028,28.772461,79.787109,26.701172
5.099397,-0.333231,-1.190417,-0.008726,0.006073,-0.033519,0.124498,9.739612,0.011706,0.029798,0.005321,31.274414,79.428516,23.944922
5.200850,-0.433882,-1.196794,-0.022325,0.012731,-0.014365,0.253785,9.696517,0.017028,0.000000,0.021284,30.202148,79.069922,25.323047
5.302624,-0.365361,-1.198722,-0.010789,0.011435,-0.100556,0.201113,9.725247,0.020220,0.026606,0.010642,29.844727,79.069922,26.356641
5.404530,-0.552507,-1.209874,-0.006134,0.004781,-0.019154,0.052672,9.682152,-0.004257,0.050019,0.133028,29.844727,79.069922,26.356641
5.506063,-0.620706,-1.194506,-0.010112,0.002371,-0.004788,0.172383,9.658209,0.011706,0.017028,-0.090459,31.095703,79.607812,25.495313
5.607924,-0.551094,-1.201462,-0.015270,0.010572,-0.043096,0.205901,9.672575,0.013835,0.013835,0.006385,30.738281,79.966406,25.839844
5.709393,-0.282936,-1.219914,-0.014918,0.016357,-0.033519,0.186748,9.629479,0.014899,0.034055,0.003193,29.666016,80.683594,25.150781
5.811643,-0.602145,-1.202129,-0.013529,0.003176,-0.081403,0.119710,9.777920,0.013835,0.030863,-0.151120,30.738281,79.966406,24.806250
5.912934,-0.893125,-1.205654,-0.001947,-0.003265,-0.009577,0.071826,9.634267,0.017028,0.031927,-0.043633,30.380859,79.607812,26.184375
6.014263,-0.240164,-1.197106,-0.020432,0.012488,-0.110133,0.220267,9.777920,0.017028,0.029798,0.006385,30.202148,79.428516,26.012109
6.116284,-0.490111,-1.202991,-0.017046,0.024244,-0.191536,0.248997,9.797073,0.014899,0.036184,0.010642,30.738281,79.966406,25.495313
6.217496,-0.761708,-1.204859,-0.009531,0.022287,-0.100556,0.205901,9.734824,0.022349,0.024477,0.007450,30.202148,79.069922,24.633984
6.318856,-0.522916,-1.215884,-0.014982,0.021045,-0.129287,0.205901,9.643844,0.019156,0.026606,0.005321,29.487305,80.145703,24.633984
6.420707,-0.909852,-1.207264,-0.007385,0.012044,-0.052672,0.143652,9.619902,0.020220,0.023413,0.007450,30.023438,78.532031,26.184375
6.522445,-0.282949,-1.200053,-0.012008,0.003889,-0.019154,0.186748,9.806650,0.014899,0.027670,0.003193,30.023438,78.532031,26.184375
6.624509,-0.780859,-1.201882,-0.018875,0.002104,0.148441,0.229843,9.782708,0.025541,0.017028,-0.015963,30.023438,78.532031,26.184375
6.726166,-0.532081,-1.196687,-0.013427,0.008508,-0.086191,0.153229,9.706094,0.022349,0.022349,0.004257,30.023438,78.532031,26.184375
6.828463,-0.105342,-1.204865,-0.031724,0.010760,0.009577,0.220267,9.600749,0.015963,0.026606,0.010642,30.023438,78.532031,26.184375
6.929493,-0.757490,-1.186092,-0.027462,0.018302,-0.009577,0.253785,9.844957,0.017028,0.032991,0.008514,32.167969,79.249219,25.839844
7.031889,-0.745339,-1.206896,-0.005661,0.009446,-0.043096,0.162806,9.749189,0.014899,0.029798,0.010642,30.380859,80.683594,25.150781
7.134254,-0.771026,-1.175581,-0.023538,0.003145,0.019154,0.229843,9.816227,0.017028,0.031927,0.005321,31.989258,78.352734,24.978516
7.235805,-0.416507,-1.196540,-0.013735,0.012108,-0.033519,0.138864,9.634267,0.015963,0.030863,0.009578,31.274414,77.994141,26.012109
7.337337,-0.373179,-1.194154,-0.022724,0.021074,-0.047884,0.248997,9.825804,0.018092,0.030863,0.008514,31.274414,78.711328,24.289453
7.439617,-0.550460,-1.183824,-0.016839,-0.005209,-0.019154,0.172383,9.658209,0.018092,0.030863,0.006385,31.989258,79.428516,26.356641
7.540655,-0.395428,-1.196159,-0.029097,0.024576,-0.071826,0.239420,9.792285,0.022349,0.026606,0.007450,30.738281,78.532031,25.150781
7.642596,-0.718772,-1.179751,-0.012873,0.021531,-0.119710,0.177171,9.763554,0.021284,0.023413,0.008514,32.346680,79.787109,26.356641
7.743461,-0.376471,-1.185293,-0.017041,0.016101,-0.090980,0.205901,9.667786,0.013835,0.032991,0.006385,32.346680,79.787109,26.356641
7.845538,-0.422933,-1.190107,-0.019331,0.001243,0.033519,0.181959,9.744401,0.021284,0.028734,0.007450,31.274414,79.428516,27.045703
7.947169,-0.625051,-1.212868,-0.018899,0.017874,-0.047884,0.177171,9.706094,0.015963,0.025541,0.006385,30.023438,79.249219,25.495313
8.048510,-0.530576,-1.206571,-0.011431,0.005157,-0.004788,0.172383,9.710882,0.023413,0.011706,0.009578,29.666016,78.173437,25.839844
8.150129,-0.599160,-1.196160,-0.017807,0.017849,-0.004788,0.287304,9.725247,0.029798,-0.048954,0.068110,30.738281,78.890625,25.150781
8.251446,-0.667972,-1.192679,-0.030337,-0.000071,0.105345,0.287304,9.782708,0.017028,-0.170276,0.004257,31.095703,79.249219,26.528906
8.352846,-0.365605,-1.211861,-0.022921,-0.046325,0.450110,0.172383,9.701305,0.014899,-0.553397,-0.022349,30.202148,77.994141,27.390234
8.454823,-0.317186,-1.222758,-0.056938,-0.128808,1.460463,0.229843,9.634267,0.000000,-0.812003,-0.077688,31.810547,76.380469,28.251563
8.556355,-0.583234,-1.299867,-0.098919,-0.253890,2.571373,0.258574,9.284714,-0.008514,-0.756663,-0.073431,30.202148,71.180859,31.180078
8.658328,-0.500595,-1.324349,-0.095947,-0.328897,3.136404,0.138864,9.112332,0.017028,-0.431011,-0.007450,29.666016,67.415625,31.696875
8.759753,-0.674776,-1.345855,-0.096150,-0.330827,3.313575,0.177171,9.160216,0.013835,-0.160698,-0.002128,29.666016,67.415625,31.696875
8.861940,-0.610016,-1.367136,-0.105838,-0.363926,3.634398,0.215478,9.102755,0.019156,-0.226680,0.002128,29.666016,67.415625,31.696875
8.963547,-0.587391,-1.401158,-0.106677,-0.424007,4.065354,0.205901,8.743624,0.009578,-0.300111,-0.017028,29.666016,67.415625,31.696875
9.065572,-0.771715,-1.419063,-0.098195,-0.448849,4.256891,0.263362,8.719682,0.008514,-0.179854,-0.011706,29.666016,67.415625,31.696875
9.167528,-0.525971,-1.405136,-0.117313,-0.495833,4.774038,0.272939,8.542512,-0.015963,-0.208588,-0.025541,31.453125,58.450781,32.385938
9.268975,-0.510615,-1.399167,-0.126670,-0.492045,4.711789,0.287304,8.461109,0.009578,-0.207524,-0.052147,31.453125,57.016406,30.318750
9.370135,-0.528136,-1.427546,-0.115351,-0.562715,5.200206,0.225055,8.221689,-0.043633,-0.371414,-0.057468,31.631836,57.195703,31.180078
9.471969,-0.625300,-1.439177,-0.092462,-0.592461,5.382165,0.047884,8.087613,0.001064,-0.130900,-0.034055,32.346680,55.044141,31.180078
9.573553,-0.384227,-1.447227,-0.092476,-0.591453,5.568913,0.153229,8.087613,0.006385,-0.235194,-0.005321,32.346680,55.044141,31.180078
9.675515,-0.759563,-1.513215,-0.058734,-0.667874,6.023811,0.172383,7.546524,-0.010642,-0.607672,-0.088331,30.202148,52.892578,31.524609
9.776998,-0.749869,-1.554037,-0.025605,-0.763033,6.780379,0.181959,6.861782,0.050019,-0.743893,0.043633,30.380859,48.410156,30.663281
9.879826,-0.648548,-1.578440,-0.024796,-0.792195,6.823475,0.220267,6.828263,0.003193,-0.013835,-0.006385,31.453125,45.182812,30.663281
9.981061,-0.529324,-1.588854,-0.017647,-0.817609,7.292738,0.277727,6.646304,-0.083009,-0.643856,0.022349,31.095703,44.824219,29.629687
10.082314,-0.634711,-1.608543,0.033695,-0.917786,8.125920,0.143652,5.334281,0.001064,-0.854572,-0.233065,33.776367,42.851953,28.079297
10.184097,-0.713274,-1.652593,0.114212,-0.976275,7.785944,0.086191,5.176264,0.019156,-1.095087,0.009578,32.346680,38.190234,27.045703
10.286184,-0.600283,-1.658216,0.166872,-1.087962,8.839393,-0.699107,5.008670,0.014899,-0.279891,-0.014899,35.206055,33.528516,24.633984
10.387542,-0.860411,-1.667432,0.227726,-1.161039,9.423578,0.009577,3.165135,0.010642,-1.376042,0.002128,32.704102,30.659766,22.566797
10.489669,-0.390025,-1.665598,0.340229,-1.297999,9.696517,0.282516,1.810016,0.006385,-0.803489,-0.052147,32.882812,25.101562,18.604688
10.591903,-0.581859,-1.666603,0.438825,-1.349074,9.591172,0.095768,1.814805,0.020220,0.009578,0.012771,34.312500,23.308594,18.604688
10.693211,-0.768816,-1.684474,0.453565,-1.381830,9.619902,0.215478,1.747767,0.013835,0.028734,0.008514,33.955078,22.950000,17.226562
10.795290,-0.245565,-1.683428,0.425633,-1.379993,9.538499,0.248997,1.776498,0.013835,0.015963,0.010642,33.061523,22.053516,16.020703
10.897724,-0.814566,-1.675747,0.450550,-1.368523,9.648633,0.162806,1.666364,0.002128,-0.015963,0.010642,32.346680,22.053516,16.365234
10.999143,-0.687894,-1.680427,0.447379,-1.384018,9.572018,0.234632,1.656788,0.019156,-0.046826,0.010642,31.631836,23.129297,17.054297
11.101206,-0.583883,-1.672107,0.469640,-1.400974,9.600749,0.234632,1.379060,0.015963,-0.286276,0.004257,32.704102,21.694922,16.365234
11.202612,-0.712719,-1.665884,0.506348,-1.421159,9.682152,0.167594,1.355118,0.017028,0.038312,0.005321,33.061523,21.694922,16.020703
11.304461,-0.578090,-1.662304,0.491684,-1.415407,9.730036,0.138864,1.283292,0.015963,-0.193689,0.004257,32.882812,22.232812,15.848438
11.406805,-0.738730,-1.629910,0.525813,-1.481680,9.667786,0.158017,0.617704,0.019156,-0.219230,0.004257,32.882812,22.232812,15.848438
11.508561,-0.662322,-1.656087,0.540636,-1.463948,9.691728,0.239420,0.866701,0.019156,-0.104294,0.005321,31.989258,20.260547,14.298047
11.610921,-0.306724,-1.618611,0.526920,-1.504265,9.734824,0.225055,0.536301,0.020220,0.015963,0.006385,32.882812,19.722656,13.436719
11.712857,-0.661944,-1.656270,0.534799,-1.480470,9.878476,0.761356,0.861913,0.015963,-0.238386,0.002128,32.882812,19.722656,13.436719
11.814370,-0.632887,-1.605404,0.569882,-1.538664,9.811438,0.215478,0.335188,0.015963,-0.023413,0.009578,32.882812,19.722656,13.436719
11.915967,-0.563606,-1.612327,0.576338,-1.541978,9.753978,0.201113,0.325611,0.015963,-0.041505,0.007450,32.882812,19.722656,13.436719
12.016571,-0.594924,-1.621844,0.537678,-1.526119,9.873688,0.277727,0.277727,0.019156,-0.070239,0.003193,32.882812,18.646875,11.369531
12.119101,-0.706828,-1.582448,0.579505,-1.556230,9.811438,0.153229,-0.019154,0.013835,-0.085138,0.006385,33.418945,17.750391,11.886328
12.220975,-0.556509,-1.582792,0.551029,-1.570250,9.873688,0.177171,-0.004788,0.022349,0.167083,0.010642,33.240234,19.722656,11.369531
12.322863,-0.422814,-1.596901,0.530810,-1.543119,9.792285,0.177171,0.215478,0.018092,0.044697,0.008514,32.882812,18.646875,11.714063
12.424157,-0.459418,-1.603019,0.532722,-1.533185,9.806650,0.191536,0.263362,0.015963,0.003193,0.008514,32.346680,18.108984,11.197266
12.526210,-0.401546,-1.606538,0.557326,-1.551428,9.768343,0.234632,0.162806,0.015963,0.046826,0.008514,34.133789,19.543359,12.575391
12.627454,-0.626217,-1.606030,0.540363,-1.554168,9.811438,0.229843,0.210690,0.020220,-0.035119,0.009578,33.776367,18.826172,10.508203
12.729724,-0.551430,-1.590866,0.544590,-1.535945,9.753978,0.124498,0.134075,0.019156,0.038312,0.006385,31.810547,18.646875,12.403125
12.830943,-0.402550,-1.608682,0.568111,-1.572921,9.830592,0.296881,0.172383,0.018092,-0.025541,0.007450,33.597656,19.722656,11.025000
12.932892,-0.717966,-1.594667,0.536580,-1.562911,9.878476,0.320823,0.052672,0.022349,0.045762,0.008514,32.882812,20.081250,12.058594
13.034687,-0.248493,-1.587617,0.571282,-1.552749,9.730036,0.181959,-0.019154,0.017028,0.022349,0.006385,31.810547,16.495313,12.058594
13.136264,-0.585274,-1.600261,0.627406,-1.574209,9.763554,0.234632,-0.038307,0.013835,0.001064,0.008514,33.061523,19.543359,11.541797
13.238504,-0.336350,-1.597958,0.560971,-1.563383,9.821015,0.225055,0.067038,0.020220,0.143670,0.011706,33.061523,19.543359,11.541797
13.340146,-0.485066,-1.609105,0.567298,-1.546278,9.782708,0.196325,0.272939,0.019156,0.526791,0.017028,33.418945,18.108984,12.230859
13.442401,-0.537560,-1.640039,0.477394,-1.475633,9.715670,0.229843,0.943315,0.015963,0.510828,0.022349,32.167969,19.005469,12.747656
13.543557,-0.306029,-1.658871,0.459751,-1.422891,9.686940,0.196325,1.335965,0.020220,0.006385,0.004257,31.989258,19.184766,13.953516
13.645314,-0.494219,-1.634410,0.511899,-1.465616,9.811438,0.124498,0.928950,0.019156,-0.120257,0.004257,31.453125,21.874219,15.503906
13.746415,-0.350112,-1.662412,0.446411,-1.419559,9.710882,0.181959,1.436521,0.012771,0.211781,0.007450,32.704102,20.977734,14.642578
13.849187,-0.178105,-1.667481,0.475807,-1.382043,9.667786,0.177171,1.541866,0.018092,-0.037248,0.005321,32.346680,21.336328,16.365234
13.951283,-0.577884,-1.654946,0.512242,-1.437085,9.763554,0.205901,1.120486,0.020220,-0.122386,0.003193,33.240234,21.874219,16.192969
14.052757,-0.392625,-1.651678,0.530510,-1.436993,9.739612,0.153229,1.072602,0.015963,0.054275,0.008514,33.240234,21.874219,16.192969
14.154487,-0.323551,-1.647219,0.495716,-1.434797,9.763554,0.153229,1.283292,0.018092,0.366093,0.012771,33.240234,21.874219,16.192969
14.256430,-0.642037,-1.678009,0.460556,-1.380866,9.706094,0.277727,1.881843,0.021284,0.052147,0.000000,33.240234,21.874219,16.192969
14.357658,-0.633445,-1.669105,0.431173,-1.365041,9.610325,0.158017,1.742979,0.019156,0.159634,0.009578,33.240234,21.874219,16.192969
14.460062,-0.393099,-1.673823,0.395243,-1.349894,9.586383,0.110133,2.097321,0.207524,0.576810,0.060661,33.240234,21.874219,16.192969
14.561707,-0.550239,-1.686345,0.329264,-1.265670,9.294291,0.114922,2.772486,0.019156,0.819453,0.014899,33.240234,24.025781,18.260156
14.663401,-0.356572,-1.692530,0.225158,-1.175872,8.734048,0.153229,3.816357,0.022349,0.493800,0.011706,32.704102,27.073828,19.466016
14.765353,0.105346,-1.703569,0.206130,-1.106365,8.638280,0.181959,4.438850,0.028734,1.237693,0.019156,32.167969,30.839063,23.772656
14.866608,-0.176188,-1.641546,0.050473,-0.999854,8.101978,0.215478,5.391742,0.052147,1.185546,0.042569,33.418945,33.169922,23.600391
14.968338,-0.438334,-1.590286,-0.055761,-0.857535,6.952762,0.167594,6.698976,0.023413,1.854943,0.026606,33.061523,41.417578,27.045703
15.069972,-0.213717,-1.523254,-0.132629,-0.679360,5.564125,0.148441,8.030152,0.533176,0.956738,0.724737,31.095703,49.844531,31.352344
15.171871,-0.673781,-1.447428,-0.190542,-0.518986,4.161122,0.234632,8.566454,0.005321,1.995420,0.012771,31.274414,56.119922,30.491016
15.273411,-0.405746,-1.363598,-0.207750,-0.345927,2.331952,0.062249,9.461885,0.045762,0.682168,0.121322,31.095703,65.981250,29.974219
15.374952,-0.391868,-1.298452,-0.156178,-0.191025,1.125275,0.282516,9.892841,0.021284,1.088701,0.043633,29.666016,69.567188,29.629687
15.477003,-0.233652,-1.249539,-0.137910,-0.083949,0.215478,0.474052,9.734824,0.056404,-0.025541,-0.002128,29.308594,78.173437,26.528906
15.578367,-0.453840,-1.203801,-0.021306,-0.008020,0.047884,0.181959,9.610325,-0.004257,0.095780,0.015963,30.380859,80.325000,27.217969
15.680288,-0.328185,-1.213722,-0.025257,0.013233,-0.019154,0.277727,9.811438,0.038312,0.000000,0.002128,29.487305,79.787109,25.667578
15.781702,-0.714199,-1.191351,-0.006115,0.018919,-0.177171,0.009577,9.485827,0.015963,0.046826,0.005321,30.916992,78.711328,24.633984
15.883139,-0.328615,-1.173847,-0.041940,0.017990,0.033519,0.512359,9.533711,0.020220,0.048954,0.245836,32.346680,79.069922,26.356641
15.985023,-0.491247,-1.200062,-0.001093,0.052900,-2.092532,-0.129287,9.878476,0.032991,0.205395,-0.155377,30.559570,79.787109,25.323047
16.086832,-0.587835,-1.192257,-0.048356,0.096292,-0.660800,0.713472,9.524134,0.204331,0.728994,0.074496,30.559570,83.373047,23.255859
16.188661,-0.577974,-1.177940,-0.045940,0.194308,-1.833958,0.905008,9.964667,-0.084074,1.203638,0.011706,30.738281,85.703906,17.226562
16.289924,-0.621871,-1.192024,-0.005213,0.306834,-3.303998,0.387861,10.108319,-0.022349,1.649548,0.012771,30.738281,85.703906,17.226562
16.391760,-0.503696,-1.201689,0.002034,0.439212,-5.372589,-0.004788,7.752425,-0.357579,1.468629,0.113872,30.738281,85.703906,17.226562
16.493746,-0.100343,-1.218798,0.029968,0.592091,-7.168240,0.220267,5.913678,-0.159634,1.164261,0.173469,30.738281,85.703906,17.226562
16.595528,-0.118241,-1.267877,0.083456,0.709835,-7.671022,0.043096,6.076484,-0.251157,1.183417,0.025541,30.738281,85.703906,17.226562
16.696751,-0.231116,-1.380368,0.012446,0.836015,-8.403648,-0.043096,4.721366,-0.181982,1.419675,0.002128,25.555664,91.620703,-6.718359
16.798595,-0.313246,-1.480101,-0.066878,0.949060,-7.742848,-0.143652,4.175488,-0.251157,1.679346,0.087266,23.232422,90.724219,-11.369531
16.900412,-0.188844,-1.531146,-0.150964,1.093242,-9.969456,-0.574608,2.092532,-0.294790,1.133399,-0.085138,21.087891,89.289844,-18.604688
17.002368,-0.286170,-1.542613,-0.201796,1.259969,-9.572018,-0.536301,1.292869,0.171340,0.419304,0.126643,26.091797,87.496875,-21.705469
17.104596,-0.236060,-1.581843,-0.238984,1.411171,-9.763554,-0.440533,0.114922,0.034055,0.378864,-0.043633,27.164062,87.138281,-26.184375
17.206276,-0.110370,-1.604248,-0.306509,1.525746,-9.878476,-1.211466,-0.392649,-0.046826,0.412919,-0.221359,28.772461,86.600391,-28.423828
17.307822,-0.158298,-1.587474,-0.335681,1.608462,-9.672575,-0.119710,-1.077391,-0.032991,0.200074,0.025541,29.666016,87.855469,-29.974219
17.410199,0.164385,-1.564659,-0.355919,1.642205,-9.557653,-0.114922,-1.024718,-0.052147,0.242643,0.022349,30.023438,87.138281,-30.318750
17.512123,-0.426836,-1.539954,-0.397041,1.681340,-9.902418,-0.158017,-1.144428,-0.040441,0.202203,0.004257,30.380859,85.345312,-33.075000
17.613831,-0.084569,-1.566971,-0.406234,1.651906,-9.950302,-0.474052,-0.450110,-0.007450,0.121322,0.039376,30.023438,85.345312,-33.075000
17.715508,-0.342505,-1.553462,-0.406412,1.663158,-9.988609,-0.320823,-0.622492,0.029798,-0.124514,0.004257,30.916992,84.807422,-33.936328
17.817464,-0.327699,-1.576475,-0.396949,1.625770,-9.940725,-0.263362,-0.148441,0.023413,-0.056404,0.001064,30.023438,85.703906,-31.696875
17.918612,-0.136710,-1.559989,-0.383472,1.648251,-9.945514,-0.090980,-0.454898,-0.043633,-0.073431,-0.071303,30.738281,86.421094,-33.075000
18.020101,-0.253407,-1.551313,-0.397191,1.658926,-9.859322,-0.191536,-0.670376,0.036184,0.054275,0.076624,30.738281,86.421094,-33.075000
18.122996,-0.033889,-1.544668,-0.392172,1.660858,-9.797073,-0.263362,-0.545878,0.039376,-0.192625,-0.025541,28.951172,86.062500,-33.075000
18.224299,-0.222855,-1.555147,-0.361886,1.640970,-10.189722,-0.268151,-0.541090,-0.118129,-0.922682,-0.023413,30.023438,85.345312,-32.385938
18.325533,-0.572056,-1.555714,-0.273495,1.604487,-8.465897,-0.129287,1.374272,0.126643,-1.490978,0.134092,27.164062,86.779687,-29.285156
18.427273,-0.223040,-1.629964,0.026039,1.469651,-7.924807,-0.454898,4.572925,0.175597,-3.271425,-0.455488,25.376953,88.214062,-21.360938
18.528977,-0.418757,-1.643328,0.192200,1.364679,-6.732495,-0.852336,7.173028,0.178790,-1.710208,0.004257,24.662109,89.289844,-6.546094
18.630770,-0.268926,-1.628425,0.314185,1.253496,-5.568913,-0.785298,7.532158,0.039376,-1.526098,-0.098973,21.981445,86.600391,-0.172266
18.732789,-0.435561,-1.608191,0.414699,1.134606,-4.118027,-1.058237,9.466673,0.095780,-1.533547,-0.243707,21.981445,85.166016,6.373828
18.834638,-0.447614,-1.580088,0.545373,0.993122,-1.522712,-0.972046,10.132261,-0.003193,-1.361143,-0.112808,23.768555,80.504297,10.163672
18.936289,-0.119801,-1.527208,0.571557,0.849153,-0.483629,-0.521936,9.840169,0.208588,-1.041876,-0.141542,23.768555,80.504297,10.163672
19.038624,-0.760374,-1.485166,0.586085,0.703749,-0.124498,-0.660800,9.825804,-0.008514,-1.239821,-0.250093,23.768555,80.504297,10.163672
19.140145,-0.250740,-1.429621,0.507679,0.570380,1.221043,-0.263362,9.739612,-0.002128,0.385249,0.153248,26.627930,72.973828,19.810547
19.242265,-0.217064,-1.366563,0.427271,0.437314,0.986411,-0.311246,9.983821,0.017028,0.032991,-0.004257,25.555664,72.256641,19.810547
19.343893,-0.106762,-1.306760,0.332738,0.296470,0.957681,-0.402226,9.763554,0.152184,-0.076624,0.039376,25.198242,72.615234,20.155078
19.445565,-0.476930,-1.259695,0.225684,0.153971,1.173159,-0.493206,9.720459,0.100037,-0.202203,-0.031927,25.555664,71.898047,20.499609
19.547260,-0.325843,-1.232821,0.111157,0.015327,1.072602,-0.129287,9.672575,0.151120,-0.457616,-0.051083,25.198242,69.746484,22.222266
19.649010,-0.509821,-1.252104,0.043462,-0.136143,1.556231,-0.392649,10.189722,-0.222423,-1.406904,-0.160698,25.198242,69.746484,22.222266
19.750387,-0.077065,-1.285580,-0.015272,-0.294659,3.303998,-0.454898,9.533711,-0.055340,-0.940774,-0.195817,27.342773,67.594922,24.978516
19.851695,-0.309898,-1.341352,-0.062268,-0.422492,4.199430,0.009577,8.528146,-0.086202,-0.987600,-0.262863,27.878906,62.036719,24.461719
19.952852,-0.436635,-1.401548,-0.056358,-0.574920,5.367800,-0.047884,7.809886,0.199010,-1.533547,-0.360772,30.202148,57.554297,26.012109
20.055022,-0.204888,-1.505267,0.015849,-0.704293,6.368576,0.521936,6.205771,0.075560,-1.996485,-0.270313,27.164062,51.996094,26.873438
20.157041,-0.439092,-1.575011,0.119613,-0.819791,8.796297,1.000776,4.429273,0.522534,-1.341987,-0.222423,25.734375,39.803906,25.495313
20.258831,-0.318915,-1.633116,0.234145,-0.918383,9.045294,1.201889,2.667141,0.664076,-1.549511,-0.225616,25.198242,32.452734,22.222266
20.361034,-0.142089,-1.683674,0.305150,-1.031298,9.136274,1.781286,1.757344,0.110679,-1.177032,-0.143670,21.624023,25.639453,18.432422
20.462540,-0.670897,-1.709259,0.312853,-1.185128,9.624691,1.580173,0.871489,-0.108551,-0.271377,-0.039376,17.513672,22.232812,13.781250
20.564102,-0.287269,-1.722934,0.307539,-1.348474,9.797073,1.910573,-0.421379,-0.122386,-0.095780,0.010642,20.730469,20.081250,11.025000
20.666415,-0.410588,-1.749269,0.370385,-1.492471,10.060435,1.781286,0.158017,-0.095780,-0.141542,0.037248,21.266602,18.826172,9.819141
20.768187,-0.114662,-1.783063,0.498496,-1.464739,9.672575,1.867477,0.450110,0.037248,0.044697,-0.013835,19.836914,16.674609,11.197266
20.869826,-0.294692,-1.764422,0.632729,-1.514536,9.313444,1.666364,0.263362,0.085138,-0.076624,-0.035119,21.087891,16.853906,12.403125
20.971603,-0.379207,-1.769061,0.657419,-1.530634,9.562441,1.604115,0.440533,-0.019156,0.062789,-0.001064,20.730469,18.288281,11.714063
21.072885,-0.079594,-1.755831,0.690133,-1.519243,10.223241,1.685518,0.316035,0.020220,0.173469,0.007450,21.981445,17.750391,13.264453
21.174432,-0.114907,-1.770165,0.711730,-1.524239,10.089166,1.685518,0.454898,-0.028734,0.259671,0.008514,21.981445,17.750391,13.264453
21.275876,-0.243878,-1.787278,0.730630,-1.520954,9.926360,1.795651,0.167594,-0.034055,0.219230,-0.014899,21.981445,17.750391,13.264453
21.377544,-0.205463,-1.773596,0.736368,-1.521499,10.060435,1.747767,0.392649,0.083009,-0.187303,-0.011706,21.981445,17.750391,13.264453
21.479279,0.091220,-1.811293,0.718679,-1.493422,9.179369,1.695095,0.823605,0.052147,-0.068110,-0.017028,21.624023,18.108984,11.197266
21.580883,0.127971,-1.797515,0.683047,-1.546336,10.026917,1.800440,-0.335188,0.013835,0.257542,-0.024477,21.624023,18.108984,11.197266
21.682290,-0.116447,-1.804677,0.647493,-1.510131,8.916007,1.599327,0.656011,0.067046,0.319267,-0.006385,21.266602,18.826172,11.197266
21.783966,-0.019112,-1.804576,0.666567,-1.532933,9.399636,2.231396,0.000000,-0.028734,-0.058532,0.032991,20.015625,16.853906,11.025000
21.886191,-0.277942,-1.803902,0.728862,-1.514824,9.361328,1.924938,0.349553,0.005321,0.071303,-0.015963,18.049805,18.108984,13.264453
21.987795,-0.273214,-1.827374,0.689276,-1.482589,9.677363,1.848324,0.790087,0.013835,1.012077,0.017028,19.658203,17.212500,11.714063
22.089806,-0.425230,-1.820208,0.600681,-1.421796,8.882488,2.394202,2.518700,-0.173469,1.644226,0.085138,20.015625,17.571094,14.470313
22.191438,-0.104920,-1.828151,0.331353,-1.375518,9.959879,1.173159,5.999869,-0.105358,1.198317,0.218166,20.730469,25.101562,22.394531
22.293158,-0.416294,-1.823774,0.201025,-1.297672,7.436390,0.976834,7.345411,-0.190496,1.598465,0.140478,21.445312,39.086719,27.217969
22.395246,-0.447734,-1.819001,0.035749,-1.228477,5.707777,1.082179,8.298303,-0.023413,1.809181,0.006385,22.696289,47.513672,29.112891
22.496757,-0.035809,-1.825844,-0.090402,-1.136819,3.418920,1.221043,9.380482,0.003193,0.809875,-0.097909,23.232422,56.299219,26.528906
22.598210,0.035536,-1.828026,-0.196080,-1.025325,3.174711,1.493982,8.125920,0.075560,1.088701,-0.040441,23.232422,65.622656,26.184375
22.700462,-0.233760,-1.808997,-0.208405,-0.891964,1.589750,1.498770,8.504204,-0.181982,0.622571,0.158569,22.875000,68.491406,24.117188
22.802012,-0.433329,-1.785864,-0.229597,-0.745546,1.465251,1.206678,9.131485,0.047890,0.600222,0.045762,23.411133,69.746484,24.633984
22.904371,-0.332152,-1.750014,-0.234707,-0.588987,1.101333,1.403002,9.581595,0.000000,0.476772,-0.056404,22.160156,71.001562,23.772656
23.006166,-0.106450,-1.694330,-0.261340,-0.434927,0.009577,1.182736,10.204087,0.150056,0.899269,-0.148991,21.981445,74.049609,22.222266
23.107627,-0.358339,-1.613685,-0.298395,-0.293250,-0.924162,1.292869,10.017340,-0.204331,1.154683,0.008514,21.981445,74.049609,22.222266
23.208786,-0.271115,-1.527875,-0.389924,-0.155936,-2.264915,1.307234,9.361328,-0.125578,2.034797,0.076624,22.696289,76.559766,20.499609
23.310679,-0.095303,-1.486844,-0.476668,-0.033834,-4.424485,1.197101,8.571242,-0.544883,1.779383,-0.421433,21.981445,80.862891,13.264453
23.411822,-0.330551,-1.459426,-0.606160,0.100664,-5.272032,1.072602,7.460332,-0.319267,3.063902,-0.259671,20.373047,86.421094,5.857031
23.512542,0.181265,-1.425230,-0.724866,0.252484,-6.785168,0.531513,5.037400,-0.223487,2.080558,-0.012771,20.194336,89.110547,-6.029297
23.614902,-0.219728,-1.387001,-0.819783,0.437104,-7.603984,0.387861,3.438074,-0.101101,1.788961,-0.001064,18.228516,88.931250,-12.747656
23.717414,-0.175086,-1.333722,-0.889967,0.636507,-8.140286,-0.129287,1.345541,-0.092588,0.896077,0.070239,18.228516,88.931250,-12.747656
23.819657,0.021378,-1.276979,-0.862417,0.821593,-9.763554,0.225055,-0.067038,0.053211,0.102166,0.042569,18.228516,88.931250,-12.747656
23.921040,-0.069552,-1.256455,-0.785321,0.974814,-9.203311,-0.057461,0.435745,0.008514,0.146863,-0.065982,18.228516,88.931250,-12.747656
24.023075,-0.301296,-1.268913,-0.665588,1.110475,-9.581595,0.162806,-0.138864,0.047890,-0.416112,0.023413,20.909180,87.317578,-27.734766
24.125352,-0.170101,-1.328504,-0.522734,1.224476,-10.228029,-0.057461,0.905008,-0.047890,-0.117065,0.078753,20.015625,86.421094,-26.184375
24.227048,-0.437399,-1.408663,-0.361697,1.321805,-8.872911,0.464475,1.058237,-0.053211,-1.024848,0.222423,20.194336,86.958984,-26.012109
24.328253,-0.400442,-1.553103,-0.162733,1.310272,-8.604761,0.244209,2.547431,0.056404,-1.070610,0.173469,20.194336,89.827734,-21.188672
24.429758,-0.010614,-1.590412,-0.004803,1.166594,-9.777920,-0.608127,4.386177,-0.434203,-2.738249,-0.180918,19.836914,89.469141,-15.331641
24.530619,-0.049758,-1.569548,0.143948,1.024486,-7.465121,-0.067038,8.125920,-0.158569,-1.900705,-0.179854,21.266602,89.469141,-4.995703
24.632507,-0.256629,-1.536787,0.261012,0.858122,-5.391742,-0.177171,8.149862,0.088331,-1.795346,-0.319267,20.194336,87.676172,3.273047
24.734673,-0.489937,-1.487570,0.328310,0.678596,-3.734955,-0.244209,8.494627,-0.081945,-1.430317,-0.074496,19.658203,86.062500,8.268750
24.836586,-0.086512,-1.432930,0.339131,0.504165,-2.346318,-0.311246,8.647856,-0.175597,-0.686425,-0.068110,22.160156,83.910938,13.092187
24.938135,-0.258522,-1.390679,0.317610,0.367613,0.047884,-0.421379,9.572018,0.441653,-0.688553,-0.078753,21.266602,79.787109,16.020703
25.039791,-0.026442,-1.342808,0.281924,0.237981,-0.995988,-0.397437,9.524134,0.368222,-0.703452,0.014899,21.624023,77.276953,17.743359
25.141617,-0.180654,-1.302909,0.177563,0.128895,-0.014365,0.335188,9.155427,0.285212,-0.346937,-0.107487,22.338867,75.125391,19.810547
25.243371,-0.393693,-1.279548,0.030343,0.040837,0.129287,0.287304,9.394847,-0.072367,0.011706,-0.221359,22.338867,75.125391,19.121484
25.345868,-0.099052,-1.310904,-0.030532,-0.102239,1.106121,0.023942,10.251972,0.067046,-0.163891,0.114936,22.338867,75.125391,19.121484
25.447301,-0.171324,-1.292055,-0.098789,0.004505,2.312799,-0.033519,9.433155,0.324588,0.382057,-0.239450,22.160156,74.946094,19.638281
25.549134,-0.150816,-1.289282,-0.034168,0.054854,-1.302446,-0.876278,9.112332,-0.073431,0.765177,-0.085138,22.160156,74.946094,19.638281
25.651509,-0.167793,-1.272665,-0.014459,0.060608,-0.560243,0.359130,9.514557,-0.458681,-0.152184,-0.131964,22.696289,77.994141,16.709766
25.753300,-0.048208,-1.277014,0.063417,-0.001980,-0.483629,-0.909797,10.093954,-1.072738,0.157505,0.095780,22.875000,77.097656,16.882031
25.854767,-0.186814,-1.249775,0.142769,-0.019815,-0.134075,-1.498770,9.821015,-0.863086,-0.421433,-0.040441,25.913086,77.994141,15.676172
25.956794,0.043040,-1.202661,0.192429,-0.148933,-0.928950,-3.706224,9.179369,-2.256155,0.139413,0.034055,30.738281,77.097656,14.470313
26.058437,-0.254433,-1.100809,0.289248,-0.310938,-1.278504,-6.220136,6.737283,-1.260042,-0.006385,0.036184,37.529297,77.814844,12.058594
26.160449,-0.117633,-1.000970,0.412549,-0.397735,-0.162806,-6.569689,6.660669,-0.784333,0.169212,-0.060661,41.818359,77.097656,9.646875
26.262171,-0.224153,-0.861640,0.509212,-0.503246,-0.651223,-7.632715,5.966351,-0.990793,0.020220,-0.128771,43.605469,77.456250,8.957813
26.364051,0.248129,-0.704673,0.551618,-0.669943,-1.072602,-8.255207,4.338293,-1.195124,0.059597,-0.197946,47.537109,77.456250,4.134375
26.465898,0.011220,-0.536246,0.523431,-0.864024,-1.546654,-8.154651,3.543418,-0.933325,-0.076624,-0.078753,47.537109,77.456250,4.134375
26.567415,-0.240141,-0.334031,0.504152,-1.062292,-0.632069,-9.385271,2.044648,-0.841801,0.041505,0.059597,50.217773,77.635547,0.172266
26.669559,-0.003071,-0.146181,0.431092,-1.244605,-0.555455,-9.303868,0.818817,-1.025912,0.031927,0.008514,51.468750,77.456250,-3.445312
26.771187,-0.278316,0.005870,0.335685,-1.407009,-0.708684,-9.265560,-0.344765,-0.486350,-0.143670,-0.203267,52.362305,77.276953,-8.441016
26.872232,-0.105859,0.031895,0.144929,-1.510469,-0.349553,-9.940725,-0.579397,-0.162826,-0.034055,-0.137285,54.506836,76.918359,-9.474609
26.974736,0.234004,0.023055,-0.036972,-1.571612,-0.387861,-9.337386,-1.000776,0.011706,-0.057468,-0.005321,54.149414,74.408203,-12.575391
27.075750,0.012112,0.026563,-0.200110,-1.609052,-0.608127,-10.376470,-0.790087,-0.134092,-0.223487,-0.148991,55.400391,76.021875,-11.714063
27.177701,-0.005596,0.005264,-0.293529,-1.664996,-0.526724,-9.878476,-1.019930,0.040441,0.076624,0.009578,55.400391,76.021875,-11.714063
27.279952,-0.096490,-0.036969,-0.354847,-1.700133,-0.162806,-9.557653,-1.101333,0.071303,0.007450,0.032991,55.400391,76.021875,-11.714063
27.382027,-0.115014,-0.024774,-0.340163,-1.687970,-0.325611,-9.375694,-1.350330,0.301175,0.185175,0.109615,55.936523,75.483984,-12.230859
27.483513,-0.101439,0.016160,-0.257240,-1.601956,-0.191536,-9.212888,-0.220267,0.525727,0.073431,0.139413,54.864258,78.352734,-10.163672
27.585278,0.302821,0.067860,-0.224781,-1.617670,-0.871489,-9.600749,-0.526724,0.296919,0.027670,0.046826,53.613281,76.739063,-8.613281
27.686831,-0.112564,0.026249,-0.130402,-1.543455,-0.052672,-9.753978,0.579397,0.591709,-0.017028,-0.107487,53.791992,75.483984,-6.373828
27.788718,-0.272977,0.022861,-0.006360,-1.480594,-0.148441,-9.399636,1.312023,0.703452,-0.189432,-0.176661,54.328125,75.663281,-4.478906
27.889546,0.172805,-0.011309,0.160292,-1.394559,-0.248997,-9.361328,2.063802,0.832223,0.035119,0.106422,52.183594,75.304688,-1.033594
27.991929,-0.097394,-0.073614,0.335576,-1.283487,-0.215478,-9.045294,2.662352,1.333473,-0.060661,-0.112808,52.183594,75.304688,-1.033594
28.093547,-0.062094,-0.177909,0.498748,-1.147390,-0.134075,-7.762002,3.974375,1.853879,-0.035119,0.128771,51.647461,75.483984,2.239453
28.195180,-0.068661,-0.325022,0.660488,-0.954430,0.138864,-6.703765,5.817910,1.610171,-0.193689,0.188368,47.179688,74.587500,8.268750
28.296800,0.269025,-0.589741,0.790501,-0.633312,-0.565032,-4.860229,8.054094,2.341293,-0.693874,-0.379928,38.958984,74.587500,14.125781
28.398665,-0.190296,-0.898318,0.832764,-0.269145,-0.478840,-3.418920,9.050082,2.642469,0.263928,0.337359,31.989258,75.125391,15.676172
28.500875,-0.119319,-1.085644,0.801994,0.002951,0.172383,-0.234632,9.232042,1.718722,0.039376,0.322460,31.989258,75.125391,15.676172
28.602898,0.094694,-1.227852,0.691092,0.222726,-1.015142,1.489193,10.151415,1.638905,0.393763,0.008514,31.989258,75.125391,15.676172
28.703966,-0.321506,-1.362521,0.576199,0.395808,-0.742203,4.304775,8.825027,1.481400,-0.194753,-0.050019,10.007812,76.021875,17.226562
28.805687,-0.169934,-1.387677,0.477557,0.488573,0.531513,4.869806,8.288726,2.039054,-1.105729,0.072367,5.718750,75.304688,17.571094
28.908379,-0.164635,-1.399293,0.355680,0.578326,0.794875,6.622362,6.751649,0.770498,-0.179854,-0.201138,1.429688,74.228906,14.814844
29.009537,-0.211856,-1.407524,0.185523,0.608562,0.948104,6.291962,6.895301,0.568296,0.190496,-0.504442,-2.323242,75.483984,13.953516
29.110826,-0.054341,-1.341279,0.034198,0.604621,0.632069,7.412448,5.607220,0.786462,-0.575745,-0.539562,-2.859375,76.739063,10.680469
29.211833,-0.100573,-1.252292,-0.127464,0.553956,0.545878,7.541735,6.148310,-0.943967,0.063853,0.287341,-2.323242,75.125391,11.541797
29.313617,-0.200459,-1.257108,-0.414376,0.238188,0.890643,5.363012,7.905654,-3.774803,0.053211,0.472516,0.178711,75.483984,15.676172
29.415211,-0.196441,-1.435997,-0.479366,0.007160,0.383072,3.347094,8.724471,-1.208959,0.464002,-0.204331,12.509766,77.814844,20.327344
29.516516,-0.033046,-1.379383,-0.357115,-0.051337,0.823605,2.518700,7.129933,-0.058532,-0.534241,0.243707,18.049805,77.276953,22.911328
29.618667,-0.075447,-1.350232,-0.300177,-0.009455,-0.665588,3.845088,11.267113,-1.205766,0.593837,-0.092588,12.867188,74.587500,26.184375
29.720513,-0.145268,-1.378956,-0.343915,0.006948,-0.837971,1.383849,7.690176,-0.933325,0.852444,0.181982,18.764648,81.221484,23.255859
29.823085,-0.432627,-1.331057,-0.202666,0.067201,-0.569820,2.020706,12.727576,-0.131964,-0.839673,-0.007450,18.764648,81.221484,23.255859
29.924249,-0.224619,-1.335004,-0.073877,-0.025641,0.857124,0.023942,9.255984,-1.181289,-1.396262,-0.074496,18.764648,81.221484,23.255859
30.026937,0.059508,-1.378100,-0.091452,-0.101999,1.240196,1.019930,9.576807,0.009578,0.297983,0.284148,18.764648,81.221484,23.255859
30.129136,-0.269644,-1.335675,-0.172849,-0.109168,0.531513,-5.027823,-6.038177,-0.288405,-1.546318,-0.007450,25.198242,75.125391,27.734766
30.230504,-0.507908,-1.263422,-0.034218,-0.006801,-0.062249,0.201113,9.720459,0.098973,0.031927,0.010642,26.985352,79.428516,26.012109
30.332349,-0.315488,-1.267178,-0.008234,0.014129,-0.110133,0.158017,9.806650,0.013835,0.025541,0.009578,24.840820,80.862891,26.012109
30.434263,-0.318626,-1.259848,0.001832,0.016909,-0.114922,0.119710,9.739612,0.017028,0.027670,0.010642,26.091797,81.759375,26.184375
30.535987,-0.135040,-1.286767,-0.018411,0.017620,-0.076614,0.162806,9.730036,0.015963,0.029798,0.007450,24.483398,82.297266,25.323047
30.638252,-0.134595,-1.256236,-0.010995,0.025121,-0.162806,0.172383,9.715670,0.012771,0.032991,0.008514,26.091797,81.400781,25.839844
30.739992,0.094307,-1.229293,-0.018374,0.006871,-0.052672,0.220267,9.691728,0.017028,0.027670,0.006385,28.236328,81.759375,26.184375
30.841522,-0.213680,-1.250789,-0.022540,0.010435,-0.047884,0.244209,9.696517,0.015963,0.030863,0.007450,26.091797,81.042187,27.217969
30.942899,-0.189168,-1.258378,-0.023433,0.011648,-0.047884,0.258574,9.753978,0.014899,0.028734,0.007450,25.376953,80.683594,25.495313
