Time, Altitude, Yaw, Pitch, Roll, Ax, Ay, Az, Pitch_rate, Roll_rate,Yaw_rate, Magx, Magy, Magz0.911952,0.281219,-0.165084,0.032282,0.062115,-0.052672,-0.292093,10.017340,0.036184,0.038312,-0.011706,25.019531,79.966406,26.873438
1.012115,0.086566,-0.358562,0.044945,0.122834,-0.119710,0.119710,9.682152,0.007450,0.035119,-0.020220,24.662109,84.269531,26.873438
1.112179,-0.072771,-0.540185,0.036751,0.168712,-0.148441,0.186748,9.715670,0.025541,0.039376,0.006385,24.483398,83.731641,26.012109
1.212535,-0.044990,-0.714368,0.016355,0.190560,-0.167594,0.205901,9.686940,0.015963,0.025541,0.010642,23.411133,81.938672,28.423828
1.313463,0.112463,-0.879674,-0.006635,0.184230,-0.067038,0.239420,9.720459,0.013835,0.024477,0.007450,25.376953,81.759375,28.423828
1.414520,0.074557,-1.036690,-0.017198,0.139972,0.000000,0.114922,9.629479,0.043633,0.057468,0.021284,25.376953,81.759375,27.907031
1.516336,-0.018293,-1.182036,-0.019553,0.073147,-0.076614,0.110133,9.643844,0.008514,0.024477,0.007450,24.840820,81.580078,27.734766
1.617331,-0.156266,-1.284458,-0.010797,0.014203,-0.636858,0.339977,9.165004,0.007450,0.027670,0.031927,23.947266,82.476562,27.217969
1.718736,-0.328235,-1.268123,0.005283,-0.001844,0.119710,-0.325611,9.021352,-0.116000,-0.177725,0.780076,23.947266,82.835156,26.873438
1.820716,-0.226945,-1.286069,-0.010481,0.008161,-0.129287,0.225055,10.146627,0.002128,0.015963,0.002128,24.304688,82.476562,26.184375
1.922127,-0.405721,-1.310842,-0.015522,-0.003716,0.071826,0.138864,9.720459,0.017028,0.044697,-0.071303,22.338867,81.580078,29.112891
2.023205,-0.339777,-1.285956,0.000350,0.011499,-0.316035,0.009577,9.835380,-0.003193,0.022349,-0.168147,23.947266,81.400781,27.907031
2.124645,-0.388281,-1.284520,-0.005802,0.042940,-0.876278,0.167594,9.753978,-0.079817,0.108551,-0.250093,23.232422,81.400781,27.562500
2.226743,-0.348306,-1.272661,-0.004505,-0.010877,0.062249,-0.033519,10.089166,-0.168147,0.002128,-0.019156,25.555664,83.014453,26.012109
2.327757,-0.277675,-1.246412,0.053709,-0.013161,-0.071826,-0.493206,9.184158,-0.148991,0.023413,-0.036184,27.878906,82.117969,26.528906
2.429368,-0.070837,-1.239865,0.029598,0.002223,-0.076614,-0.282516,9.279926,0.476772,-0.006385,0.057468,27.878906,81.042187,25.150781
2.531235,0.070770,-1.265203,-0.003704,0.005187,-0.110133,0.090980,9.739612,0.123450,0.118129,-0.061725,25.555664,81.938672,26.356641
2.632476,-0.211918,-1.275362,0.003835,0.013422,-0.148441,-0.033519,9.878476,0.064918,0.070239,-0.018092,24.483398,81.221484,26.356641
2.734070,-0.297346,-1.273720,-0.002456,-0.041084,0.608127,-0.138864,9.193734,0.010642,0.012771,0.433139,25.198242,83.014453,27.734766
2.835951,-0.035938,-1.271222,-0.002834,0.016218,0.047884,-0.105345,9.452308,-0.020220,-0.005321,0.010642,24.125977,81.221484,26.356641
2.937551,-0.120663,-1.274093,-0.002553,0.033637,-0.837971,-0.019154,9.686940,0.026606,0.025541,0.018092,23.947266,83.193750,26.873438
3.039400,0.079938,-1.279086,-0.012818,0.010214,-0.004788,0.129287,9.801862,-0.026606,-0.027670,0.009578,23.768555,82.297266,27.390234
3.140908,-0.155947,-1.302749,-0.043450,0.069784,-1.058237,1.321599,8.920795,-0.007450,-0.070239,-1.132335,23.768555,82.297266,27.390234
3.241783,-0.536338,-1.270457,-0.017691,0.008634,0.000000,0.071826,9.399636,0.028734,0.024477,-0.004257,24.662109,81.400781,27.217969
3.343749,-0.100120,-1.255081,-0.002450,0.019129,-0.181959,0.177171,9.662998,0.054275,0.046826,0.009578,25.376953,81.400781,24.806250
3.445014,-0.251399,-1.265008,-0.012609,0.006462,-0.009577,0.110133,9.356540,0.018092,0.043633,-0.461873,25.376953,81.042187,26.184375
3.546737,-0.385826,-1.257369,0.019217,0.021042,-0.464475,-0.622492,9.907206,0.031927,0.029798,-0.139413,26.627930,81.938672,26.356641
3.648623,-0.152663,-1.242450,-0.005657,0.028992,-0.167594,0.162806,9.701305,0.010642,0.019156,0.001064,28.057617,82.655859,26.012109
3.750582,-0.055869,-1.265759,-0.017736,-0.015524,0.225055,0.162806,10.055647,0.013835,0.037248,0.010642,26.627930,81.580078,26.012109
3.851942,-0.410099,-1.231581,0.005750,0.030277,-0.301669,0.038307,9.246407,0.014899,0.026606,0.010642,28.236328,81.759375,25.150781
3.953263,-0.263888,-1.222555,-0.045071,0.011171,0.215478,0.229843,10.146627,0.021284,0.020220,0.009578,27.878906,78.890625,25.495313
4.054807,-0.150867,-1.220946,-0.007281,0.020865,-0.181959,0.134075,9.538499,0.019156,0.028734,0.005321,28.951172,81.759375,26.873438
4.156143,-0.241255,-1.222644,-0.009345,0.018518,0.062249,0.067038,9.691728,0.022349,0.023413,-0.186239,28.415039,80.862891,27.045703
4.257208,-0.325404,-1.235773,-0.013438,0.030722,-0.292093,0.244209,9.265560,0.013835,0.034055,0.010642,27.878906,81.042187,26.873438
4.358420,-0.248223,-1.221190,-0.018744,0.012538,-0.100556,0.220267,9.591172,0.023413,0.031927,0.007450,29.129883,83.373047,28.079297
4.460044,-0.308434,-1.240646,0.001042,0.027441,-0.181959,0.162806,9.720459,0.013835,0.031927,0.009578,27.342773,81.580078,25.667578
4.561682,-0.274713,-1.229265,-0.020892,0.020781,-0.119710,0.277727,9.543288,0.017028,0.026606,0.012771,28.415039,81.221484,24.633984
4.663240,-0.130138,-1.214208,-0.027085,0.010904,-0.081403,0.234632,9.730036,0.014899,0.030863,0.005321,29.308594,81.042187,26.873438
4.764923,-0.238148,-1.230382,-0.016194,0.015014,-0.043096,0.177171,9.591172,0.015963,0.038312,0.038312,28.236328,81.042187,25.839844
4.866530,0.014298,-1.237895,-0.017411,0.018676,-0.076614,0.205901,9.777920,0.015963,0.032991,0.002128,28.057617,81.221484,24.978516
4.967715,-0.179911,-1.246273,-0.023606,0.027179,-0.114922,0.244209,9.739612,0.020220,0.030863,0.009578,27.164062,81.400781,24.461719
5.069619,0.021163,-1.232176,-0.008307,0.039972,-0.373495,0.258574,9.394847,0.015963,0.029798,0.007450,28.236328,81.042187,26.873438
5.171377,-0.101596,-1.230058,-0.028610,0.003854,0.071826,0.282516,9.883264,0.022349,0.028734,-0.056404,28.236328,81.042187,26.873438
5.272528,-0.103743,-1.254872,-0.008477,0.028903,-0.210690,0.162806,9.615114,0.028734,0.035119,0.006385,26.270508,81.580078,26.356641
5.374414,-0.095450,-1.226880,-0.013884,0.016563,-0.086191,0.177171,9.619902,0.021284,0.035119,0.007450,28.593750,82.117969,25.495313
5.476032,-0.215341,-1.249363,-0.020993,0.015712,-0.062249,0.186748,9.825804,0.018092,0.022349,0.010642,26.985352,80.504297,25.667578
5.578239,-0.133557,-1.231620,-0.014261,0.039518,-0.138864,0.215478,9.816227,0.029798,0.028734,0.075560,26.985352,80.504297,25.667578
5.680214,-0.260342,-1.239645,-0.025301,-0.003123,0.205901,0.114922,9.337386,0.026606,0.055340,-0.096844,26.985352,80.504297,25.667578
5.781647,-0.320749,-1.239484,-0.030157,0.015568,0.253785,-0.445322,9.763554,0.011706,0.023413,-0.004257,26.985352,80.504297,25.667578
5.883427,-0.326509,-1.237290,-0.026641,0.002028,-0.033519,0.287304,9.662998,0.013835,0.009578,0.004257,26.985352,80.504297,25.667578
5.985407,-0.307324,-1.247078,-0.077174,0.026888,-0.095768,1.043872,9.629479,0.065982,0.142606,-0.256478,26.985352,80.504297,25.667578
6.087035,-0.068094,-1.228207,-0.035315,0.060204,-0.272939,1.053449,12.119449,1.899640,0.088331,0.197946,26.985352,80.504297,25.667578
6.188083,-0.065033,-1.166170,-0.180662,0.197199,-0.258574,3.227384,10.280702,1.494171,0.224551,-0.091523,26.985352,80.504297,25.667578
6.289613,-0.267819,-1.076378,-0.277133,0.334383,-0.608127,4.050989,7.752425,2.215715,0.518277,0.074496,26.985352,80.504297,25.667578
6.390612,-0.147564,-0.899553,-0.340843,0.552435,-2.006341,5.501875,8.068460,2.116742,-0.084074,-0.020220,26.985352,80.504297,25.667578
6.492475,-0.100700,-0.770863,-0.386107,0.693526,-0.402226,7.742848,6.019023,1.250463,0.238386,0.063853,26.985352,80.504297,25.667578
6.593766,-0.403087,-0.633280,-0.369050,0.854249,-4.525041,2.873042,11.324574,1.111050,-0.211781,-0.271377,-1.072266,83.193750,9.646875
6.695030,-0.384550,-0.569164,-0.408489,1.027183,-0.828394,8.303091,2.920926,0.784333,0.040441,0.216038,-8.220703,83.910938,6.546094
6.796840,-0.422941,-0.498558,-0.435447,1.162189,-0.464475,9.557653,3.308787,0.540626,-0.065982,0.024477,-8.220703,83.910938,6.546094
6.898021,-0.319265,-0.368943,-0.521615,1.260428,-1.072602,9.629479,3.500323,0.242643,0.010642,0.072367,-9.650391,83.910938,6.201563
7.000191,-0.265971,-0.365142,-0.591806,1.331809,-0.881066,9.524134,2.092532,0.278827,-0.093652,0.004257,-9.650391,83.910938,-0.344531
7.101790,-0.280822,-0.375813,-0.650443,1.315676,-1.355118,9.706094,1.651999,0.244772,-0.203267,0.015963,-10.543945,84.448828,2.583984
7.203051,-0.164133,-0.406871,-0.710229,1.245528,-0.828394,9.749189,3.083732,0.195817,-0.111744,0.019156,-10.007812,83.910938,2.067188
7.304911,-0.356377,-0.367284,-0.770543,1.283977,-1.106121,9.428366,2.820370,0.068110,0.025541,0.078753,-10.007812,82.476562,2.411719
7.406482,0.035898,-0.407037,-0.782927,1.284837,-1.158794,9.916783,2.082955,0.208588,-0.159634,-0.012771,-10.722656,81.759375,1.033594
7.507599,-0.309134,-0.359118,-0.797461,1.306472,-0.320823,9.691728,1.082179,0.285212,-0.031927,0.036184,-10.007812,81.759375,0.000000
7.609202,-0.507628,-0.349966,-0.823771,1.345818,-1.201889,10.065224,1.948880,0.353322,0.021284,-0.062789,-12.509766,83.910938,-0.689063
7.710715,-0.080868,-0.289340,-0.871982,1.403917,-1.072602,9.844957,1.551443,0.188368,0.026606,-0.067046,-10.722656,82.476562,-3.445312
7.812597,-0.548626,-0.212567,-0.886584,1.483693,-0.608127,10.189722,0.459687,0.191560,-0.069175,0.056404,-12.331055,82.655859,-3.273047
7.913749,-0.208592,-0.263235,-0.887598,1.440356,-1.110910,9.414001,1.814805,0.151120,0.052147,-0.043633,-12.152344,83.910938,-2.411719
8.015795,-0.059908,-0.214313,-0.913894,1.480540,-0.914585,9.940725,0.727837,0.034055,0.046826,-0.017028,-11.973633,83.373047,-2.928516
8.117036,-0.066478,-0.306399,-0.960730,1.392264,-0.785298,9.758766,1.824382,-0.255414,0.111744,0.039376,-11.794922,83.552344,-4.478906
8.218894,-0.243687,-0.367741,-1.074070,1.348106,-1.273715,9.409213,3.347094,-1.285583,0.371414,0.105358,-10.186523,82.655859,-3.617578
8.320369,0.121432,-0.840904,-1.217302,0.836386,-0.330400,10.204087,5.846640,-2.649918,-0.130900,-0.239450,-7.684570,83.373047,2.583984
8.421554,-0.192371,-1.772126,-1.177329,-0.137455,-1.953669,8.906430,7.182605,-2.754212,-0.483158,-0.116000,-1.250977,82.297266,15.331641
8.522782,-0.144558,-2.044647,-0.990527,-0.435661,-1.077391,6.028600,10.194511,-2.086944,-0.140478,-0.123450,8.756836,83.373047,20.499609
8.624663,-0.002936,-2.057308,-0.793280,-0.477386,-1.685518,-2.398990,4.084508,-2.212522,-0.173469,-0.133028,8.756836,83.373047,20.499609
8.725762,-0.227083,-2.050737,-0.600222,-0.505150,0.000000,2.983175,9.299079,-0.652369,-0.412919,-0.067046,16.798828,80.683594,23.772656
8.827064,-0.491517,-2.011031,-0.451064,-0.538035,0.000000,-0.009577,8.547300,-1.099344,0.157505,0.105358,23.768555,79.428516,24.633984
8.928898,-0.391238,-1.891553,-0.357786,-0.445648,-0.450110,1.197101,9.888053,0.020220,-0.015963,0.100037,29.129883,81.221484,26.012109
9.030747,-0.073268,-1.771969,-0.289007,-0.359381,0.110133,0.181959,9.821015,0.019156,0.017028,0.004257,31.631836,81.221484,24.978516
9.132008,-0.400747,-1.655336,-0.241892,-0.278732,-0.588974,0.014365,11.271901,0.058532,0.583195,0.176661,28.951172,79.249219,24.806250
9.233710,-0.338502,-1.519510,-0.167375,-0.182396,-0.809240,-1.096544,9.217676,-0.017028,-0.026606,0.633213,29.308594,80.683594,26.528906
9.334681,-0.241624,-1.385904,-0.108168,-0.093655,-0.454898,-0.052672,9.792285,0.013835,0.050019,0.010642,29.844727,83.731641,24.978516
9.436853,-0.086839,-1.279204,-0.050720,-0.001611,-0.220267,-0.062249,9.294291,0.028734,0.022349,-0.256478,28.951172,81.400781,25.495313
9.537917,-0.284579,-1.239552,0.017011,0.044882,-0.493206,-0.148441,9.390059,0.015963,0.029798,0.170276,26.985352,82.297266,24.633984
9.639618,-0.146542,-1.234074,-0.013618,0.023385,0.124498,0.598550,9.859322,0.028734,0.019156,0.020220,27.700195,82.297266,25.667578
9.740754,-0.466781,-1.218305,-0.042208,0.072773,-0.799663,1.479617,9.399636,0.027670,0.061725,-0.159634,29.487305,83.014453,27.390234
9.842475,0.033029,-1.208047,-0.019665,0.033051,-0.181959,0.316035,9.849746,-0.018092,-0.089395,0.261799,29.487305,82.297266,25.667578
9.944563,0.093875,-1.224368,0.035431,0.018780,-0.062249,-0.287304,8.892065,0.003193,-0.080881,0.343744,26.449219,81.042187,26.184375
10.045712,-0.370919,-1.235968,-0.025698,0.019795,-0.119710,0.177171,9.931148,0.013835,0.242643,-0.310753,28.415039,80.504297,27.045703
10.147473,-0.299690,-1.213903,0.016976,0.043507,0.483629,1.848324,9.921572,0.017028,-0.026606,0.212845,28.415039,80.504297,27.045703
10.249217,-0.237071,-1.239450,0.013330,0.000069,0.114922,-0.411803,9.988609,-0.022349,-0.113872,-0.438460,28.236328,81.042187,25.839844
10.351100,-0.507742,-1.239777,-0.015433,-0.030759,0.746991,-0.009577,9.701305,-0.625764,0.186239,-0.243707,27.878906,79.607812,28.596094
10.451995,-0.190924,-1.217048,0.102162,-0.098384,-0.684742,-0.392649,6.593631,-1.103601,-0.457616,0.025541,31.095703,79.607812,27.217969
10.553310,-0.280744,-1.139101,0.188664,-0.171012,0.172383,-2.212242,7.910442,-0.997178,-0.036184,0.125578,36.814453,77.456250,23.772656
10.654658,-0.324692,-1.044369,0.326983,-0.295708,0.545878,-5.085284,9.423578,-1.591015,0.071303,0.294790,40.388672,77.814844,20.671875
10.755489,-0.182551,-0.915419,0.378468,-0.446748,0.023942,-5.913678,7.235277,-2.388119,0.176661,0.003193,44.499023,77.635547,16.020703
10.857344,-0.248234,-0.767893,0.371766,-0.655744,0.258574,-7.651869,4.860229,-2.180595,0.093652,-0.325653,52.541016,74.587500,8.957813
10.959010,-0.247325,-0.593968,0.363777,-0.859235,0.110133,-8.489839,3.294421,-1.106793,-0.091523,0.015963,53.613281,72.077344,-0.689063
11.060847,-0.391991,-0.429076,0.359029,-1.044818,0.632069,-9.107543,1.886631,-1.082316,0.378864,-0.064918,55.936523,73.691016,-0.861328
11.162346,-0.239782,-0.278038,0.303172,-1.210923,0.665588,-10.184934,1.010353,-0.699195,0.097909,0.120257,58.081055,74.049609,-6.029297
11.264273,-0.309421,-0.127389,0.216866,-1.356141,1.086968,-9.777920,1.029507,-0.384185,-0.135156,-0.180918,57.544922,74.587500,-11.369531
11.365566,-0.131028,-0.063961,0.089602,-1.475301,1.024718,-10.472238,-0.239420,-0.305432,0.027670,0.080881,58.795898,74.408203,-11.197266
11.466336,-0.145713,-0.052130,-0.077204,-1.537039,0.746991,-10.295067,-0.292093,-0.108551,0.012771,0.090459,59.153320,74.408203,-13.608984
11.568072,-0.271092,-0.040914,-0.220450,-1.598705,0.277727,-9.088390,-0.344765,-0.047890,0.012771,0.034055,59.868164,76.918359,-13.608984
11.670378,-0.350059,-0.047773,-0.263288,-1.593832,0.402226,-9.950302,-0.268151,0.026606,0.046826,-0.133028,59.868164,74.766797,-14.298047
11.771821,-0.102968,-0.054201,-0.260724,-1.596105,0.454898,-9.911995,-0.215478,0.027670,0.063853,-0.057468,59.868164,74.766797,-14.298047
11.873168,0.183935,-0.064367,-0.259001,-1.618883,0.517148,-9.816227,-0.421379,0.077688,0.030863,-0.019156,59.868164,74.766797,-14.298047
11.974563,-0.140985,-0.058708,-0.262340,-1.597509,0.665588,-9.959879,-0.205901,0.041505,0.038312,-0.113872,59.868164,74.766797,-14.298047
12.076550,-0.171003,-0.079985,-0.277668,-1.631536,0.550666,-9.241618,-0.598550,0.114936,0.013835,-0.034055,59.868164,74.766797,-14.298047
12.178434,-0.112819,-0.050348,-0.276871,-1.652174,0.196325,-9.318233,-0.866701,0.382057,0.006385,-0.180918,59.153320,74.049609,-13.953516
12.280097,-0.281143,-0.108336,-0.199074,-1.615888,0.780510,-8.221689,-0.454898,1.490978,-0.098973,-0.228808,59.332031,73.511719,-12.747656
12.381721,0.175408,-0.111948,0.017291,-1.449126,1.766921,-5.592855,2.116474,2.722286,0.388442,0.120257,60.046875,70.284375,-7.579688
12.483154,-0.227729,-0.148800,0.331527,-1.226283,1.240196,-4.462792,6.239290,2.610542,-0.035119,-0.164955,58.081055,70.463672,0.861328
12.584667,0.088619,-0.294823,0.554809,-1.013394,1.312023,-3.481169,8.863335,2.227421,0.625764,-0.256478,49.324219,73.153125,13.436719
12.686158,-0.317673,-0.486711,0.732699,-0.688999,0.545878,-2.911349,10.371682,3.146911,0.847123,0.785397,45.035156,75.663281,18.260156
12.787399,-0.295800,-0.721502,0.760068,-0.380180,-0.584185,0.708684,10.113108,1.344115,0.137285,-0.069175,35.742188,79.966406,22.739062
12.889134,-0.283946,-0.850720,0.671614,-0.229305,0.196325,0.632069,6.033388,-0.277763,0.609800,-0.225616,29.844727,79.787109,27.045703
12.990374,-0.119222,-0.965312,0.510134,-0.137220,0.076614,-0.957681,10.960655,0.040441,-0.135156,0.373543,29.844727,81.938672,24.633984
13.092204,-0.133108,-1.023862,0.347362,-0.123320,-2.039860,-0.497994,13.991715,-0.028734,-0.202203,0.355451,30.738281,80.683594,24.117188
13.194024,-0.087728,-1.078125,0.201901,-0.013637,0.416591,1.130063,9.404424,-0.022349,-0.007450,0.030863,30.738281,82.835156,25.839844
13.295068,-0.033682,-1.167902,0.042553,0.026905,-0.009577,0.292093,9.514557,0.012771,0.008514,0.019156,29.129883,82.297266,26.356641
13.397361,-0.095394,-1.227483,-0.012387,-0.005910,-0.009577,0.124498,9.672575,0.018092,0.034055,0.015963,30.202148,84.090234,27.390234
13.498544,-0.236105,-1.216679,-0.007269,0.025446,-0.148441,0.220267,9.720459,0.018092,0.034055,0.007450,30.202148,84.090234,27.390234
13.600028,-0.154165,-1.227678,-0.004431,0.015235,-0.047884,0.114922,9.720459,0.018092,0.026606,0.036184,30.202148,84.090234,27.390234
13.701601,-0.414202,-1.222796,-0.019033,0.029520,-0.158017,0.234632,9.720459,0.019156,0.030863,0.007450,30.202148,84.090234,27.390234
13.802817,-0.410648,-1.219675,-0.034207,0.024783,-0.095768,0.402226,9.753978,0.015963,0.028734,0.024477,30.202148,84.090234,27.390234
13.904179,0.007951,-1.222821,-0.009630,0.008821,-0.095768,0.158017,9.643844,0.017028,0.028734,0.009578,28.951172,81.759375,26.184375
14.006143,-0.077300,-1.221245,-0.013034,0.001503,-0.057461,0.177171,9.624691,0.017028,0.030863,0.011706,29.308594,82.476562,26.184375
14.107525,-0.281788,-1.219097,-0.010742,0.012805,-0.019154,0.177171,9.610325,0.019156,0.029798,0.035119,30.738281,83.552344,25.839844
14.209360,-0.189466,-1.214523,-0.030079,0.011245,-0.076614,0.244209,9.710882,0.018092,0.027670,0.007450,30.202148,83.373047,27.734766
14.310862,-0.218625,-1.244396,-0.023881,0.014214,-0.023942,0.196325,9.840169,0.017028,0.025541,0.059597,28.415039,83.731641,27.045703
14.412637,-0.164544,-1.219034,-0.014260,0.007007,-0.067038,0.162806,9.662998,0.019156,0.028734,0.007450,29.844727,83.373047,26.356641
14.514062,-0.162514,-1.211273,-0.013282,0.001500,-0.019154,0.205901,9.706094,0.018092,0.025541,0.005321,30.202148,81.938672,26.356641
14.615814,-0.329671,-1.209106,-0.015727,0.013761,-0.067038,0.220267,9.806650,0.015963,0.026606,0.005321,30.202148,82.297266,26.701172
14.717025,-0.194680,-1.225495,-0.011279,0.013551,-0.071826,0.253785,9.696517,0.019156,0.028734,0.004257,30.202148,83.373047,26.356641
14.817556,-0.152622,-1.225240,-0.022145,0.016181,-0.014365,0.320823,9.653421,0.019156,0.030863,0.005321,29.308594,83.552344,26.873438
14.919390,0.075130,-1.225810,-0.001430,0.011635,-0.028730,0.158017,9.586383,0.015963,0.029798,0.009578,29.308594,81.400781,27.217969
15.020958,-0.329879,-1.229892,-0.018945,0.010867,0.004788,0.186748,9.624691,0.017028,0.029798,0.005321,29.129883,83.373047,27.045703
15.122413,-0.096613,-1.234399,-0.010628,0.013216,-0.114922,0.124498,9.720459,0.018092,0.032991,0.042569,29.129883,83.373047,27.045703
15.223768,0.125747,-1.214272,-0.012392,0.002918,-0.043096,0.167594,9.485827,0.013835,0.029798,0.008514,29.487305,81.221484,26.701172
15.325306,-0.315055,-1.217543,-0.020884,0.022425,-0.129287,0.162806,9.672575,0.011706,0.029798,0.008514,29.308594,82.117969,27.562500
15.426581,-0.233656,-1.216915,-0.025559,0.004897,-0.009577,0.215478,9.691728,0.019156,0.028734,0.006385,29.666016,81.759375,26.184375
15.528160,-0.482089,-1.215637,-0.030751,0.013505,-0.057461,0.296881,9.567230,0.020220,0.031927,0.009578,29.487305,81.580078,27.045703
15.629992,-0.323735,-1.217040,-0.018500,0.004498,-0.062249,0.196325,9.629479,0.014899,0.028734,0.006385,29.666016,83.193750,26.184375
15.731836,0.065964,-1.231832,-0.010588,0.020053,-0.090980,0.229843,9.533711,0.014899,0.027670,0.007450,29.666016,83.193750,26.184375
15.833058,-0.525248,-1.216730,-0.008038,0.011026,-0.129287,0.186748,9.672575,0.013835,0.029798,0.010642,29.666016,83.193750,26.184375
15.934216,0.018472,-1.226195,-0.015703,0.027595,-0.100556,0.244209,9.605537,0.015963,0.028734,0.009578,29.666016,83.193750,28.251563
16.036172,-0.114943,-1.206292,-0.015335,0.020125,-0.134075,0.229843,9.519346,0.014899,0.026606,0.006385,30.380859,81.042187,25.839844
16.138106,-0.228160,-1.226819,-0.027610,0.028802,-0.138864,0.277727,9.576807,0.015963,0.028734,0.008514,28.593750,81.042187,26.873438
16.239703,-0.332171,-1.236197,-0.023701,0.020217,-0.071826,0.248997,9.533711,0.018092,0.030863,0.007450,28.772461,83.373047,26.701172
16.341296,0.073487,-1.231347,-0.010638,0.018212,-0.062249,0.167594,9.744401,0.014899,0.030863,0.006385,29.129883,82.297266,27.045703
16.443044,0.005877,-1.215748,-0.019615,0.024848,-0.138864,0.239420,9.763554,0.018092,0.027670,0.006385,30.023438,81.759375,25.839844
16.545342,-0.234499,-1.223888,-0.013443,0.009518,-0.086191,0.191536,9.706094,0.015963,0.029798,0.004257,28.772461,81.938672,27.734766
16.646209,-0.085385,-1.218097,-0.019047,0.018541,-0.062249,0.201113,9.595960,0.014899,0.027670,0.006385,30.202148,82.297266,25.667578
16.747857,-0.252174,-1.219192,-0.025622,0.015394,-0.023942,0.268151,9.753978,0.015963,0.029798,0.008514,29.666016,81.400781,25.839844
16.849285,-0.021171,-1.231441,-0.007262,0.005942,-0.047884,0.167594,9.749189,0.015963,0.032991,0.009578,29.308594,82.835156,26.528906
16.950643,-0.345492,-1.213312,-0.015247,0.025418,-0.090980,0.177171,9.696517,0.018092,0.026606,0.006385,31.095703,82.835156,26.184375
17.052394,0.030536,-1.206086,-0.024757,0.006762,-0.110133,0.215478,9.557653,0.015963,0.026606,0.002128,29.844727,80.862891,25.323047
17.153449,-0.103040,-1.209015,-0.013396,0.011368,-0.081403,0.177171,9.739612,0.019156,0.027670,0.006385,30.202148,81.938672,28.079297
17.255437,-0.267521,-1.230277,-0.022604,0.026105,-0.114922,0.296881,9.677363,0.019156,0.029798,0.006385,28.772461,82.297266,27.390234
17.357320,-0.344824,-1.225669,-0.005714,0.021898,-0.162806,0.205901,9.619902,0.021284,0.028734,0.006385,28.772461,82.297266,27.390234
17.458802,-0.115898,-1.213441,-0.031865,0.005993,-0.043096,0.239420,9.672575,0.018092,0.028734,0.006385,30.380859,83.193750,25.839844
17.559605,-0.338519,-1.226319,-0.024441,0.017934,-0.081403,0.186748,9.639056,0.018092,0.030863,0.064918,29.129883,82.655859,24.978516
17.660204,-0.320370,-1.222550,-0.019370,0.005035,-0.052672,0.229843,9.610325,0.014899,0.027670,0.005321,29.129883,82.655859,24.978516
17.762169,0.117802,-1.228183,-0.004366,0.010564,-0.052672,0.191536,9.725247,0.012771,0.029798,0.007450,29.129883,82.655859,24.978516
17.863524,-0.205814,-1.230946,-0.013406,0.027366,-0.119710,0.225055,9.797073,0.015963,0.026606,0.008514,29.129883,82.655859,24.978516
17.965114,0.214872,-1.243030,-0.022262,0.015243,-0.052672,0.239420,9.691728,0.018092,0.028734,0.006385,28.057617,83.014453,27.045703
18.067049,-0.202959,-1.221067,-0.013276,0.016052,-0.095768,0.201113,9.744401,0.015963,0.026606,0.005321,29.308594,81.759375,27.217969
18.168960,-0.002060,-1.233646,-0.030830,0.014341,-0.009577,0.320823,9.557653,0.019156,0.026606,0.006385,28.593750,83.552344,26.873438
18.270335,-0.003547,-1.222151,-0.013692,0.012286,-0.129287,0.090980,9.639056,0.017028,0.029798,0.008514,30.916992,83.731641,26.701172
18.370944,-0.366161,-1.221399,-0.021680,0.015186,-0.095768,0.258574,9.701305,0.017028,0.031927,0.006385,29.666016,83.910938,25.150781
18.472417,-0.234463,-1.217553,-0.018176,0.018584,-0.090980,0.196325,9.648633,0.022349,0.029798,0.007450,29.666016,82.117969,26.184375
18.573996,-0.416491,-1.210147,-0.022682,0.012252,-0.086191,0.268151,9.648633,0.013835,0.029798,0.008514,30.023438,82.117969,24.806250
18.675009,-0.039974,-1.213077,-0.021953,0.007950,-0.023942,0.229843,9.643844,0.019156,0.030863,0.007450,30.023438,82.117969,24.806250
18.776469,0.007238,-1.221490,-0.023696,0.030425,-0.148441,0.244209,9.710882,0.018092,0.029798,0.004257,29.844727,83.014453,24.978516
18.877526,-0.251927,-1.205912,-0.022175,0.007789,-0.009577,0.229843,9.648633,0.018092,0.028734,0.009578,30.738281,82.476562,26.184375
18.978943,-0.045195,-1.211119,-0.024554,0.018335,-0.086191,0.186748,9.634267,0.018092,0.029798,0.008514,30.202148,81.221484,26.356641
19.080056,-0.179933,-1.230869,-0.008363,0.013979,-0.062249,0.138864,9.691728,0.019156,0.029798,0.006385,29.487305,83.731641,26.701172
19.181994,-0.217982,-1.219496,-0.024960,0.005830,-0.014365,0.268151,9.572018,0.021284,0.030863,0.004257,29.308594,82.117969,26.184375
19.282723,-0.092388,-1.219645,-0.004718,0.015829,-0.119710,0.215478,9.710882,0.014899,0.028734,0.004257,29.308594,82.117969,26.184375
19.384930,-0.191960,-1.216141,-0.012956,0.025837,-0.181959,0.258574,9.653421,0.017028,0.027670,0.008514,29.308594,82.117969,26.184375
19.486949,-0.395804,-1.246403,-0.006828,0.020963,-0.114922,0.134075,9.658209,0.017028,0.030863,0.006385,28.415039,84.807422,27.045703
19.588553,-0.209702,-1.238943,-0.002306,0.020769,-0.076614,0.148441,9.648633,0.018092,0.025541,0.009578,28.772461,83.014453,27.045703
19.690344,-0.232025,-1.234799,-0.023912,0.021517,-0.119710,0.258574,9.591172,0.019156,0.026606,0.008514,28.951172,83.910938,26.184375
19.791928,0.029794,-1.213608,-0.024392,0.010006,-0.009577,0.248997,9.677363,0.017028,0.029798,0.007450,30.559570,83.373047,26.701172
19.894598,-0.249615,-1.221681,-0.024417,0.017337,-0.052672,0.263362,9.706094,0.018092,0.029798,0.008514,29.844727,82.297266,26.356641
19.995050,0.049752,-1.242896,-0.020263,0.021943,-0.081403,0.225055,9.643844,0.017028,0.026606,0.006385,28.236328,83.193750,26.873438
20.096471,-0.133897,-1.230398,-0.019605,-0.000598,0.043096,0.196325,9.749189,0.022349,0.026606,0.007450,29.129883,83.731641,27.734766
20.198217,-0.094921,-1.240034,-0.017482,0.026855,-0.143652,0.220267,9.605537,0.013835,0.029798,0.004257,27.878906,81.759375,27.907031
20.299623,-0.016271,-1.226573,-0.011329,0.019785,-0.129287,0.148441,9.643844,0.013835,0.028734,0.007450,28.951172,82.117969,26.873438
20.400811,-0.366762,-1.211261,-0.016200,0.009234,-0.052672,0.181959,9.715670,0.015963,0.029798,0.003193,30.559570,83.014453,26.356641
20.502539,-0.253546,-1.211716,-0.006206,0.005427,-0.052672,0.119710,9.686940,0.019156,0.028734,0.007450,30.559570,83.014453,26.356641
20.604258,-0.175451,-1.217987,-0.010727,0.018972,-0.143652,0.196325,9.686940,0.019156,0.029798,0.006385,29.666016,82.476562,26.184375
20.707260,0.172514,-1.231967,-0.017589,0.006796,-0.076614,0.239420,9.672575,0.015963,0.028734,0.009578,27.700195,81.580078,27.390234
20.807471,-0.144518,-1.241389,-0.024507,0.026023,-0.134075,0.296881,9.686940,0.018092,0.027670,0.009578,27.700195,81.580078,27.390234
20.910560,-0.157509,-1.242841,-0.019468,0.022908,-0.090980,0.225055,9.605537,0.014899,0.027670,0.006385,27.700195,81.580078,27.390234
21.011423,0.222866,-1.210822,-0.009702,0.007331,-0.095768,0.177171,9.768343,0.017028,0.028734,0.008514,30.202148,83.014453,26.012109
21.112865,-0.114590,-1.219425,-0.008837,0.000960,0.033519,0.090980,9.677363,0.019156,0.029798,0.008514,30.202148,83.014453,26.012109
21.214532,-0.124255,-1.216336,-0.006482,0.015443,-0.090980,0.220267,9.619902,0.015963,0.027670,0.008514,30.380859,83.910938,26.873438
21.316471,-0.293146,-1.198856,-0.021470,0.000478,0.033519,0.239420,9.739612,0.017028,0.026606,0.008514,31.810547,82.476562,26.873438
21.418687,-0.150823,-1.234781,-0.010421,0.014926,-0.081403,0.129287,9.586383,0.011706,0.030863,0.005321,28.593750,82.476562,25.495313
