Time, Altitude, Yaw, Pitch, Roll, Ax, Ay, Az, Pitch_rate, Roll_rate,Yaw_rate, Magx, Magy, Magz0.841309,-0.375615,-0.168978,0.025926,0.050627,0.023942,0.090980,9.653421,0.014899,-0.079817,0.005321,35.384766,81.042187,25.495313
0.941540,-0.174630,-0.355448,0.032409,0.094132,0.134075,0.129287,9.801862,0.015963,-0.119193,-0.037248,34.133789,80.145703,24.289453
1.041590,0.070803,-0.538598,0.015495,0.126565,0.225055,0.263362,9.715670,0.020220,0.022349,0.006385,34.133789,80.145703,24.289453
1.142053,-0.623329,-0.710687,-0.002260,0.129680,0.325611,0.134075,9.600749,0.018092,-0.139413,0.041505,34.133789,80.145703,24.289453
1.243374,-0.246348,-0.874191,-0.013332,0.090554,0.665588,0.028730,9.509769,0.013835,-0.402277,0.005321,34.133789,80.145703,24.289453
1.344739,-0.576165,-1.014973,-0.019006,0.011829,1.173159,0.009577,9.696517,0.001064,-0.656626,0.007450,34.133789,80.145703,24.289453
1.446461,-0.247723,-1.112811,-0.019088,-0.143228,2.777274,0.114922,9.706094,0.071303,-1.388813,0.167083,34.491211,73.332422,28.079297
1.547743,-0.262671,-1.182828,-0.065746,-0.278360,3.251326,0.354342,8.312668,0.072367,-0.645984,0.127707,34.669922,68.132812,28.940625
1.649509,-0.174107,-1.264073,-0.141503,-0.375204,4.070143,0.067038,8.599972,0.012771,-0.012771,-0.010642,34.848633,64.008984,30.146484
1.751259,-0.385400,-1.266673,-0.157879,-0.353229,3.576937,0.205901,8.973468,0.009578,0.791783,-0.029798,34.848633,62.933203,29.112891
1.852106,-0.544583,-1.234478,-0.139888,-0.206913,2.169147,0.378284,9.222465,0.053211,1.320702,0.134092,33.061523,66.877734,31.180078
1.953855,-0.566185,-1.191205,-0.145194,-0.069456,0.210690,0.009577,10.060435,0.001064,1.100408,-0.098973,34.669922,74.228906,28.940625
2.055734,-0.450613,-1.167896,-0.006998,-0.030796,0.339977,-0.009577,9.979033,0.015963,-0.597030,0.034055,33.776367,78.711328,25.667578
2.157545,-0.509510,-1.197033,-0.040420,-0.171850,2.011129,0.196325,9.629479,-0.004257,-1.529290,-0.057468,35.563477,76.918359,26.356641
2.259061,-0.385494,-1.231965,-0.056506,-0.330163,3.667917,0.067038,8.499416,0.048954,-1.186610,0.145799,36.099609,68.491406,29.629687
2.360314,-0.846481,-1.308376,-0.137311,-0.442395,4.529830,0.090980,8.374917,0.009578,-0.196881,-0.012771,35.206055,62.574609,30.835547
2.461869,-0.570544,-1.318179,-0.141743,-0.441282,4.180276,0.191536,8.571242,0.022349,0.493800,0.010642,34.848633,62.574609,30.835547
2.563633,-0.848166,-1.297677,-0.137879,-0.371598,3.605668,0.014365,8.839393,0.062789,0.946095,0.096844,34.312500,65.622656,30.663281
2.665265,-0.530659,-1.246151,-0.146270,-0.234982,2.331952,0.421379,9.567230,0.050019,1.383492,0.093652,33.240234,67.774219,30.663281
2.767284,-0.429487,-1.180164,-0.108435,-0.085819,0.823605,0.335188,9.624691,0.038312,1.211087,0.185175,36.099609,76.739063,27.907031
2.868614,-0.611619,-1.170132,-0.059418,-0.031886,0.416591,0.268151,9.595960,0.013835,-0.018092,0.052147,33.955078,80.683594,24.806250
2.970388,-0.653621,-1.169265,-0.027707,-0.036227,0.454898,0.148441,9.873688,0.003193,-0.647048,-0.029798,34.848633,79.069922,26.701172
3.071976,-0.572660,-1.212826,-0.050566,-0.177896,2.130839,0.287304,9.528923,-0.048954,-1.670832,-0.287341,34.491211,72.615234,28.079297
3.173493,-0.508368,-1.256282,-0.030582,-0.363320,4.386177,0.129287,9.576807,0.059597,-1.281326,0.077688,34.491211,72.615234,28.079297
3.275662,-0.827876,-1.315413,-0.130639,-0.452011,5.032612,0.134075,8.360552,-0.011706,-0.108551,-0.044697,35.206055,63.291797,29.801953
3.377573,-0.652965,-1.336871,-0.145025,-0.458046,4.458003,0.201113,8.561665,0.006385,0.212845,-0.021284,34.491211,59.347266,29.457422
3.478861,-0.565487,-1.332163,-0.140443,-0.455501,4.491522,0.158017,8.499416,0.050019,0.375671,0.076624,34.491211,59.347266,29.457422
3.580510,-0.320242,-1.258589,-0.153128,-0.332963,3.016694,0.124498,8.892065,0.057468,1.320702,0.141542,34.491211,59.347266,29.457422
3.682332,-0.500337,-1.197407,-0.132343,-0.204910,2.269703,0.277727,9.624691,0.018092,1.210023,-0.017028,35.563477,66.877734,30.491016
3.783363,-0.438555,-1.154969,-0.104570,-0.061337,0.531513,0.124498,9.682152,0.051083,1.410097,0.170276,36.457031,75.304688,28.596094
3.884973,-0.843997,-1.160111,-0.040308,0.000570,0.114922,0.368707,9.658209,0.005321,0.003193,0.006385,35.742188,80.683594,25.839844
3.986954,-0.669512,-1.143417,-0.016560,-0.038462,0.560243,0.086191,9.859322,0.010642,-0.854572,0.072367,36.814453,79.607812,25.839844
4.088754,-0.577759,-1.174369,-0.029337,-0.165605,2.154781,0.253785,9.390059,-0.043633,-1.747456,-0.120257,36.278320,74.766797,27.734766
4.190453,-0.612788,-1.227987,-0.055278,-0.329903,4.070143,0.229843,8.480262,-0.014899,-1.094023,-0.056404,35.563477,67.594922,28.768359
4.292631,-0.472730,-1.307710,-0.141436,-0.440185,4.367024,0.110133,8.576030,0.018092,0.133028,-0.003193,34.491211,61.498828,29.457422
4.393759,-0.681191,-1.282793,-0.163491,-0.395225,3.869030,0.153229,8.542512,0.023413,0.960995,0.012771,36.457031,63.471094,28.940625
4.494949,-0.507173,-1.209627,-0.169639,-0.209468,1.800440,0.387861,9.543288,0.075560,1.431382,0.089395,36.278320,70.463672,29.457422
4.596785,-0.361783,-1.163740,-0.129825,-0.096415,1.115698,0.023942,10.223241,0.051083,1.334537,0.090459,36.993164,77.276953,26.356641
4.698180,-0.606338,-1.130969,-0.036098,-0.015938,0.359130,0.239420,9.864111,0.012771,0.011706,-0.078753,36.993164,77.276953,26.356641
4.799887,-0.482541,-1.135172,-0.018860,0.005291,0.004788,0.244209,9.600749,-0.019156,-0.035119,0.011706,37.350586,81.580078,23.600391
4.901721,-0.344986,-1.166698,-0.022173,-0.058379,0.632069,0.047884,9.763554,-0.002128,-0.928004,-0.053211,35.563477,79.787109,24.978516
5.003040,-0.629954,-1.179347,-0.036137,-0.174044,2.394202,0.100556,9.370905,-0.027670,-1.562281,-0.054275,36.278320,77.276953,25.323047
5.104858,-0.667542,-1.229043,-0.060679,-0.321951,3.189077,0.316035,8.882488,-0.008514,-1.065288,-0.053211,36.814453,70.284375,28.251563
5.206476,-0.636885,-1.301565,-0.138053,-0.438246,4.237737,0.110133,8.719682,0.015963,-0.120257,0.010642,36.099609,63.112500,30.318750
5.308060,-0.467342,-1.307178,-0.160419,-0.425794,4.261679,0.234632,8.681375,0.020220,0.553397,0.001064,35.563477,62.216016,28.768359
5.409354,-0.984227,-1.228102,-0.139190,-0.308438,2.863465,-0.076614,8.906430,0.057468,1.247271,0.105358,36.457031,64.546875,27.907031
5.509993,-0.542729,-1.186965,-0.134389,-0.168885,1.618480,0.081403,9.701305,0.021284,1.236629,0.019156,36.099609,71.360156,27.562500
5.611600,-0.256258,-1.126411,-0.071175,-0.028489,0.349553,0.339977,9.639056,0.046826,1.026976,0.137285,36.099609,71.360156,27.562500
5.712666,-0.764677,-1.100368,-0.034027,-0.006787,0.215478,0.186748,9.672575,-0.003193,-0.021284,-0.008514,36.099609,71.360156,27.562500
5.813951,-0.646688,-1.106773,0.012680,-0.021427,0.138864,-0.124498,9.859322,0.028734,-0.786462,-0.051083,36.099609,71.360156,27.562500
5.915834,-0.353285,-1.151188,-0.024995,-0.171781,1.972822,-0.114922,8.911219,-0.053211,-1.621878,-0.094716,37.171875,73.870312,26.528906
6.017013,-0.334149,-1.206371,-0.095824,-0.317135,3.634398,0.143652,8.729259,0.011706,-0.052147,-0.007450,37.886719,67.774219,28.940625
6.118479,-0.719031,-1.182713,-0.117594,-0.228063,2.513912,0.162806,9.327810,0.018092,0.968444,-0.028734,37.708008,69.029297,27.734766
6.219943,-0.571929,-1.152285,-0.089769,-0.139328,1.685518,0.234632,9.734824,0.007450,-0.009578,-0.073431,37.350586,73.691016,26.701172
6.322036,-0.762319,-1.185784,-0.101869,-0.190951,2.011129,0.153229,9.308656,0.044697,0.520406,0.098973,37.171875,72.794531,26.184375
6.423406,-0.523343,-1.121520,-0.069945,-0.043453,0.656011,0.363919,9.591172,0.052147,0.918426,0.070239,37.171875,72.794531,26.184375
6.525734,-0.783098,-1.124926,-0.063215,0.010625,0.134075,0.579397,9.758766,0.026606,0.060661,-0.134092,37.708008,79.787109,24.978516
6.627963,-0.634884,-1.112171,-0.017209,-0.008864,0.071826,0.181959,9.758766,0.017028,0.038312,0.019156,38.244141,78.532031,24.461719
6.729832,-0.600077,-1.112486,-0.018060,0.011974,-0.033519,0.172383,9.639056,0.018092,0.034055,0.005321,38.958984,79.966406,24.461719
6.831851,-0.563673,-1.153858,-0.008105,0.029923,-0.143652,0.129287,9.667786,0.018092,0.027670,0.010642,36.814453,82.476562,24.461719
6.933968,-0.616720,-1.143218,-0.013485,0.007648,-0.052672,0.181959,9.572018,0.017028,0.029798,0.011706,36.457031,81.759375,24.117188
7.036609,-0.689333,-1.123040,-0.016501,0.025362,-0.095768,0.201113,9.615114,0.017028,0.030863,0.006385,38.422852,81.580078,23.944922
7.138609,-0.361268,-1.136259,-0.016567,0.029999,-0.325611,0.292093,9.524134,0.024477,0.061725,0.009578,36.814453,80.683594,24.461719
7.240183,-0.370439,-1.149657,-0.005000,0.027409,-0.114922,0.239420,9.744401,0.017028,0.027670,0.004257,37.171875,82.117969,24.461719
7.341708,-0.464890,-1.137775,-0.005102,0.029786,-0.114922,0.181959,9.734824,0.019156,0.027670,0.006385,37.350586,81.580078,26.012109
7.443694,-0.811966,-1.147733,-0.014251,0.008663,0.004788,0.172383,9.773131,0.020220,0.030863,0.005321,37.350586,81.580078,26.012109
7.545446,-0.496583,-1.130012,-0.020073,0.012706,-0.076614,0.244209,9.686940,0.019156,0.031927,0.007450,37.350586,81.221484,23.944922
7.647225,-0.841650,-1.136359,-0.002987,0.025522,-0.148441,0.225055,9.768343,0.018092,0.032991,0.006385,36.993164,81.580078,23.944922
7.749513,-0.610488,-1.133920,-0.013844,0.004604,-0.033519,0.153229,9.801862,0.018092,0.028734,0.008514,37.708008,82.297266,23.944922
7.849892,-0.645074,-1.139865,-0.039956,0.028684,-0.081403,0.847547,9.768343,0.013835,0.023413,0.021284,36.278320,81.221484,23.600391
7.951973,-0.838590,-1.140533,-0.029528,0.045994,-0.248997,0.378284,9.619902,-0.090459,0.017028,-0.055340,36.278320,81.221484,23.600391
8.053427,-0.529808,-1.142558,-0.029608,0.019548,0.081403,0.325611,10.524910,0.063853,0.045762,0.008514,36.278320,81.221484,23.600391
8.154945,-0.828108,-1.146963,-0.025152,0.019960,-0.047884,0.263362,9.653421,0.020220,0.026606,0.007450,35.920898,79.787109,22.911328
8.255938,-0.987679,-1.156510,-0.017319,0.013306,-0.330400,0.320823,9.672575,-0.043633,0.054275,0.029798,36.278320,81.938672,22.911328
8.357476,-0.710027,-1.122756,-0.011749,0.015593,-0.081403,0.114922,9.619902,0.026606,0.031927,0.005321,38.601562,80.683594,24.461719
8.459999,-0.593833,-1.140129,-0.009073,0.010693,-0.047884,0.086191,9.500192,0.030863,0.051083,0.007450,37.350586,81.221484,23.600391
8.561492,-1.103672,-1.146156,-0.015624,0.025440,-0.062249,0.191536,9.682152,0.021284,0.028734,0.005321,37.886719,83.193750,23.428125
8.663430,-0.937744,-1.141935,-0.021818,0.008294,0.014365,0.253785,10.232818,-0.178790,-0.005321,-0.002128,36.814453,81.759375,24.117188
8.765263,-1.126523,-1.143864,0.020875,-0.002953,0.009577,-0.177171,9.514557,0.041505,0.040441,0.007450,37.350586,80.862891,24.978516
8.866486,-0.800091,-1.151712,-0.037022,0.011432,0.100556,0.483629,10.184934,0.240515,0.072367,0.015963,35.920898,81.221484,22.222266
8.968128,-0.784329,-1.133590,0.004967,-0.008546,-0.416591,-0.756568,7.426814,-0.492736,-0.054275,0.168147,38.065430,80.862891,25.667578
9.069692,-0.849359,-1.149626,0.030721,-0.023167,0.143652,-0.430956,9.619902,-0.366093,0.032991,-0.030863,36.814453,82.835156,24.461719
9.172220,-0.949610,-1.142615,0.082298,-0.052960,-0.229843,-1.187524,9.155427,-0.532112,0.100037,0.037248,39.495117,81.221484,20.155078
9.273374,-0.697306,-1.122980,0.106918,-0.072728,-0.330400,-1.575385,9.615114,-0.512956,0.631085,-0.025541,40.209961,80.862891,19.121484
9.375155,-0.881742,-1.105224,0.205879,-0.045594,-1.316811,-2.442086,10.644621,-1.377106,0.384185,-0.067046,40.031250,83.193750,15.848438
9.477573,-0.692379,-1.097607,0.330729,-0.105304,-0.699107,-2.379836,6.818686,-0.129835,-0.167083,-0.093652,40.031250,83.193750,15.848438
9.578986,-0.630349,-1.117436,0.368491,-0.026256,-0.363919,-1.426944,10.812215,1.726172,-0.187303,-0.133028,41.818359,79.966406,13.436719
9.681050,-0.543697,-1.123914,0.242718,-0.001682,-0.320823,-1.211466,9.184158,0.006385,0.046826,0.022349,40.209961,80.145703,17.743359
9.782840,-0.596712,-1.131023,0.102015,-0.047579,-0.028730,-1.067814,9.840169,0.056404,0.032991,0.037248,38.780273,80.862891,20.844141
9.884194,-0.700245,-1.101801,0.105294,-0.054693,0.043096,-1.177947,9.806650,0.037248,0.029798,0.005321,40.924805,79.787109,21.533203
9.985422,-1.025213,-1.136316,0.082358,-0.058868,0.148441,-1.082179,10.620679,-0.119193,0.043633,0.015963,37.886719,80.325000,21.016406
10.087204,-0.796818,-1.101632,0.132274,-0.160980,0.775721,-3.318364,10.084377,-2.106100,0.179854,-0.020220,41.460938,80.683594,20.671875
10.189335,-1.002812,-0.990063,0.240041,-0.368989,0.234632,-3.988740,5.846640,-1.435639,-0.116000,0.339488,43.426758,76.201172,15.331641
10.290992,-0.868584,-1.000756,0.373219,-0.262806,0.220267,-3.165135,8.269573,2.070980,0.223487,0.026606,43.426758,76.201172,15.331641
10.392707,-0.994989,-1.088895,0.362507,-0.048649,0.043096,-9.165004,12.464214,2.140155,0.217102,0.076624,43.426758,76.201172,15.331641
10.493966,-0.843371,-1.064194,0.188546,-0.053634,-0.143652,-1.551443,8.757990,-0.171340,0.084074,-0.121322,43.426758,76.201172,15.331641
10.595793,-0.944066,-1.114499,0.119395,-0.049811,-0.067038,-1.221043,9.548076,0.077688,0.011706,0.062789,38.958984,81.759375,21.360938
10.697618,-1.245384,-1.103985,0.118483,-0.041787,-0.186748,-1.173159,10.275914,-0.219230,0.038312,-0.058532,40.388672,80.325000,20.671875
10.798238,-0.712228,-1.110998,0.142010,-0.149711,0.780510,-2.398990,10.108319,-2.252963,0.508699,-0.056404,39.673828,80.325000,17.915625
10.899653,-1.024704,-1.038085,0.205276,-0.364146,0.090980,-4.204218,4.884171,-1.334537,-0.041505,-0.032991,44.499023,75.842578,11.541797
11.001947,-0.803797,-0.978779,0.423211,-0.363743,0.555455,-4.486734,9.849746,2.835093,-0.541690,-0.154313,45.213867,75.125391,10.852734
11.103156,-1.241764,-1.027468,0.343372,-0.134429,-0.153229,-2.609680,9.758766,1.512263,-0.202203,0.223487,42.533203,79.249219,15.848438
11.204988,-1.174489,-1.107016,0.254474,-0.020518,1.513135,-2.217031,13.139379,0.229872,-0.001064,-0.235194,39.673828,82.476562,21.016406
11.307566,-0.752258,-1.131885,0.114313,-0.071693,0.158017,-1.264138,9.806650,0.122386,0.078753,0.020220,38.780273,80.504297,20.499609
11.408358,-1.190985,-1.136168,0.125303,-0.069903,0.158017,-1.268927,9.351752,0.074496,0.046826,0.017028,38.780273,80.504297,20.499609
11.510348,-0.963568,-1.080853,0.164527,-0.141020,0.205901,-2.695871,11.142615,-2.125256,0.343744,-0.035119,42.890625,78.890625,17.571094
11.612681,-0.712309,-0.999464,0.239144,-0.349294,0.220267,-4.036624,6.095637,-1.626135,0.083009,0.223487,42.890625,78.890625,17.571094
11.714241,-0.672310,-1.011425,0.398931,-0.292785,0.349553,-3.462016,8.585607,2.099714,0.107487,0.170276,42.890625,78.890625,17.571094
11.815620,-1.054675,-1.093094,0.334698,-0.040682,-0.349553,-1.618480,10.208876,1.978393,-0.127707,0.058532,42.890625,78.890625,17.571094
11.917779,-0.900595,-1.123315,0.181940,-0.027961,-0.062249,-1.120486,10.165780,-0.040441,0.030863,0.002128,38.958984,80.325000,19.293750
12.018943,-1.077824,-1.128391,0.088465,-0.049275,0.000000,-1.106121,10.357316,-0.113872,0.000000,-0.009578,38.601562,80.325000,19.638281
12.121243,-1.367462,-1.112683,0.133554,-0.104814,0.004788,-2.130839,10.702081,-1.565474,0.424625,-0.157505,40.388672,80.683594,20.327344
12.222419,-1.179135,-1.038699,0.192694,-0.302715,0.818817,-4.496311,8.341399,-2.580744,0.139413,0.046826,43.069336,78.352734,14.987109
12.324652,-1.137170,-0.944930,0.324261,-0.395350,-0.134075,-5.214571,6.263232,0.067046,0.072367,-0.038312,46.464844,75.663281,9.991406
12.426610,-0.822466,-0.963286,0.442194,-0.250677,0.253785,-3.342306,9.107543,2.176339,0.170276,-0.007450,46.286133,75.842578,11.197266
12.528180,-0.784582,-1.062152,0.372104,-0.025449,-0.464475,-1.450886,10.998962,1.731493,0.112808,-0.144734,41.818359,79.249219,16.192969
12.630243,-1.258057,-1.095465,0.210277,-0.050522,-0.023942,-1.379060,9.117120,-0.140478,-0.043633,-0.017028,41.460938,81.042187,21.016406
12.730980,-0.780157,-1.104206,0.108590,-0.044075,-0.067038,-1.158794,9.605537,-0.047890,-0.031927,0.036184,40.746094,79.607812,20.671875
12.833305,-0.798599,-1.114200,0.101168,-0.025936,-0.440533,-0.957681,10.558429,0.014899,0.044697,0.050019,40.209961,80.862891,20.155078
12.935258,-0.824029,-1.110189,0.130547,-0.074319,-0.153229,-2.020706,12.354081,-1.289840,0.345873,-0.164955,41.282227,82.297266,18.776953
13.036696,-0.577177,-1.069161,0.180005,-0.255140,-0.320823,-3.572149,7.115567,-2.663753,0.028734,0.012771,41.282227,82.297266,18.776953
13.138605,-0.486811,-1.023042,0.335928,-0.350339,0.497994,-5.209783,4.754884,1.037619,-0.191560,0.155377,41.282227,82.297266,18.776953
13.240718,-0.881537,-1.091538,0.393343,-0.083374,-0.727837,-2.585738,11.530475,2.070980,0.075560,0.096844,41.282227,82.297266,18.776953
13.342238,-0.575275,-1.113951,0.260438,0.011023,-0.890643,-1.982399,11.089942,0.672590,-0.147927,-0.146863,41.282227,82.297266,18.776953
13.444230,-0.823123,-1.111311,0.154780,-0.080380,-0.047884,-1.690306,9.792285,0.078753,-0.051083,0.035119,39.495117,79.428516,17.398828
13.545934,-0.904347,-1.105853,0.145601,-0.070944,-0.134075,-1.498770,9.452308,0.045762,0.011706,-0.003193,41.282227,81.221484,19.121484
13.648191,-0.783182,-1.131184,0.139965,-0.069892,0.038307,-1.513135,9.581595,0.012771,0.032991,0.000000,39.137695,82.297266,20.499609
13.749398,-0.853325,-1.103859,0.095284,-0.068925,-1.695095,-2.600103,14.599842,-2.753148,0.486350,-0.324588,41.818359,81.400781,19.293750
13.851673,-0.960199,-1.044153,0.143601,-0.346933,-0.450110,-4.070143,5.621585,-1.053582,-0.495929,-0.090459,46.107422,77.814844,9.991406
13.953167,-0.919168,-0.963834,0.322790,-0.312984,-0.450110,-5.363012,11.506533,0.632149,0.233065,0.280955,47.000977,75.842578,7.407422
14.054671,-0.874952,-0.952393,0.526542,-0.248571,0.244209,-2.647987,4.845864,2.822323,-0.833288,-0.175597,46.286133,77.635547,7.062891
14.157856,-0.957392,-1.114894,0.488515,0.013805,-0.454898,0.349553,11.808203,1.978393,-0.698131,-0.067046,41.103516,79.607812,16.192969
14.259742,-0.496662,-1.102286,0.294912,-0.042056,-0.220267,-1.939303,11.367669,-0.991857,0.046826,-0.051083,40.924805,82.297266,18.776953
14.361404,-0.859537,-1.043457,0.279670,-0.232839,-0.761356,-3.931279,7.781155,-2.318945,-0.518277,-0.036184,43.248047,79.607812,12.403125
14.462602,-1.217094,-0.934094,0.371844,-0.381775,-0.349553,-5.535394,7.038953,-0.782205,0.143670,0.063853,46.286133,76.559766,8.441016
14.563880,-0.718794,-0.838537,0.530975,-0.412969,0.000000,-5.995081,7.714118,0.692810,-0.287341,-0.026606,47.179688,76.739063,8.613281
14.665683,-1.050711,-0.907226,0.555232,-0.284754,0.344765,-4.376601,8.327033,1.564410,0.031927,0.133028,45.571289,77.635547,9.819141
14.767893,-0.821332,-1.075182,0.533180,-0.012220,0.766145,-2.710236,12.004527,2.543496,-0.071303,-0.211781,45.571289,77.635547,9.819141
14.869628,-1.037827,-1.114569,0.417758,0.017145,0.057461,-1.431733,9.730036,0.178790,-0.089395,-0.010642,40.746094,81.759375,16.192969
14.971201,-0.811562,-1.119302,0.244775,-0.037358,1.149217,-5.521029,13.742718,-1.074866,-0.193689,-0.178790,38.422852,81.580078,21.533203
15.073203,-1.007937,-1.083669,0.213830,-0.241018,0.062249,-3.902549,8.437167,-2.759533,-0.556589,-0.105358,40.924805,80.504297,19.121484
15.175188,-0.901746,-0.982811,0.278678,-0.380200,0.378284,-6.004658,5.760449,-0.351194,0.186239,-0.172404,47.000977,76.201172,10.852734
15.276245,-0.949015,-0.871314,0.472035,-0.372206,0.148441,-5.477933,8.097190,1.054646,-0.390570,0.252221,47.715820,75.483984,8.096484
15.378329,-0.698725,-0.953401,0.514814,-0.182058,-0.622492,-3.576937,9.643844,2.026283,-0.142606,-0.081945,45.750000,76.739063,10.335938
15.480360,-1.279246,-1.087033,0.487717,0.022192,-0.799663,-1.766921,13.010092,1.708080,-0.362900,-0.156441,41.639648,79.069922,15.331641
15.581449,-1.123448,-1.092289,0.304313,-0.032897,0.114922,-1.628057,7.963115,-0.078753,0.030863,0.007450,39.673828,80.325000,20.671875
15.683239,-0.838182,-1.117516,0.168789,-0.039907,-1.086968,-1.015142,9.040505,0.472516,0.148991,0.172404,38.601562,79.607812,20.327344
15.784472,-0.868600,-1.106763,0.096009,-0.056613,0.138864,-0.919373,9.648633,0.057468,0.018092,0.042569,41.460938,81.400781,22.394531
15.885751,-0.912200,-1.111164,0.072063,-0.049630,-0.009577,-0.392649,9.576807,0.490607,0.000000,0.477837,38.244141,80.325000,20.327344
15.987742,-1.081659,-1.125351,0.030984,0.068532,-2.020706,6.315904,-12.976573,-0.187303,0.862022,0.266056,34.848633,82.297266,24.289453
16.089691,-0.886212,-1.166166,-0.006986,0.026027,-0.162806,0.191536,10.429142,0.042569,-0.003193,0.006385,34.491211,81.221484,24.633984
16.191163,-0.703068,-1.172635,-0.026521,0.005288,0.110133,0.287304,9.572018,0.019156,0.032991,0.005321,34.848633,84.090234,23.944922
16.293433,-0.999695,-1.170709,-0.025029,0.000367,0.000000,0.229843,9.677363,0.018092,0.031927,0.009578,34.848633,84.090234,23.944922
16.395360,-1.050116,-1.180778,-0.057077,0.024491,-0.799663,2.786851,13.915100,0.038312,-0.284148,-0.526791,34.848633,84.090234,23.944922
16.497507,-1.262204,-1.225355,-0.050212,-0.005333,-0.196325,0.138864,9.979033,0.014899,0.011706,-0.989729,34.848633,84.090234,23.944922
16.599068,-1.108678,-1.274983,0.010189,0.032323,1.058237,-1.364695,9.011775,0.005321,0.061725,-0.600222,34.848633,84.090234,23.944922
16.701155,-1.133514,-1.135489,-0.019381,-0.029028,-0.201113,1.450886,9.662998,-0.032991,0.042569,0.895013,37.529297,78.173437,24.117188
16.802779,-1.134487,-0.971631,-0.030909,0.008774,-1.221043,0.215478,7.062895,0.032991,0.018092,2.637148,36.457031,78.532031,24.806250
16.905621,-1.114879,-1.074433,-0.021889,0.060420,-0.205901,0.143652,9.634267,0.019156,0.021284,-0.307561,30.023438,83.910938,24.806250
17.006915,-1.089047,-1.248479,-0.016360,-0.042147,0.268151,-0.215478,9.911995,0.007450,0.013835,-0.309689,33.597656,81.042187,28.251563
17.108994,-1.074060,-1.118464,-0.041386,-0.079447,1.096544,0.335188,10.371682,-0.012771,-0.041505,2.120999,36.814453,80.325000,25.495313
17.209900,-0.934697,-1.030777,-0.053174,0.033089,0.335188,0.790087,9.792285,0.019156,0.038312,-0.172404,29.487305,83.731641,24.289453
17.311591,-0.861853,-1.238254,0.004136,0.129791,-3.270479,-0.497994,7.963115,-0.041505,-0.004257,-2.656304,28.593750,83.552344,26.528906
17.413657,-0.955085,-1.297009,-0.014994,0.017491,0.574608,0.440533,9.461885,0.014899,0.027670,-0.086202,38.065430,80.504297,24.978516
17.516165,-1.190972,-1.091311,-0.039372,-0.021185,-1.005565,0.143652,10.539276,-0.013835,0.036184,2.194430,33.776367,81.221484,24.289453
17.616954,-1.006539,-1.114988,-0.027338,0.058593,0.138864,-0.090980,9.481039,0.023413,0.035119,0.007450,30.023438,83.552344,26.184375
17.719187,-1.166950,-1.307216,0.017541,0.088185,-0.933739,-1.086968,8.446743,0.022349,0.015963,-3.046874,34.312500,82.476562,25.495313
17.820242,-1.229783,-1.125999,-0.044054,-0.041950,2.054225,-0.043096,9.270349,0.009578,0.060661,3.093700,38.422852,78.352734,24.978516
17.922204,-1.053939,-0.988724,-0.005302,0.050668,-0.656011,-0.814029,12.804190,-0.074496,-0.166019,0.236258,29.844727,84.090234,25.323047
18.024769,-1.119466,-1.239547,-0.010263,0.091605,-0.809240,0.292093,11.731588,-0.075560,-0.056404,-3.049002,31.095703,82.476562,26.528906
18.125994,-0.835844,-1.270131,-0.042853,-0.022214,1.920150,1.187524,6.689399,0.024477,0.058532,1.805989,40.209961,78.352734,24.289453
18.227565,-1.334045,-1.000436,-0.042479,0.038670,-0.656011,-0.464475,10.467450,0.006385,0.021284,2.428560,31.453125,82.117969,24.806250
18.329268,-1.065111,-1.153879,0.000388,0.135288,-3.275268,1.364695,10.754754,0.036184,0.052147,-2.273183,31.095703,84.269531,24.117188
18.431498,-1.014880,-1.359350,-0.014234,0.016096,2.513912,-0.287304,9.935937,0.003193,0.010642,-0.385249,31.095703,84.269531,24.117188
18.533060,-1.233964,-1.152979,-0.019650,-0.048015,-0.052672,-1.177947,9.983821,0.021284,0.025541,2.278504,31.095703,84.269531,24.117188
18.634813,-1.294444,-1.179074,-0.021595,0.039164,-0.095768,0.229843,9.706094,0.021284,0.030863,-0.302240,31.095703,84.269531,24.117188
18.737002,-0.872767,-1.323059,0.004304,0.043963,0.407014,1.302446,9.591172,-0.012771,-0.001064,-1.641034,31.095703,84.269531,24.117188
18.838921,-1.054075,-1.231847,-0.030941,-0.011557,-0.339977,1.493982,13.172898,0.187303,0.279891,1.317510,31.095703,84.269531,24.117188
18.940402,-1.000977,-1.048417,-0.073965,0.039135,-0.220267,0.794875,9.782708,0.030863,0.018092,1.631456,38.244141,79.249219,26.184375
19.042397,-1.051838,-1.197335,-0.011911,0.066717,0.660800,1.259350,14.911088,0.041505,0.040441,-2.088008,31.274414,83.731641,25.323047
19.143876,-1.283239,-1.270229,-0.012706,0.012752,1.608904,-0.440533,9.667786,0.023413,0.041505,-0.188368,37.171875,82.835156,25.839844
19.245124,-0.887603,-1.026802,-0.035237,-0.059789,-2.020706,1.019930,9.016563,0.044697,0.006385,3.838657,38.601562,78.890625,24.461719
19.347025,-1.201387,-1.061298,-0.002542,0.040887,-0.421379,0.162806,9.586383,0.028734,0.039376,-0.508699,28.236328,85.345312,26.184375
19.448911,-1.091352,-1.366034,0.037786,0.113717,-0.636858,1.019930,2.552219,-0.045762,-0.031927,-3.576858,33.776367,83.014453,26.012109
19.550274,-1.229711,-1.168128,0.004522,-0.005121,1.077391,-0.105345,10.141838,0.035119,0.024477,2.891497,38.780273,77.276953,24.978516
19.651566,-1.060066,-1.050693,-0.038074,0.062333,-1.584961,0.474052,9.859322,0.010642,-0.001064,0.021284,33.418945,82.655859,24.633984
19.753348,-1.515947,-1.300815,-0.029060,0.082484,0.512359,0.890643,7.292738,0.000000,0.025541,-3.270361,36.278320,79.787109,24.978516
19.854905,-1.361559,-1.136908,-0.028392,-0.017416,1.173159,-1.292869,9.931148,0.062789,0.043633,2.707387,39.673828,79.966406,24.461719
19.956714,-0.879940,-0.980817,-0.001040,-0.016932,-1.134852,0.885855,10.946290,0.011706,-0.006385,1.170647,30.023438,82.835156,25.839844
20.058897,-1.011961,-1.151850,0.016973,0.050453,-1.106121,-0.665588,8.638280,0.018092,-0.002128,-0.632149,30.023438,82.835156,25.839844
20.160078,-1.417126,-1.233818,-0.028723,-0.003719,0.268151,0.124498,8.997410,-0.001064,0.015963,-0.573617,30.738281,82.476562,24.806250
20.261515,-1.156309,-1.155972,-0.034763,-0.002000,0.004788,0.268151,9.600749,0.017028,0.032991,0.160698,35.920898,80.862891,26.012109
20.363562,-1.170909,-1.147867,-0.027841,0.004542,-0.009577,0.292093,9.662998,0.021284,0.022349,0.006385,35.920898,81.938672,23.600391
20.464771,-0.931886,-1.167747,0.012997,0.023284,-0.483629,-0.162806,9.883264,0.018092,0.029798,0.116000,34.669922,82.117969,22.394531
20.566160,-1.088391,-1.140209,-0.016587,0.018001,-0.124498,0.205901,9.624691,0.018092,0.029798,0.009578,36.278320,80.862891,23.600391
20.667597,-1.168998,-1.151074,-0.012402,0.003070,-0.028730,0.158017,9.691728,0.015963,0.030863,0.010642,35.742188,81.759375,25.150781
20.769615,-1.375730,-1.152671,-0.019820,0.022936,-0.062249,0.225055,9.706094,0.017028,0.025541,0.009578,35.920898,80.145703,24.289453
20.871600,-1.182079,-1.155085,-0.011832,0.013833,-0.047884,0.143652,9.658209,0.017028,0.029798,0.006385,36.457031,82.117969,23.772656
20.972795,-1.054503,-1.144542,-0.026419,0.015097,-0.043096,0.287304,9.658209,0.018092,0.028734,0.010642,36.814453,81.759375,24.117188
21.074757,-1.340103,-1.156462,-0.024038,-0.019845,0.306458,0.158017,9.706094,0.009578,0.020220,0.251157,36.635742,83.014453,24.289453
21.176591,-1.395022,-1.154932,-0.015647,0.021103,-0.081403,0.196325,9.734824,0.019156,0.026606,0.006385,36.635742,83.014453,24.289453
21.277592,-1.232616,-1.149818,-0.025153,0.004679,0.158017,0.272939,9.777920,0.018092,0.032991,0.103230,36.635742,83.014453,24.289453
21.379564,-1.030704,-1.147401,-0.013003,0.008520,-0.047884,0.220267,9.629479,0.012771,0.029798,0.006385,36.635742,83.014453,24.289453
21.481468,-1.138000,-1.165917,-0.025483,0.018320,-0.067038,0.215478,9.830592,0.017028,0.026606,0.007450,35.027344,82.476562,24.461719
21.582510,-1.253874,-1.173073,-0.012330,0.004971,0.033519,0.090980,9.528923,0.019156,0.028734,0.009578,34.491211,83.731641,24.978516
21.685320,-1.309297,-1.176917,-0.021765,-0.000829,-0.009577,0.229843,9.715670,0.018092,0.028734,0.009578,34.848633,82.297266,24.633984
21.786078,-1.361908,-1.161768,-0.011953,0.006779,-0.033519,0.191536,9.720459,-0.002128,0.011706,0.004257,35.206055,82.655859,25.667578
21.887796,-1.277650,-1.164791,-0.021614,-0.006285,0.134075,0.177171,9.864111,0.009578,0.028734,0.006385,35.206055,82.655859,25.667578
21.989682,-1.219394,-1.148738,-0.020069,0.002353,0.052672,0.177171,9.868899,0.011706,0.018092,0.006385,37.171875,81.759375,23.772656
22.091897,-1.194212,-1.140513,-0.020391,0.027089,-0.153229,0.292093,9.768343,0.022349,0.029798,0.009578,37.171875,81.759375,23.772656
22.193224,-1.466562,-1.150015,-0.004596,0.019679,-0.134075,0.167594,9.686940,0.022349,0.031927,0.003193,35.563477,81.221484,23.600391
22.295806,-1.439395,-1.167649,-0.011924,0.006935,0.100556,0.052672,9.715670,0.013835,0.021284,0.008514,33.955078,81.042187,25.495313
22.397248,-0.969878,-1.175289,-0.020055,0.016785,-0.019154,0.134075,9.715670,0.017028,0.031927,0.009578,33.240234,82.476562,25.150781
22.498631,-1.475446,-1.167594,-0.008703,0.017861,-0.071826,0.191536,9.768343,0.019156,0.028734,0.010642,35.027344,81.759375,24.117188
22.600723,-1.376507,-1.171199,-0.003090,0.025957,-0.134075,0.114922,9.701305,0.018092,0.029798,-0.032991,34.312500,81.759375,24.461719
22.702643,-1.621464,-1.165442,-0.023139,-0.000306,-0.014365,0.239420,9.715670,0.007450,0.020220,0.008514,34.669922,82.835156,23.428125
22.804204,-1.357625,-1.130443,-0.020705,0.008894,-0.033519,0.215478,9.734824,0.009578,0.021284,0.006385,37.708008,81.580078,23.944922
22.906059,-1.467689,-1.166291,-0.028400,-0.007886,0.287304,0.229843,9.639056,0.007450,0.023413,0.006385,34.669922,81.400781,24.461719
23.008135,-1.331232,-1.158437,-0.014728,0.012688,0.009577,0.162806,9.610325,0.046826,0.059597,0.008514,35.742188,81.042187,23.428125
23.109770,-1.259214,-1.148546,-0.022480,0.039114,-0.019154,0.234632,9.662998,0.017028,0.029798,0.006385,35.563477,82.655859,25.323047
23.211532,-1.317831,-1.141845,-0.019107,0.010387,-0.047884,0.215478,9.672575,0.018092,0.032991,0.010642,36.635742,81.938672,24.633984
23.313155,-1.265081,-1.157114,-0.006193,0.010565,-0.076614,0.071826,9.639056,0.019156,0.029798,0.006385,35.742188,82.476562,24.806250
23.415512,-1.537513,-1.179038,-0.032044,0.011650,-0.028730,0.268151,9.605537,0.015963,0.027670,0.009578,33.776367,82.655859,24.633984
23.516642,-1.479506,-1.166736,-0.019084,0.011251,-0.047884,0.253785,9.691728,0.018092,0.027670,0.007450,35.384766,82.476562,25.839844
23.618222,-1.446917,-1.165099,-0.025737,0.009058,0.000000,0.201113,9.801862,0.021284,0.030863,0.005321,35.742188,82.476562,24.117188
23.720373,-1.374629,-1.154581,-0.019885,0.013642,-0.071826,0.244209,9.715670,0.015963,0.032991,0.004257,35.742188,82.476562,24.117188
23.822774,-1.466715,-1.135065,-0.005236,0.015448,-0.071826,0.167594,9.720459,0.018092,0.029798,0.007450,37.350586,82.297266,25.667578
23.924635,-1.476279,-1.168012,-0.022796,0.011335,-0.090980,0.225055,9.662998,0.019156,0.028734,0.006385,34.133789,82.655859,23.255859
24.026156,-1.359737,-1.165924,-0.022625,0.016296,-0.014365,0.229843,9.557653,0.020220,0.024477,0.006385,35.384766,82.476562,24.461719
24.127660,-0.968015,-1.145390,-0.030659,0.015085,-0.062249,0.220267,9.591172,0.015963,0.026606,0.010642,36.457031,82.476562,24.461719
24.228882,-1.622838,-1.162559,-0.021140,0.022366,-0.057461,0.191536,9.696517,0.018092,0.029798,0.008514,35.384766,81.400781,25.495313
24.330629,-1.427389,-1.156294,-0.020784,-0.008800,0.000000,0.201113,9.595960,0.018092,0.027670,0.008514,35.384766,81.400781,25.495313
24.432195,-1.599121,-1.153604,0.016027,0.013428,-0.186748,-0.775721,9.725247,0.015963,0.044697,0.007450,35.384766,81.400781,25.495313
24.534397,-1.412933,-1.160914,-0.000455,0.051467,-0.430956,0.215478,9.926360,0.015963,0.026606,0.008514,34.848633,82.655859,24.289453
24.636114,-1.424973,-1.174089,-0.026303,0.008685,0.009577,0.244209,9.543288,0.021284,0.027670,0.009578,34.491211,82.655859,23.944922
24.737845,-1.470915,-1.184208,-0.029334,0.020504,-0.019154,0.296881,9.605537,0.021284,0.030863,0.004257,34.133789,83.731641,26.012109
24.839998,-1.320166,-1.184346,-0.017752,0.004289,-0.004788,0.172383,9.710882,0.021284,0.028734,0.006385,33.418945,83.731641,25.323047
24.941856,-1.103182,-1.171509,-0.013844,0.019918,-0.086191,0.172383,9.773131,0.022349,0.029798,0.006385,34.669922,82.117969,23.428125
25.043967,-1.247702,-1.186151,-0.023901,0.022506,-0.100556,0.248997,9.653421,0.017028,0.029798,0.008514,34.312500,83.552344,23.772656
25.146094,-1.429492,-1.169456,-0.022618,0.011466,-0.086191,0.201113,9.739612,0.013835,0.027670,0.009578,33.955078,82.476562,24.461719
25.247286,-1.316053,-1.154626,-0.018197,0.007496,-0.023942,0.205901,9.768343,0.020220,0.031927,0.004257,36.278320,82.655859,24.633984
25.349484,-1.460499,-1.164297,-0.013980,0.017378,-0.071826,0.172383,9.696517,0.012771,0.030863,0.007450,33.418945,80.862891,25.667578
25.450765,-1.168005,-1.179450,-0.014712,0.016642,-0.047884,0.158017,9.519346,0.018092,0.029798,0.008514,33.418945,80.862891,25.667578
25.552506,-1.432330,-1.178938,-0.023598,0.015598,-0.043096,0.229843,9.715670,0.017028,0.032991,0.008514,33.955078,82.835156,24.806250
25.654163,-1.316564,-1.177641,-0.026639,0.014579,0.033519,0.268151,9.758766,0.017028,0.029798,0.006385,34.669922,82.835156,24.461719
25.755912,-1.609580,-1.176521,-0.016690,0.022440,-0.124498,0.244209,9.610325,0.018092,0.030863,0.008514,33.776367,82.297266,24.633984
25.857216,-1.462387,-1.167818,-0.008717,0.008549,-0.086191,0.148441,9.677363,0.021284,0.029798,0.007450,34.312500,82.476562,25.839844
25.958640,-1.472067,-1.195535,-0.021472,0.018683,-0.095768,0.268151,9.696517,0.015963,0.029798,0.007450,32.167969,82.117969,24.806250
26.060249,-1.445340,-1.176468,-0.009581,0.001903,-0.009577,0.186748,9.629479,0.018092,0.030863,0.004257,33.418945,81.580078,24.978516
26.162046,-1.604072,-1.183262,-0.020447,-0.000506,0.000000,0.215478,9.864111,0.017028,0.032991,0.006385,34.133789,84.807422,24.289453
26.264464,-1.282415,-1.164977,-0.020710,0.016236,-0.081403,0.263362,9.777920,0.020220,0.025541,0.007450,34.848633,81.580078,25.323047
26.366037,-1.499133,-1.170665,-0.023838,0.011064,-0.014365,0.292093,9.701305,0.018092,0.030863,0.006385,34.312500,82.476562,25.150781
26.467463,-1.165363,-1.180723,-0.025198,0.011394,-0.033519,0.253785,9.696517,0.015963,0.028734,0.005321,33.240234,82.476562,25.150781
26.569597,-1.295273,-1.193569,-0.016646,0.022294,-0.014365,0.248997,9.605537,0.018092,0.028734,0.008514,32.525391,81.759375,24.117188
26.671271,-1.467903,-1.195037,-0.030814,0.013938,-0.019154,0.248997,9.677363,0.017028,0.029798,0.003193,31.989258,81.221484,26.012109
26.773395,-1.494718,-1.188206,-0.019576,0.006790,-0.028730,0.205901,9.643844,0.018092,0.026606,0.009578,31.989258,81.221484,26.012109
26.874586,-1.195251,-1.196335,-0.009510,0.004516,0.023942,0.172383,9.639056,0.021284,0.028734,0.009578,31.989258,81.221484,26.012109
26.975583,-1.650580,-1.196503,-0.013081,0.009626,-0.019154,0.143652,9.706094,0.015963,0.029798,0.007450,31.989258,81.221484,26.012109
27.077556,-1.566122,-1.192397,-0.013806,0.007331,-0.028730,0.086191,9.686940,0.014899,0.029798,0.006385,31.989258,81.221484,26.012109
27.179103,-1.375968,-1.195352,-0.011974,0.014181,-0.062249,0.153229,9.734824,0.018092,0.031927,0.006385,31.989258,81.221484,26.012109
27.281226,-1.421373,-1.193321,-0.021840,0.018729,-0.076614,0.258574,9.811438,0.015963,0.030863,0.005321,31.989258,81.221484,26.012109
27.383159,-1.458755,-1.189080,-0.006466,0.015785,-0.090980,0.114922,9.753978,0.013835,0.028734,0.007450,32.882812,82.117969,25.150781
27.484724,-1.381030,-1.190513,-0.017177,0.014406,-0.014365,0.225055,9.734824,0.018092,0.028734,0.005321,33.955078,82.835156,25.150781
27.586028,-1.143542,-1.192392,-0.026319,0.026747,-0.090980,0.306458,9.710882,0.015963,0.028734,0.008514,32.704102,82.655859,25.667578
27.687660,-1.144704,-1.171571,-0.023916,0.012913,-0.019154,0.268151,9.624691,0.020220,0.028734,0.005321,33.955078,81.042187,24.461719
27.789267,-1.479570,-1.166463,-0.013236,0.021596,-0.119710,0.239420,9.595960,0.014899,0.027670,0.011706,35.027344,83.552344,25.150781
27.890740,-1.448242,-1.175888,-0.027366,0.022084,-0.071826,0.268151,9.514557,0.014899,0.029798,0.006385,33.776367,81.580078,23.944922
27.992516,-1.460412,-1.183426,-0.004628,0.005039,-0.019154,0.153229,9.706094,0.017028,0.032991,0.008514,33.597656,82.117969,25.495313
28.094606,-1.502473,-1.173722,-0.017138,0.024901,-0.076614,0.191536,9.677363,0.018092,0.029798,0.010642,34.669922,82.476562,24.117188
28.196000,-1.381501,-1.178813,-0.015897,0.018076,-0.119710,0.225055,9.753978,0.018092,0.029798,0.006385,33.955078,82.117969,24.117188
28.297953,-1.632088,-1.154418,-0.028120,0.023941,-0.100556,0.253785,9.730036,0.017028,0.026606,0.004257,35.563477,81.938672,25.667578
28.400161,-1.455389,-1.198770,-0.027944,0.015304,-0.028730,0.258574,9.658209,0.012771,0.028734,0.006385,32.167969,82.835156,23.428125
28.502175,-1.228230,-1.177986,-0.032335,0.023165,-0.047884,0.258574,9.662998,0.018092,0.030863,0.007450,33.776367,83.014453,23.944922
28.603370,-1.604536,-1.190013,-0.009822,0.015786,-0.028730,0.153229,9.744401,0.017028,0.025541,0.006385,33.418945,82.297266,26.012109
28.705314,-1.676268,-1.171655,-0.022148,0.010505,-0.062249,0.263362,9.634267,0.015963,0.029798,0.005321,33.955078,82.835156,24.461719
28.807735,-1.790589,-1.180141,-0.021435,0.023947,-0.095768,0.244209,9.801862,0.017028,0.025541,0.005321,33.955078,82.835156,24.461719
28.909189,-1.427431,-1.192746,-0.021201,0.018118,-0.071826,0.244209,9.672575,0.018092,0.027670,0.005321,33.240234,83.910938,24.461719
29.010830,-1.655982,-1.185772,-0.032179,0.013756,0.014365,0.301669,9.806650,0.021284,0.026606,0.009578,33.597656,83.193750,23.772656
29.112080,-1.605565,-1.165941,-0.018811,0.009402,-0.057461,0.244209,9.734824,0.012771,0.027670,0.007450,33.776367,80.862891,23.944922
29.213696,-1.482191,-1.181128,-0.008518,0.029601,-0.225055,0.225055,10.022128,0.018092,0.026606,0.007450,33.061523,82.297266,24.633984
29.315157,-1.578855,-1.179474,-0.017660,0.004282,0.009577,0.177171,9.428366,0.019156,0.029798,0.007450,33.776367,83.373047,23.944922
29.416388,-1.741805,-1.178474,-0.023084,0.005798,-0.004788,0.248997,9.533711,0.013835,0.029798,0.011706,34.133789,84.090234,25.323047
29.518053,-1.585088,-1.155946,-0.015518,0.021330,-0.138864,0.225055,9.682152,0.011706,0.031927,0.005321,35.206055,81.938672,24.978516
29.619866,-1.837127,-1.170169,-0.019776,0.000823,0.105345,0.191536,9.562441,0.014899,0.026606,0.007450,34.491211,82.297266,23.944922
29.721692,-1.404058,-1.178038,-0.012281,-0.001020,-0.023942,0.090980,9.619902,0.020220,0.029798,0.007450,33.061523,81.221484,26.356641
29.823298,-1.701976,-1.177699,-0.011378,0.004903,-0.023942,0.129287,9.682152,0.015963,0.029798,0.007450,33.418945,82.297266,26.701172
29.925294,-1.538223,-1.175132,-0.022890,0.022364,-0.067038,0.215478,9.744401,0.019156,0.027670,0.006385,34.491211,82.655859,24.633984
30.027662,-1.905403,-1.171281,-0.031979,0.003745,0.000000,0.205901,9.648633,0.017028,0.030863,0.007450,34.669922,82.117969,24.117188
30.129804,-1.475358,-1.175213,-0.001595,0.014074,-0.114922,0.114922,9.629479,0.018092,0.029798,0.005321,33.597656,81.759375,23.772656
30.231221,-1.887973,-1.194215,-0.022586,0.017989,-0.033519,0.239420,9.706094,0.018092,0.028734,0.006385,32.704102,81.580078,24.289453
30.332529,-1.855555,-1.179456,-0.026657,0.019354,-0.067038,0.215478,9.653421,0.018092,0.030863,0.008514,33.240234,80.325000,25.150781
30.434387,-1.730656,-1.179055,-0.026549,0.018655,0.009577,0.234632,9.706094,0.012771,0.029798,0.008514,33.240234,80.325000,25.150781
30.535855,-1.725913,-1.170833,-0.011063,0.015312,-0.114922,0.191536,9.658209,0.017028,0.030863,0.005321,33.240234,80.325000,25.150781
30.637081,-1.869317,-1.181339,-0.011755,0.014947,-0.028730,0.158017,9.476250,0.013835,0.029798,0.006385,33.240234,80.325000,25.150781
30.738961,-1.773058,-1.187285,-0.021858,0.005944,0.052672,0.229843,9.691728,0.010642,0.022349,0.008514,32.525391,81.759375,24.461719
30.840416,-1.586590,-1.186524,-0.024668,-0.006201,0.047884,0.220267,9.787496,0.019156,0.034055,0.008514,32.525391,81.759375,24.461719
30.942539,-1.964855,-1.180800,-0.023350,0.026029,-0.081403,0.272939,9.753978,0.018092,0.027670,0.008514,33.418945,81.580078,24.633984
31.043850,-1.955307,-1.195190,-0.012514,0.020844,-0.047884,0.201113,9.629479,0.015963,0.028734,0.009578,32.882812,82.835156,25.495313
31.145397,-1.802318,-1.185034,-0.012786,0.006280,-0.033519,0.143652,9.706094,0.017028,0.029798,0.008514,32.882812,82.476562,24.806250
31.248086,-1.691761,-1.185866,-0.022559,0.009799,-0.033519,0.287304,9.686940,0.019156,0.030863,0.006385,33.597656,82.117969,22.739062
31.350454,-1.727335,-1.194894,-0.007477,0.011590,-0.043096,0.181959,9.624691,0.015963,0.031927,0.009578,32.525391,83.193750,24.461719
31.452344,-2.050928,-1.180885,-0.019577,0.018182,-0.076614,0.234632,9.662998,0.018092,0.027670,0.006385,34.312500,83.910938,25.150781
31.553692,-2.089834,-1.189011,-0.010861,0.009648,-0.067038,0.167594,9.639056,0.018092,0.026606,0.004257,32.704102,83.014453,23.600391
31.655741,-1.699461,-1.171635,-0.013654,0.021380,-0.134075,0.201113,9.749189,0.018092,0.029798,0.009578,33.776367,80.504297,24.633984
31.757818,-1.803012,-1.169136,-0.020481,0.000976,0.052672,0.196325,9.643844,0.019156,0.029798,0.006385,33.776367,80.862891,23.944922
31.859343,-1.873302,-1.188866,-0.005072,0.007567,-0.019154,0.129287,9.777920,0.018092,0.028734,0.005321,33.061523,82.297266,24.289453
31.960684,-1.821030,-1.173103,-0.011004,0.010595,-0.095768,0.167594,9.658209,0.017028,0.028734,0.007450,33.955078,82.835156,24.117188
32.062751,-1.585591,-1.187664,-0.039065,0.006253,0.023942,0.335188,9.528923,0.013835,0.034055,0.011706,32.525391,82.476562,24.806250
32.164610,-1.940166,-1.165516,0.002250,0.023614,-0.287304,0.028730,9.797073,0.014899,0.028734,0.005321,35.206055,82.297266,24.978516
32.266013,-1.904009,-1.180772,-0.023034,0.011416,-0.014365,0.134075,9.797073,0.015963,0.030863,0.006385,31.631836,81.938672,24.633984
32.367442,-1.737049,-1.184968,-0.017188,0.021382,-0.076614,0.263362,9.734824,0.019156,0.027670,0.007450,34.133789,80.862891,23.944922
32.469079,-2.002612,-1.161118,-0.025596,0.011694,-0.057461,0.234632,9.739612,0.015963,0.028734,0.007450,34.133789,80.862891,23.944922
32.570659,-1.741919,-1.185899,-0.025658,0.015459,-0.004788,0.229843,9.686940,0.017028,0.028734,0.009578,33.240234,81.759375,25.150781
32.672750,-1.909095,-1.169248,-0.005644,0.007546,-0.047884,0.186748,9.835380,0.017028,0.030863,0.007450,34.491211,83.014453,25.667578
32.774437,-1.520602,-1.171857,-0.018805,0.020823,-0.090980,0.225055,9.710882,0.018092,0.029798,0.005321,34.491211,81.938672,23.944922
32.876015,-1.758081,-1.164712,-0.013644,0.011363,-0.047884,0.172383,9.706094,0.015963,0.028734,0.010642,34.491211,81.938672,23.944922
32.977551,-1.849437,-1.167649,-0.022513,0.009135,-0.009577,0.225055,9.605537,0.018092,0.025541,0.008514,34.491211,81.938672,23.944922
33.079539,-1.818550,-1.167028,-0.019653,-0.003441,0.038307,0.201113,9.739612,0.015963,0.028734,0.006385,34.491211,81.938672,23.944922
33.181228,-1.818583,-1.164048,-0.018988,0.000805,-0.004788,0.220267,9.825804,0.017028,0.027670,0.007450,34.491211,81.938672,23.944922
33.282988,-1.962361,-1.173859,-0.011512,0.030631,-0.124498,0.191536,9.562441,0.018092,0.030863,0.006385,34.491211,81.938672,23.944922
33.385461,-1.584567,-1.154116,-0.018985,0.010805,-0.071826,0.172383,9.821015,0.017028,0.028734,0.007450,35.384766,81.400781,25.150781
33.487287,-1.951098,-1.151208,-0.009727,0.031980,-0.201113,0.239420,9.739612,0.019156,0.026606,0.007450,36.099609,83.910938,25.150781
33.588335,-1.720671,-1.169435,0.007373,0.005924,-0.114922,0.067038,9.634267,0.019156,0.028734,0.006385,34.312500,81.400781,23.428125
33.690043,-2.078151,-1.145283,-0.018736,0.006585,0.023942,0.177171,9.744401,0.014899,0.027670,0.008514,36.099609,81.042187,23.772656
33.791770,-1.919706,-1.165953,-0.024090,0.020400,-0.086191,0.225055,9.806650,0.018092,0.025541,0.008514,35.206055,82.655859,23.600391
33.894022,-2.016837,-1.153289,-0.011646,0.014300,-0.119710,0.177171,9.643844,0.015963,0.027670,0.006385,36.278320,81.938672,24.633984
33.995060,-1.919833,-1.160733,-0.006142,0.022490,-0.167594,0.138864,9.797073,0.018092,0.028734,0.005321,34.848633,82.655859,24.978516
34.096450,-1.812030,-1.154683,-0.035659,0.009265,0.067038,0.268151,9.476250,0.015963,0.027670,0.007450,35.563477,81.938672,25.667578
34.198781,-1.917430,-1.162364,-0.015904,0.017355,-0.009577,0.229843,9.615114,0.015963,0.029798,0.007450,34.133789,82.655859,24.633984
34.300469,-1.923855,-1.175200,-0.006376,0.025645,-0.148441,0.167594,9.672575,0.019156,0.026606,0.008514,34.133789,82.655859,24.633984
34.401521,-2.161052,-1.168924,-0.011870,0.008810,-0.052672,0.244209,9.610325,0.019156,0.028734,0.007450,34.669922,82.476562,24.117188
34.503540,-2.015057,-1.159485,-0.003367,0.008221,-0.076614,0.090980,9.935937,0.014899,0.028734,0.008514,34.669922,80.683594,24.461719
34.604745,-2.012577,-1.156580,-0.010397,0.016458,-0.095768,0.158017,9.686940,0.015963,0.030863,0.005321,35.563477,81.221484,23.944922
34.706011,-1.701668,-1.174691,-0.019409,-0.000053,0.038307,0.234632,9.634267,0.019156,0.028734,0.006385,33.776367,81.938672,24.978516
34.807783,-1.824140,-1.165158,-0.004961,0.010217,-0.057461,0.119710,9.682152,0.018092,0.031927,0.007450,35.027344,82.476562,25.495313
34.909463,-1.954596,-1.179499,-0.019127,-0.007725,0.033519,0.153229,9.639056,0.018092,0.030863,0.005321,33.955078,81.759375,25.150781
35.011457,-1.913310,-1.153626,-0.027314,0.021891,-0.052672,0.201113,9.753978,0.020220,0.030863,0.008514,36.278320,82.655859,23.944922
35.113032,-1.933953,-1.155066,-0.011773,0.016781,-0.110133,0.167594,9.744401,0.018092,0.024477,0.012771,35.206055,80.862891,24.289453
35.214419,-1.884835,-1.145802,-0.010742,0.005578,-0.071826,0.177171,9.730036,0.019156,0.029798,0.007450,36.278320,82.655859,24.978516
35.315737,-1.713666,-1.172779,-0.015417,0.018192,-0.095768,0.196325,9.634267,0.017028,0.029798,0.010642,34.848633,83.014453,24.289453
35.417418,-2.143850,-1.162136,-0.031390,0.008836,0.000000,0.253785,9.706094,0.019156,0.027670,0.007450,35.384766,82.476562,24.117188
35.518695,-1.565203,-1.166836,-0.010238,0.011409,-0.071826,0.119710,9.706094,0.015963,0.028734,0.008514,34.491211,81.938672,24.633984
35.620694,-1.940388,-1.144829,-0.020928,0.013967,-0.076614,0.258574,9.825804,0.018092,0.029798,0.008514,36.993164,81.938672,25.323047
35.723117,-2.010262,-1.151456,0.029743,0.030863,-0.488417,-0.402226,9.634267,0.025541,0.031927,0.005321,35.920898,82.655859,25.323047
35.825166,-1.779933,-1.164888,-0.001097,0.003582,-0.019154,0.067038,9.715670,0.019156,0.030863,0.008514,35.742188,82.835156,25.495313
35.926686,-1.822213,-1.155724,-0.009434,0.013627,-0.052672,0.191536,9.653421,0.015963,0.029798,0.006385,35.742188,82.835156,25.495313
36.027738,-2.120885,-1.173920,-0.016560,0.010262,-0.057461,0.153229,9.629479,0.018092,0.027670,0.005321,35.027344,83.910938,25.839844
36.129238,-1.539001,-1.155496,-0.023325,0.026678,-0.110133,0.220267,9.744401,0.020220,0.029798,0.009578,35.920898,81.938672,24.633984
36.231901,-1.653735,-1.159215,-0.027023,0.023744,-0.019154,0.263362,9.595960,0.014899,0.030863,0.003193,35.920898,81.938672,24.633984
36.333998,-1.929149,-1.147636,-0.021228,0.012893,-0.071826,0.268151,9.739612,0.018092,0.031927,0.006385,35.920898,81.938672,24.633984
36.436354,-1.971635,-1.151139,-0.018794,0.013041,-0.090980,0.162806,9.658209,0.017028,0.028734,0.010642,35.920898,81.938672,24.633984
36.537867,-1.724127,-1.153227,-0.009394,0.019118,-0.119710,0.138864,9.715670,0.015963,0.028734,0.009578,35.920898,81.938672,24.633984
36.639556,-2.093955,-1.174939,-0.023645,0.003175,-0.004788,0.234632,9.610325,0.017028,0.029798,0.008514,33.776367,82.655859,24.633984
36.741554,-2.012618,-1.162210,-0.006537,0.015946,-0.119710,0.158017,9.586383,0.018092,0.028734,0.009578,34.848633,81.938672,23.944922
36.843279,-1.815595,-1.170335,-0.025716,0.018103,-0.071826,0.220267,9.773131,0.015963,0.031927,0.007450,34.491211,82.297266,24.289453
36.945181,-2.218236,-1.164382,-0.023467,0.020672,-0.052672,0.191536,9.715670,0.013835,0.028734,0.007450,35.384766,82.835156,24.806250
37.046826,-1.779283,-1.163050,-0.016439,0.012411,-0.067038,0.229843,9.667786,0.018092,0.029798,0.009578,34.491211,81.580078,25.323047
37.149321,-1.872150,-1.153137,-0.016568,0.016979,-0.071826,0.205901,9.773131,0.015963,0.030863,0.007450,35.920898,81.221484,23.944922
37.250184,-1.967712,-1.167193,-0.018412,0.012625,-0.071826,0.181959,9.538499,0.017028,0.029798,0.004257,34.669922,81.759375,23.428125
37.352729,-2.022759,-1.165720,-0.013930,0.006426,-0.071826,0.138864,9.706094,0.017028,0.030863,0.006385,34.491211,81.938672,22.911328
37.454482,-1.918289,-1.162569,-0.010726,0.022502,-0.110133,0.181959,9.710882,0.015963,0.029798,0.007450,35.027344,81.400781,24.461719
37.556179,-1.901724,-1.175434,-0.012671,0.023911,-0.086191,0.234632,9.701305,0.017028,0.030863,0.006385,34.312500,82.835156,24.117188
37.657810,-1.677517,-1.162336,-0.019180,0.010860,0.009577,0.234632,9.581595,0.020220,0.025541,0.009578,34.312500,80.325000,25.495313
37.759400,-1.890218,-1.154757,-0.021649,0.011110,-0.009577,0.196325,9.610325,0.014899,0.031927,0.009578,35.742188,81.042187,24.806250
37.861457,-1.945444,-1.162615,-0.008148,0.018966,-0.158017,0.158017,9.624691,0.018092,0.027670,0.007450,34.848633,80.504297,25.667578
37.962649,-1.780008,-1.145401,-0.008752,0.009766,-0.047884,0.186748,9.749189,0.015963,0.028734,0.006385,36.635742,82.297266,26.012109
38.063755,-1.829932,-1.155787,-0.018052,0.005992,0.019154,0.172383,9.576807,0.018092,0.027670,0.007450,35.742188,82.476562,24.461719
38.165418,-1.859263,-1.163396,-0.008463,0.014873,-0.062249,0.201113,9.619902,0.017028,0.030863,0.008514,34.491211,81.938672,25.667578
38.267146,-1.979768,-1.172577,-0.019944,0.022143,-0.062249,0.186748,9.686940,0.015963,0.027670,0.008514,34.848633,81.580078,26.356641
38.369024,-2.076996,-1.147110,-0.011757,0.016748,-0.110133,0.191536,9.677363,0.018092,0.028734,0.005321,36.635742,82.297266,24.978516
38.471097,-1.731676,-1.151991,-0.006689,0.013370,-0.196325,0.143652,9.495404,0.020220,0.031927,0.006385,36.635742,82.297266,24.978516
38.573039,-1.861108,-1.157398,-0.033068,0.018890,-0.062249,0.277727,9.586383,0.019156,0.025541,0.007450,35.206055,82.297266,24.978516
38.674631,-1.966573,-1.139881,-0.020814,0.016535,-0.052672,0.268151,9.500192,0.013835,0.027670,0.006385,36.635742,80.504297,24.633984
38.776688,-1.759983,-1.151635,-0.031591,0.026865,-0.110133,0.282516,9.581595,0.018092,0.029798,0.004257,35.206055,81.580078,24.633984
38.877836,-1.886883,-1.182589,-0.020588,0.014240,-0.028730,0.215478,9.816227,0.015963,0.031927,0.007450,33.240234,81.400781,26.528906
38.979620,-1.992283,-1.152028,-0.020445,0.019552,-0.138864,0.287304,9.619902,0.018092,0.029798,0.007450,36.099609,81.759375,24.461719
39.080578,-1.837827,-1.159945,-0.028606,0.006307,-0.023942,0.253785,9.686940,0.014899,0.028734,0.008514,35.206055,82.655859,24.289453
39.182205,-1.969223,-1.163501,-0.024627,-0.006154,0.023942,0.201113,9.576807,0.020220,0.028734,0.003193,35.206055,82.655859,24.289453
39.284650,-1.768425,-1.147373,-0.028126,0.015998,-0.009577,0.268151,9.639056,0.018092,0.029798,0.007450,36.278320,80.862891,24.289453
39.386206,-1.778814,-1.158044,-0.020005,0.020150,-0.023942,0.220267,9.634267,0.014899,0.029798,0.006385,36.278320,82.297266,24.289453
39.487592,-1.830952,-1.170454,-0.020449,0.026837,-0.110133,0.282516,9.682152,0.019156,0.030863,0.006385,33.776367,80.504297,24.289453
39.589596,-1.705303,-1.172174,-0.017196,0.018803,-0.028730,0.143652,9.600749,0.015963,0.026606,0.005321,35.206055,82.297266,24.978516
