Time, Altitude, Yaw, Pitch, Roll, Ax, Ay, Az, Pitch_rate, Roll_rate,Yaw_rate, Magx, Magy, Magz0.897293,0.304270,-0.061617,-0.124714,0.103585,0.464475,-1.532289,10.031705,0.011706,-0.026606,0.017028,40.995703,9.079687,24.300000
0.997454,-0.053082,-0.046921,-0.297606,0.210452,0.464475,-1.446098,10.165780,0.030863,0.015963,0.022349,42.222070,10.651172,23.118750
1.097578,0.007229,-0.009774,-0.461574,0.309550,0.890643,-1.513135,10.084377,-0.040441,-0.186239,-0.169212,42.222070,10.651172,23.118750
1.198218,-0.221852,0.044314,-0.627722,0.404118,1.053449,-1.479617,9.830592,-0.058532,-0.368222,-0.129835,40.294922,10.476562,23.625000
1.299900,-0.157999,0.149970,-0.792736,0.514666,1.374272,-1.699883,10.065224,0.140478,-0.275634,-0.044697,40.294922,5.936719,23.962500
1.402029,-0.038569,0.364747,-0.917256,0.734032,1.489193,-1.704672,9.730036,-0.048954,0.106422,-0.073431,38.718164,4.016016,22.106250
1.503273,-0.087934,0.618478,-0.995784,1.015146,1.264138,-1.110910,10.429142,0.080881,0.114936,-0.120257,40.294922,6.285937,22.275000
1.605420,-0.347480,0.858574,-0.998729,1.286787,1.369483,-2.116474,8.748413,0.372478,-0.166019,-0.106422,40.294922,6.285937,22.275000
1.707586,-0.455343,0.966936,-0.984413,1.427421,1.096544,-1.422156,10.017340,-0.009578,0.091523,-0.023413,36.090234,6.635156,22.275000
1.808683,-0.386162,0.973983,-0.931505,1.478367,1.115698,-1.369483,10.309432,0.121322,-0.439525,-0.244772,36.966211,6.460547,22.781250
1.909522,-0.230494,0.933439,-0.888581,1.480188,1.963245,-1.154005,9.433155,-0.928004,0.070239,-0.118129,36.615820,4.714453,20.418750
2.010920,-0.343718,0.994802,-0.825959,1.570949,2.106897,-2.978387,9.485827,0.648113,0.355451,0.262863,35.564648,4.016016,19.406250
2.111952,-0.336702,1.043794,-0.745480,1.654706,1.987187,-2.149993,9.701305,0.223487,0.236258,0.229872,37.316602,3.666797,21.431250
2.212967,-0.556404,1.061985,-0.672703,1.741538,2.274492,-1.244985,10.184934,0.267120,0.006385,-0.159634,36.440625,4.889062,21.937500
2.313940,-0.234442,1.062647,-0.588570,1.829142,2.652775,-0.871489,9.911995,0.490607,0.410791,-0.094716,33.812695,5.063672,20.756250
2.415785,-0.397209,1.028136,-0.496677,1.861471,1.335965,-0.770933,9.821015,0.006385,-0.035119,-0.011706,32.060742,6.111328,24.468750
2.517484,-0.374441,0.984821,-0.390229,1.900696,1.517924,-1.091756,10.213664,-0.141542,0.105358,-0.061725,32.235937,5.936719,22.950000
2.619405,-0.210397,0.931829,-0.234075,1.953714,1.101333,-1.651999,10.256760,-0.178790,0.791783,0.139413,32.586328,8.381250,23.962500
2.721573,-0.340886,0.887544,-0.053749,2.089191,1.206678,-0.938527,10.256760,0.421433,0.941838,0.044697,34.163086,12.397266,27.168750
2.822879,-0.308978,0.786071,0.148465,2.285706,-1.728614,-0.512359,10.194511,-0.077688,1.608043,0.010642,31.535156,22.350000,29.700000
2.925009,-0.391398,0.668114,0.349980,2.527861,-4.458003,-1.541866,8.676587,0.098973,1.175968,0.094716,33.637500,35.620312,29.362500
3.025732,-0.595171,0.496286,0.483260,2.808098,-4.247314,-1.288080,8.413225,-0.060661,1.196188,0.091523,33.812695,44.874609,30.543750
3.127002,-0.376052,0.285497,0.561733,-3.118626,-6.138733,-0.871489,7.460332,-0.056404,1.567602,0.175597,33.812695,44.874609,30.543750
3.228258,-0.414434,0.101718,0.572036,-2.792133,-8.643068,-1.460463,5.774814,-0.002128,1.107857,0.245836,35.739844,52.382812,29.025000
3.330327,-0.383870,-0.021575,0.509786,-2.520090,-8.614338,-0.162806,4.692635,0.135156,0.519341,0.043633,34.513477,60.938672,26.831250
3.431885,-0.398574,-0.086924,0.438084,-2.347001,-8.116344,-0.474052,4.841076,-0.069175,0.148991,0.068110,34.688672,66.002344,25.312500
3.533312,-0.585521,-0.119411,0.349008,-2.179786,-8.461109,-0.502782,5.085284,-0.046826,0.243707,0.106422,34.688672,66.351562,21.937500
3.634234,-0.538720,-0.106367,0.237172,-2.037520,-8.461109,-0.205901,4.831499,-0.036184,0.263928,0.048954,34.688672,66.351562,21.937500
3.736461,-0.420939,-0.059098,0.088806,-1.954621,-8.911219,-0.699107,4.616021,-0.042569,0.114936,-0.015963,34.863867,68.970703,22.781250
3.837672,-0.346091,-0.099724,-0.077508,-1.996478,-8.595184,-0.488417,4.467580,0.008514,0.090459,0.032991,34.863867,70.367578,22.443750
3.939571,-0.115826,-0.170371,-0.191656,-2.013259,-8.686164,-0.670376,4.180276,0.030863,0.123450,0.059597,36.265430,70.716797,20.418750
4.041242,-0.359336,-0.157574,-0.245485,-2.004803,-8.882488,-0.526724,4.003105,-0.004257,-0.194753,-0.063853,35.915039,71.764453,19.406250
4.143080,-0.289797,-0.175488,-0.249513,-2.030487,-9.040505,-0.445322,4.314351,0.025541,-0.394827,-0.073431,35.915039,71.066016,20.418750
4.244183,-0.196179,-0.269904,-0.194313,-2.155562,-9.246407,-1.833958,4.668693,0.134092,-2.781882,-0.496993,35.389453,66.002344,23.287500
4.346151,-0.299761,-0.424537,-0.164339,-2.525187,-4.639963,-0.225055,7.350199,0.589580,-2.668010,-0.264992,32.235937,48.541406,28.687500
4.447340,-0.368036,-0.595031,-0.169007,-2.818204,-2.758120,0.651223,9.801862,0.109615,-2.146540,-0.358644,32.235937,48.541406,28.687500
4.548379,-0.292887,-0.738126,-0.046539,-3.013758,-0.881066,-0.531513,10.879252,-0.005321,-1.530354,-0.052147,31.184766,18.159375,28.687500
4.649367,-0.312514,-0.609209,0.092018,3.075279,0.627281,-0.699107,10.304644,0.179854,-1.069545,-0.206460,29.958398,11.349609,24.131250
4.751332,-0.195582,-0.495068,0.126255,2.922373,2.566584,-0.081403,10.050859,0.036184,-0.328845,-0.209652,29.958398,11.349609,24.131250
4.852795,-0.554858,-0.430805,0.130305,2.976687,1.331176,-0.723049,9.988609,0.032991,-0.411855,-0.109615,26.454492,6.111328,23.793750
4.954222,-0.299727,-0.287995,0.131687,2.915394,2.499547,-0.627281,9.940725,-0.025541,-0.131964,-0.053211,24.877734,3.142969,21.600000
5.055562,-0.312878,-0.237607,0.099520,2.954701,1.968034,-0.560243,9.959879,-0.034055,-0.012771,-0.018092,26.629687,3.142969,21.600000
5.157397,-0.360362,-0.256602,0.108863,2.946676,2.250550,-0.541090,10.113108,-0.025541,0.039376,-0.026606,26.629687,3.142969,20.925000
5.258316,-0.200880,-0.250106,0.105234,2.968407,1.757344,-0.502782,9.888053,0.032991,0.188368,0.071303,26.629687,3.142969,20.925000
5.360138,-0.319440,-0.215917,0.086084,3.007555,1.470040,-0.555455,9.844957,0.036184,0.227744,0.190496,26.980078,3.142969,21.600000
5.461637,-0.446611,-0.238728,0.130357,3.015601,1.656788,-0.794875,10.117896,0.005321,-0.003193,0.061725,27.856055,4.714453,22.443750
5.563146,-0.207048,-0.199777,0.102663,2.982686,1.771709,-0.632069,9.878476,0.068110,0.012771,0.056404,28.732031,3.142969,20.250000
5.664670,-0.356749,-0.167334,0.109978,2.961766,1.987187,-0.742203,9.816227,0.034055,0.006385,0.044697,29.082422,1.746094,22.275000
5.765428,-0.124105,-0.201522,0.109243,3.002346,1.642422,-0.794875,9.964667,0.010642,0.018092,0.022349,29.082422,3.492187,22.275000
5.867679,-0.212211,-0.213131,0.118612,2.978211,1.886631,-0.818817,9.988609,0.012771,-0.003193,0.030863,29.082422,3.492187,22.275000
5.969287,-0.005913,-0.235554,0.101288,3.023164,1.479617,-0.660800,9.907206,0.071303,0.083009,0.069175,28.381641,4.889062,23.962500
6.070901,-0.539380,-0.272922,0.107770,2.991670,1.862689,-0.651223,10.189722,0.020220,0.036184,0.028734,28.381641,4.889062,23.962500
6.172478,-0.384707,-0.189271,0.093283,3.055688,1.053449,-0.852336,10.002975,0.097909,0.143670,0.317139,29.608008,4.016016,22.443750
6.274221,-0.406473,-0.304782,0.129841,3.045724,1.393425,-0.948104,10.213664,-0.023413,0.121322,0.121322,28.381641,6.635156,22.950000
6.376296,-0.430902,-0.238437,0.094528,3.056918,1.163582,-0.718260,10.117896,0.018092,0.056404,0.091523,31.535156,5.587500,24.300000
6.477688,-0.093059,-0.245630,0.071395,3.051159,1.077391,-0.493206,10.017340,0.034055,0.001064,0.136221,29.608008,5.762109,23.793750
6.579394,-0.644790,-0.266243,0.107035,3.026804,1.379060,-0.785298,10.266337,0.010642,-0.073431,0.169212,29.608008,5.762109,23.793750
6.680955,-0.065066,-0.255616,0.119362,3.055505,1.149217,-0.933739,10.074801,-0.001064,0.017028,0.051083,32.235937,6.285937,23.962500
6.782633,-0.528014,-0.247321,0.094896,3.050668,1.130063,-0.785298,10.117896,0.037248,0.014899,-0.007450,31.535156,5.936719,24.637500
6.884010,-0.576277,-0.305016,0.085421,3.069002,1.029507,-0.588974,10.175357,0.008514,0.025541,0.128771,31.184766,8.032031,23.287500
6.984825,-0.308973,-0.292106,0.089749,3.029166,1.312023,-0.579397,10.002975,0.043633,0.024477,0.039376,30.659180,6.809766,24.806250
7.086921,-0.219682,-0.303405,0.099986,3.072074,0.952892,-0.804452,10.065224,-0.029798,0.006385,0.050019,31.710352,8.206641,25.143750
7.188580,-0.213448,-0.276749,0.099841,3.063568,0.962469,-0.790087,10.184934,0.001064,0.012771,0.027670,33.111914,8.206641,23.456250
7.290546,-0.497210,-0.298279,0.098243,3.056882,1.110910,-0.727837,10.050859,-0.017028,0.017028,0.012771,33.111914,8.206641,23.456250
7.393049,-0.246228,-0.277416,0.085454,3.057826,1.067814,-0.636858,10.299856,0.003193,-0.017028,0.018092,31.359961,7.158984,24.468750
7.494101,-0.296128,-0.270480,0.110414,3.052102,1.082179,-0.876278,10.084377,-0.034055,-0.047890,-0.026606,31.710352,7.158984,24.806250
7.595550,-0.381094,-0.279244,0.098588,3.047287,1.201889,-0.727837,10.007763,-0.045762,-0.083009,-0.021284,31.710352,7.158984,24.806250
7.697022,-0.094971,-0.258688,0.163123,3.004888,1.800440,-1.240196,9.892841,-0.045762,-0.129835,-0.069175,31.710352,5.412891,24.468750
7.799216,-0.220981,-0.258472,0.137203,3.028171,1.479617,-0.952892,10.098743,0.020220,0.036184,-0.060661,31.710352,6.111328,23.118750
7.901284,-0.036780,-0.238923,0.124928,3.028546,1.297657,-0.909797,10.022128,0.053211,0.005321,-0.007450,32.411133,6.111328,23.118750
8.002495,-0.165628,-0.255730,0.139510,3.006235,1.685518,-1.024718,9.821015,0.022349,-0.006385,0.018092,32.411133,6.111328,23.118750
8.103574,-0.282515,-0.229201,0.111976,3.027782,1.383849,-0.905008,10.017340,-0.109615,0.065982,-0.011706,31.885547,5.238281,21.600000
8.205637,-0.518288,-0.203453,0.163161,3.016061,1.527501,-1.355118,10.012551,-0.078753,-0.043633,0.034055,35.214258,5.412891,23.118750
8.307192,-0.080434,-0.207841,0.141969,3.024348,1.383849,-1.154005,9.969456,-0.043633,0.006385,0.001064,32.761523,5.063672,22.781250
8.408265,-0.099380,-0.223547,0.166420,3.016410,1.527501,-1.369483,9.911995,0.018092,0.006385,-0.048954,34.338281,5.936719,23.287500
8.510796,-0.067588,-0.252651,0.131482,3.037830,1.398214,-1.024718,10.117896,0.030863,0.041505,-0.026606,33.812695,6.460547,22.781250
8.612381,-0.456112,-0.232279,0.148030,3.041702,1.331176,-1.211466,10.041282,0.006385,0.008514,-0.006385,33.812695,6.460547,22.106250
8.713974,-0.353454,-0.226669,0.140272,3.048290,1.187524,-1.206678,9.830592,0.011706,-0.040441,0.054275,33.812695,6.460547,22.106250
8.816168,-0.125303,-0.245616,0.157341,3.015098,1.604115,-1.139640,9.964667,-0.036184,0.012771,0.119193,33.812695,6.460547,22.106250
8.917545,-0.285322,-0.203264,0.166332,3.023186,1.422156,-1.403002,9.907206,0.013835,-0.018092,0.021284,34.688672,5.587500,21.937500
9.019118,-0.356009,-0.232577,0.168940,3.046126,1.446098,-1.431733,10.050859,0.092588,0.103230,0.038312,33.462305,6.460547,22.781250
9.120570,-0.214179,-0.219326,0.145356,3.074802,0.981623,-1.302446,10.285490,0.359708,0.376735,0.134092,33.462305,6.460547,22.781250
9.222711,-0.105923,-0.293809,0.107654,3.083786,0.828394,-0.876278,9.983821,0.332038,0.117065,-0.084074,33.287109,8.730469,25.312500
9.323775,-0.267242,-0.279084,0.053412,3.065298,0.938527,-0.335188,9.892841,0.138349,0.206460,-0.002128,32.411133,7.158984,24.806250
9.425282,-0.640010,-0.390620,0.060281,3.064621,0.981623,-0.143652,9.964667,-0.202203,0.185175,0.010642,29.783203,10.127344,24.300000
9.526853,-0.479597,-0.356275,0.054768,3.088898,0.641646,-0.263362,9.955091,-0.748150,0.251157,0.031927,29.608008,9.952734,25.143750
9.629268,-0.158762,-0.336246,0.250936,-3.069533,0.268151,-2.571373,10.141838,-1.582501,-0.428882,-0.026606,35.214258,13.794141,25.818750
9.730603,-0.317520,-0.355843,0.514476,-3.023224,1.450886,-5.406107,8.054094,-2.152926,-0.893948,-0.065982,35.214258,13.794141,25.818750
9.832313,-0.326941,-0.226715,0.628800,-3.105510,1.067814,-5.616797,8.777143,-0.964187,-0.246900,0.322460,55.361719,9.778125,14.512500
9.934441,-0.462718,-0.123968,0.688252,-3.086047,0.100556,-6.315904,7.661445,-1.348372,-0.059597,0.594901,62.369531,7.333594,7.762500
10.035150,-0.218417,-0.169326,0.864234,-3.066948,0.962469,-7.163451,7.048530,-0.527855,-0.026606,0.455488,69.377344,11.873437,1.350000
10.136480,-0.341669,-0.332993,0.897477,-2.900420,-0.196325,-7.963115,5.947197,-0.119193,-0.170276,-0.120257,71.654883,13.095703,-2.868750
10.238071,-0.177002,-0.357296,0.902571,-2.917709,0.814029,-7.852981,6.066907,0.022349,-0.094716,-0.083009,70.778906,10.825781,-4.050000
10.339379,0.090136,-0.350143,0.938491,-2.903967,0.536301,-8.307880,5.817910,0.060661,0.004257,-0.015963,71.479687,11.873437,-5.400000
10.441195,-0.027307,-0.362703,0.920331,-2.903507,0.565032,-8.020576,5.951985,0.058532,0.046826,-0.020220,73.231641,11.873437,-4.387500
10.542877,-0.204703,-0.359897,0.918090,-2.902650,0.541090,-8.149862,6.028600,0.056404,0.013835,-0.018092,73.231641,11.873437,-4.387500
10.644361,-0.447021,-0.255505,0.933482,-3.011673,0.770933,-7.958326,5.803545,0.014899,-0.020220,0.001064,71.654883,9.603516,-5.231250
10.745883,-0.261198,-0.211239,0.929606,-3.047042,0.780510,-7.943961,5.995081,-0.013835,0.037248,0.053211,71.654883,9.603516,-5.231250
10.847858,-0.374553,-0.265429,0.937250,-2.971060,0.411803,-8.063671,5.851429,-0.019156,0.006385,0.022349,72.005273,9.254297,-5.568750
10.949541,-0.365917,-0.302118,0.933979,-2.953457,0.521936,-8.049306,5.683835,0.004257,-0.006385,0.014899,71.654883,10.651172,-4.893750
11.051412,-0.255541,-0.307691,0.916718,-2.968508,0.708684,-7.996634,5.956774,0.003193,-0.007450,-0.002128,71.129297,10.476562,-5.400000
11.152810,-0.465766,-0.325872,0.941153,-2.947273,0.703895,-8.010999,5.793968,0.024477,0.015963,0.035119,72.180469,11.524219,-4.387500
11.254300,-0.133851,-0.301075,0.929396,-2.951995,0.636858,-8.054094,5.928043,0.121322,0.047890,0.023413,73.231641,10.825781,-4.387500
11.355612,-0.316227,-0.340746,0.773607,-2.928422,0.153229,-7.493851,7.077260,1.265363,0.255414,-0.453360,72.005273,11.698828,-4.218750
11.457769,-0.428641,-0.284007,0.621497,-3.024032,0.895431,-6.062119,7.963115,1.511198,0.069175,-0.505507,72.005273,11.698828,-4.218750
11.560243,0.073244,-0.173022,0.469156,-3.115273,0.497994,-5.142745,9.351752,1.636777,0.291597,-0.128771,55.712109,9.428906,16.537500
11.661526,-0.566714,-0.209779,0.255892,3.110200,0.943315,-2.844312,10.433931,2.192302,0.344809,-0.183047,44.324414,9.254297,20.418750
11.762957,-0.382303,-0.298804,-0.037993,-3.127932,-0.258574,0.660800,9.801862,1.849622,0.424625,-0.453360,30.133594,10.825781,25.650000
11.864292,-0.102444,-0.492727,-0.210910,3.110435,-0.134075,2.111686,9.667786,1.308996,-0.335231,-0.597030,17.694727,11.349609,28.518750
11.966253,-0.298269,-0.692027,-0.271944,3.045858,-0.071826,4.151546,9.318233,1.482464,0.177725,-0.598094,8.234180,10.651172,25.481250
12.067441,-0.363033,-0.927811,-0.296270,2.954325,-0.976834,5.712565,8.303091,1.336666,0.159634,-0.798168,-4.029492,13.095703,20.081250
12.168844,0.108711,-1.169270,-0.241899,2.875877,-0.608127,6.665457,7.924807,0.748150,0.144734,-0.475708,-13.840430,17.286328,16.368750
12.271043,-0.243880,-1.396425,-0.176597,2.789106,-1.034295,6.900089,7.240066,0.411855,0.004257,-0.396956,-13.840430,17.286328,16.368750
12.372160,-0.051323,-1.589001,-0.099598,2.704571,-1.944092,7.455544,6.406884,0.138349,-0.010642,-0.017028,-21.373828,19.556250,11.812500
12.473629,-0.352638,-1.754743,-0.010415,2.628483,-1.695095,6.947973,6.957550,-0.037248,-0.061725,0.025541,-22.425000,19.905469,11.137500
12.576050,0.216459,-1.907456,0.098757,2.574862,-1.359907,7.125144,7.187393,-0.015963,-0.010642,0.034055,-21.373828,18.857812,12.487500
12.677552,-0.027405,-2.053302,0.218725,2.534668,-1.474828,6.962338,7.010222,0.008514,-0.040441,0.025541,-19.797070,19.032422,12.318750
12.778469,0.244770,-2.190313,0.347222,2.501953,-1.541866,7.187393,7.369353,0.003193,-0.011706,-0.001064,-20.848242,20.778516,12.318750
12.880292,-0.068830,-2.316008,0.474607,2.511173,-1.225831,6.718130,7.206547,-0.040441,-0.017028,0.083009,-19.972266,18.857812,12.150000
12.981587,-0.368645,-2.327217,0.480639,2.524595,-1.211466,6.689399,7.110779,-0.077688,-0.008514,0.067046,-20.147461,19.730859,12.993750
13.083484,-0.019141,-2.301701,0.505738,2.531457,-0.890643,6.689399,6.981492,-1.011013,-0.051083,0.228808,-20.147461,19.730859,12.993750
13.184596,-0.222073,-2.349077,0.415038,2.666021,-0.105345,4.046201,8.757990,-1.998613,0.270313,0.508699,-20.147461,19.730859,12.993750
13.284886,0.198005,-2.370125,0.145487,2.774777,-1.776498,2.509123,8.762778,-1.532483,0.734315,0.653434,-11.387695,19.381641,18.731250
13.386371,0.230501,-2.326648,-0.082548,2.825784,-2.585738,0.770933,8.920795,-1.502685,-0.216038,0.341616,-1.751953,19.905469,26.325000
13.488325,0.023078,-2.180253,-0.103314,2.918344,-0.593762,-1.130063,9.390059,-1.598465,0.109615,0.922682,10.336523,22.175391,29.868750
13.589838,-0.315228,-2.015412,-0.125197,2.931693,-1.551443,-0.909797,10.405200,-0.490607,0.199010,0.667269,24.702539,21.127734,35.943750
13.691947,-0.035939,-1.907557,-0.063223,2.916431,-2.188300,-1.522712,10.031705,0.160698,-0.008514,0.213909,33.462305,22.873828,39.318750
13.794588,-0.254809,-1.828471,-0.010093,2.854329,-1.671153,-0.775721,9.931148,0.062789,0.103230,0.086202,33.462305,20.778516,41.006250
13.896917,-0.204262,-1.738699,-0.035626,2.821816,-1.939303,-0.531513,9.854534,0.065982,0.079817,0.283084,33.462305,20.778516,41.006250
13.997789,-0.218515,-1.638486,-0.066530,2.816538,-2.341529,0.057461,9.730036,-0.060661,-0.120257,0.004257,31.885547,21.302344,41.512500
14.100451,-0.175940,-1.571768,-0.029088,2.864632,-0.737414,-0.014365,10.180145,0.209652,-0.275634,0.064918,31.535156,20.603906,42.187500
14.201246,0.024143,-1.477143,-0.054802,2.895011,-1.546654,-0.512359,10.261548,0.060661,0.030863,0.114936,32.761523,18.333984,45.393750
14.303084,-0.115143,-1.378226,-0.057338,2.924159,-1.101333,-0.775721,9.964667,0.109615,-0.021284,0.023413,33.812695,19.730859,45.056250
14.405800,-0.055829,-1.280023,-0.087115,2.937612,-1.771709,-0.181959,10.022128,0.027670,0.055340,0.068110,31.885547,20.254687,43.875000
14.507149,-0.292305,-1.168359,-0.093913,2.985337,-1.651999,-0.469264,10.184934,-0.026606,0.000000,0.032991,32.761523,19.032422,44.718750
14.609718,-0.102858,-1.049945,-0.087636,3.026969,-1.359907,-0.502782,9.955091,-0.010642,0.043633,0.018092,32.761523,19.032422,44.718750
14.712136,-0.098355,-0.929891,-0.094136,3.080473,-1.719037,-0.325611,10.180145,0.038312,0.027670,0.008514,31.359961,20.778516,45.056250
14.813772,-0.248938,-0.797666,-0.087795,-3.136578,-1.738190,-0.387861,10.060435,0.011706,0.008514,0.037248,31.885547,20.254687,44.550000
14.915239,0.105499,-0.651194,-0.066870,-3.080943,-1.704672,-0.478840,9.969456,0.040441,-0.009578,0.035119,31.885547,20.254687,44.550000
15.016814,-0.134997,-0.492795,-0.050349,-3.030694,-1.714248,-0.330400,10.022128,0.029798,0.047890,0.018092,32.411133,19.730859,44.718750
15.118365,-0.082617,-0.382492,-0.017511,-2.959712,-1.786074,-0.469264,10.036493,-0.003193,-0.018092,0.019156,31.535156,20.953125,44.550000
15.219872,0.174442,-0.383734,-0.038804,-2.969086,-1.613692,-0.268151,10.065224,0.029798,0.022349,-0.001064,31.885547,20.953125,45.225000
15.321672,-0.211942,-0.343786,-0.018017,-2.971185,-1.766921,-0.450110,10.117896,0.012771,0.008514,0.008514,33.462305,20.778516,45.731250
15.423169,-0.237219,-0.392169,-0.026082,-2.971027,-1.733402,-0.416591,10.213664,0.008514,0.011706,0.002128,31.885547,22.000781,44.887500
15.525165,-0.037001,-0.357475,-0.015604,-2.960051,-1.699883,-0.387861,9.888053,0.018092,-0.020220,0.006385,32.235937,20.603906,44.887500
15.627238,-0.251713,-0.379733,-0.031163,-2.954666,-1.795651,-0.383072,9.907206,0.003193,-0.004257,0.021284,31.535156,21.302344,43.875000
15.729000,-0.135788,-0.358535,-0.024511,-2.951952,-1.771709,-0.407014,9.691728,0.021284,0.011706,0.019156,32.411133,20.778516,45.393750
15.831463,-0.299192,-0.370177,-0.016096,-2.955775,-1.661576,-0.464475,9.969456,0.019156,-0.011706,0.013835,31.885547,20.953125,45.562500
15.932719,-0.019097,-0.429672,-0.041255,-2.967846,-1.719037,-0.397437,10.060435,0.025541,0.028734,0.014899,31.885547,23.397656,45.225000
16.034582,0.097138,-0.402384,-0.033883,-2.980793,-1.656788,-0.344765,9.825804,0.015963,0.003193,0.014899,32.761523,22.873828,45.393750
16.136342,0.014003,-0.380021,-0.019450,-2.963330,-1.786074,-0.512359,10.103531,0.013835,0.004257,0.021284,33.111914,21.127734,44.718750
16.238309,-0.086011,-0.382522,-0.033388,-2.950170,-1.833958,-0.378284,9.993398,0.007450,0.013835,0.018092,31.359961,21.826172,45.056250
16.339179,-0.004016,-0.377878,-0.031993,-2.990724,-1.666364,-0.344765,9.979033,0.005321,0.013835,0.026606,32.411133,21.476953,46.406250
16.441284,-0.247685,-0.368175,-0.034372,-2.952949,-1.781286,-0.320823,9.955091,0.007450,0.019156,0.019156,32.235937,22.000781,44.887500
16.542511,-0.290154,-0.387217,-0.002032,-2.972333,-1.723825,-0.617704,10.007763,-0.004257,0.001064,0.019156,32.235937,22.000781,44.887500
16.643697,-0.309461,-0.376693,-0.033939,-2.956796,-1.810016,-0.344765,9.974244,0.020220,0.019156,0.012771,31.359961,21.127734,44.718750
16.746027,-0.312351,-0.362011,-0.022647,-2.955324,-1.833958,-0.493206,9.993398,-0.001064,0.015963,0.023413,31.535156,20.603906,44.887500
16.848105,0.091169,-0.370861,-0.013741,-2.956258,-1.685518,-0.469264,9.821015,0.005321,0.011706,0.008514,32.586328,21.302344,44.550000
16.948364,0.123038,-0.368416,-0.022315,-2.956935,-1.747767,-0.440533,9.931148,0.013835,0.000000,0.010642,32.060742,21.127734,45.056250
17.050136,-0.117874,-0.374348,-0.039805,-2.967383,-1.848324,-0.368707,10.031705,0.014899,0.012771,0.007450,30.483984,21.302344,45.562500
17.152121,0.190236,-0.361905,-0.012969,-2.966611,-1.833958,-0.545878,9.969456,0.002128,-0.019156,0.025541,32.411133,21.826172,46.406250
17.253460,-0.032320,-0.422143,-0.026611,-2.968619,-1.714248,-0.483629,9.883264,0.026606,0.030863,0.008514,32.060742,22.873828,44.718750
17.354931,-0.250664,-0.361348,-0.026388,-2.971109,-1.656788,-0.316035,9.873688,0.008514,-0.011706,-0.007450,33.812695,21.476953,44.381250
17.457036,0.020337,-0.416562,-0.018347,-2.977861,-1.642422,-0.440533,10.031705,-0.172404,-0.100037,-0.022349,31.710352,22.873828,44.381250
17.559322,-0.065819,-0.382955,0.014990,-2.956248,-1.589750,-0.833182,9.969456,-0.109615,0.006385,-0.006385,32.936719,21.651562,45.562500
17.661454,0.133691,-0.389438,-0.007715,-3.003297,-1.264138,-0.359130,10.328586,-0.250093,-0.112808,-0.004257,32.936719,21.651562,45.562500
17.762988,0.114811,-0.444802,0.023026,-3.056773,-0.890643,-0.790087,10.975020,-0.815196,0.224551,0.223487,36.791016,20.603906,42.187500
17.865179,-0.130500,-0.395093,0.147699,-2.942414,-1.824382,-2.044648,9.816227,-0.359708,0.427818,0.037248,42.922852,23.223047,35.943750
17.967358,-0.011900,-0.371937,0.223157,-2.848803,-2.671929,-2.480393,8.667010,-0.227744,-0.287341,-0.205395,43.974023,21.127734,32.231250
18.068355,0.318819,-0.316842,0.218035,-2.875846,-1.144428,-2.882619,9.399636,-0.130900,-0.490607,-0.329910,42.222070,18.333984,29.868750
18.169593,0.050541,-0.307596,0.159964,-2.959812,0.306458,-2.073379,11.003751,1.004628,0.169212,-0.195817,38.192578,17.810156,30.037500
18.271695,0.074187,-0.354855,0.040580,-3.001744,-1.244985,-1.063026,10.127473,1.416482,0.107487,-0.112808,28.556836,19.032422,31.556250
18.373417,0.016683,-0.464553,-0.195631,-3.030927,-1.862689,1.130063,10.093954,1.459051,0.219230,0.152184,28.556836,19.032422,31.556250
18.474996,-0.352958,-0.630607,-0.310288,-3.092879,-1.264138,3.107674,9.715670,1.904961,0.339488,0.124514,16.468359,21.302344,31.725000
18.577225,-0.138811,-0.794779,-0.379931,-3.100831,-2.082955,4.501099,8.240842,1.522905,0.555525,-0.017028,4.379883,22.175391,29.868750
18.678930,0.050679,-1.032960,-0.406151,3.095724,-2.212242,6.100426,7.110779,1.055710,0.045762,-0.351194,-4.204688,27.588281,28.350000
18.780976,0.237343,-1.276853,-0.369162,2.973496,-2.705448,6.698976,6.454768,0.342680,0.028734,-0.122386,-11.037305,27.064453,24.468750
18.882407,0.378899,-1.479928,-0.303383,2.893640,-3.055001,6.612785,6.842628,-0.010642,-0.031927,-0.011706,-11.037305,27.064453,24.468750
18.983712,0.606774,-1.663199,-0.219534,2.821071,-2.738967,6.512229,7.287950,0.014899,-0.018092,-0.026606,-15.767578,28.635937,20.587500
19.085248,-0.049770,-1.831215,-0.122089,2.742519,-2.398990,6.440402,7.359776,0.022349,0.001064,-0.001064,-15.066797,28.286719,20.925000
19.186515,0.068257,-1.982355,-0.012015,2.665115,-2.442086,6.454768,7.321469,-0.011706,-0.002128,-0.024477,-14.366016,27.239062,21.937500
19.288082,0.384031,-2.116281,0.102862,2.581737,-2.633622,6.138733,7.220912,-0.015963,-0.057468,0.029798,-13.314844,27.937500,22.612500
19.389061,0.037462,-2.236817,0.235727,2.511666,-2.403778,6.359000,7.455544,-0.011706,-0.062789,-0.009578,-13.314844,27.937500,22.612500
19.490435,0.287987,-2.329329,0.339305,2.454822,-2.513912,6.445191,7.393295,-0.034055,-0.038312,-0.005321,-14.190820,27.413672,21.768750
19.592370,0.295302,-2.363468,0.346917,2.452310,-2.724601,6.540959,7.407660,-0.095780,-0.137285,0.021284,-14.716406,26.889844,21.937500
19.694143,0.092182,-2.310046,0.339279,2.465593,-2.346318,6.133945,7.431602,-0.359708,-0.346937,0.012771,-13.139648,27.064453,21.093750
19.795637,0.404594,-2.345858,0.319107,2.564127,-1.953669,5.798756,8.020576,-0.050019,0.065982,0.000000,-12.438867,24.619922,22.781250
19.896631,0.361635,-2.340761,0.314390,2.552406,-2.183512,5.937620,7.958326,-0.091523,-0.093652,0.009578,-10.511719,24.794531,23.287500
19.998263,0.120632,-2.367885,0.301014,2.537496,-2.336741,5.736507,7.790732,-0.034055,0.018092,0.030863,-11.212500,24.096094,21.937500
20.099697,0.110109,-2.352180,0.317942,2.547574,-2.159570,5.908890,8.044518,-0.114936,-0.064918,0.011706,-11.212500,24.096094,21.937500
20.201199,-0.081804,-2.350167,0.309431,2.551172,-2.188300,5.846640,8.020576,-0.207524,-0.127707,0.034055,-10.686914,24.619922,23.456250
20.303322,0.182815,-2.310414,0.301604,2.622431,-1.422156,5.602432,8.566454,-0.571488,-0.192625,-0.039376,-8.584570,23.223047,24.468750
20.404879,0.168852,-2.313970,0.215785,2.679022,-1.493982,5.027823,8.700529,-0.833288,-0.263928,0.093652,-3.679102,20.778516,24.131250
20.506625,0.260641,-2.223186,0.100778,2.791674,-0.804452,3.131616,9.605537,-0.938646,-0.275634,0.058532,2.627930,19.032422,26.831250
20.608829,0.117485,-2.111829,0.010943,2.847968,-0.641646,1.810016,9.782708,-1.285583,-0.171340,0.010642,2.627930,19.032422,26.831250
20.710385,-0.072309,-2.011609,-0.051094,2.911112,-0.483629,0.268151,10.074801,-1.861328,-0.359708,0.119193,10.511719,19.556250,29.362500
20.812778,-0.173899,-1.899129,-0.049307,2.996300,-0.991199,-1.283292,9.361328,-1.246207,-0.015963,0.325653,20.848242,17.984766,30.206250
20.913653,0.308945,-1.781353,-0.027412,3.077842,-1.115698,-2.849100,10.079589,-1.033362,-0.237322,0.279891,20.848242,17.984766,30.206250
21.015285,-0.073310,-1.669725,0.012755,-3.133330,-0.459687,-3.950433,9.763554,-0.565103,-0.156441,0.222423,41.871680,16.937109,25.818750
21.116987,0.175226,-1.565183,0.051810,-3.091440,-0.555455,-4.161122,9.188946,-0.334166,-0.127707,0.108551,45.725977,15.540234,24.806250
21.218713,0.031856,-1.461403,0.083575,-3.070529,-0.454898,-4.438850,8.887277,-0.186239,-0.036184,0.110679,46.426758,14.143359,22.443750
21.320482,0.069753,-1.353215,0.109746,-3.056308,-0.392649,-4.534618,9.155427,-0.080881,-0.045762,0.062789,50.281055,15.889453,22.781250
21.421343,0.114110,-1.243894,0.135226,-3.045649,-0.416591,-4.525041,9.021352,-0.038312,0.018092,0.050019,50.105859,15.365625,22.275000
21.523210,0.237552,-1.127660,0.159272,-3.035866,-0.507571,-4.448427,8.959103,-0.030863,-0.007450,0.011706,50.105859,15.365625,22.275000
21.624512,0.024888,-1.004113,0.190289,-3.024019,-0.201113,-4.659116,8.920795,0.017028,-0.015963,0.006385,50.281055,16.587891,23.793750
21.725880,-0.096388,-0.871933,0.225785,-3.013637,-0.201113,-4.558560,8.882488,0.030863,0.020220,-0.003193,51.157031,14.317969,22.950000
21.827242,0.259663,-0.732433,0.259481,-2.999387,-0.392649,-4.869806,9.064447,0.239450,0.157505,0.062789,50.456250,15.016406,22.275000
21.928718,0.106191,-0.588594,0.250894,-3.034657,-0.134075,-4.295198,9.562441,1.000371,-0.225616,-0.191560,48.879492,15.191016,23.456250
22.031525,0.290206,-0.419652,0.224842,-3.099975,-0.062249,-2.638410,9.361328,0.600222,-0.031927,-0.110679,42.397266,14.317969,24.975000
22.132313,0.131169,-0.293890,0.196654,-3.074684,0.028730,-2.197877,9.969456,0.592773,-0.075560,-0.080881,42.397266,14.317969,24.975000
22.234265,-0.013588,-0.330190,0.114414,-3.092857,-0.023942,-1.359907,10.070012,0.644920,0.017028,-0.113872,33.462305,12.397266,26.156250
22.336159,0.140299,-0.353641,0.074972,-3.116799,-0.110133,-0.857124,9.959879,0.078753,0.040441,0.001064,31.710352,12.048047,27.506250
22.437406,-0.005052,-0.349823,0.103660,-3.114545,0.004788,-1.091756,10.026917,-0.061725,0.007450,0.041505,30.834375,12.222656,27.000000
22.539463,0.043900,-0.365633,0.098393,-3.099633,-0.043096,-1.096544,10.189722,-0.069175,0.068110,0.024477,31.885547,12.921094,27.675000
22.640754,-0.088664,-0.335306,0.118953,-3.121961,0.086191,-1.206678,10.117896,0.052147,0.017028,0.005321,31.184766,11.873437,26.662500
22.742933,0.307519,-0.345391,0.114190,-3.099520,0.043096,-1.235408,10.122685,0.009578,-0.015963,0.003193,31.184766,11.873437,26.662500
22.844330,-0.048492,-0.352564,0.110638,-3.101280,-0.028730,-1.221043,10.228029,0.006385,0.000000,-0.005321,32.235937,13.270312,27.337500
22.946184,0.056772,-0.344103,0.100278,-3.125923,0.124498,-1.048660,10.194511,0.028734,0.029798,0.011706,31.359961,11.698828,26.493750
23.048285,0.235454,-0.328505,0.100890,-3.103126,-0.119710,-1.106121,10.247183,0.011706,0.036184,0.022349,31.359961,11.698828,26.493750
23.150812,-0.077511,-0.363917,0.086335,-3.079889,-0.124498,-1.034295,9.983821,0.020220,0.059597,0.044697,29.432813,12.222656,27.000000
23.251868,0.049797,-0.343417,0.094898,-3.079829,-0.239420,-1.192312,10.165780,0.020220,-0.003193,0.012771,31.359961,12.746484,28.518750
23.353533,-0.009798,-0.390831,0.111670,-3.106992,-0.014365,-1.096544,10.137050,0.005321,-0.014899,0.007450,30.133594,13.619531,27.337500
23.454604,0.267200,-0.379206,0.103169,-3.061147,-0.301669,-1.201889,10.189722,-0.059597,0.044697,0.029798,30.133594,13.619531,27.337500
23.556546,0.143306,-0.308757,0.167894,-2.990316,-1.187524,-2.015918,9.509769,-0.169212,0.418240,0.250093,31.710352,12.746484,28.181250
23.657619,-0.204693,-0.284883,0.102687,-2.913723,-2.025495,-2.595315,8.968679,-0.180918,0.039376,0.222423,34.513477,15.889453,29.193750
23.759207,0.107452,-0.324291,0.165293,-2.937201,-1.197101,-1.498770,9.303868,-0.389506,0.556589,0.481029,34.863867,19.032422,31.556250
23.861139,-0.189864,-0.319244,0.165153,-2.989483,-0.383072,-0.794875,11.616666,0.751342,-0.934389,0.757728,38.542969,22.350000,35.100000
23.962656,0.072848,-0.339733,0.163026,-3.024064,-0.124498,-2.638410,10.702081,0.107487,0.653434,0.856701,39.068555,20.080078,42.356250
24.064365,-0.110857,-0.333885,0.045202,-2.997005,-1.201889,-1.053449,9.466673,0.389506,-0.273506,0.639599,39.068555,20.080078,42.356250
24.165269,0.001603,-0.280338,0.001067,-2.968585,-1.719037,-0.014365,8.987833,0.254350,-0.162826,0.384185,42.222070,23.223047,58.893750
24.266867,-0.194674,-0.238324,0.001172,-2.998350,-1.431733,-0.349553,9.888053,0.154313,-0.363965,-0.036184,43.273242,18.683203,60.581250
24.369065,-0.006627,-0.183881,0.016459,-3.098088,-0.052672,-0.311246,9.107543,-0.390570,-0.048954,0.070239,43.623633,12.048047,64.631250
24.470919,0.019063,-0.165066,0.027031,-3.084545,-0.943315,-1.795651,10.160992,0.048954,-0.334166,-0.251157,46.601953,8.032031,65.475000
24.572682,-0.226649,-0.166173,0.028067,-3.121913,-0.866701,1.637634,10.366893,0.022349,0.117065,-0.205395,46.952344,8.730469,67.500000
24.673524,0.101472,-0.131310,0.047103,-3.064998,-2.111686,-0.392649,5.904101,-0.071303,-1.194060,-0.048954,46.777148,1.571484,63.281250
24.775527,-0.023038,-0.059191,0.064583,3.070503,0.560243,-0.670376,10.390835,0.037248,-0.335231,0.007450,47.302734,-5.238281,62.100000
24.876928,-0.063368,0.035932,0.054768,3.080593,0.617704,-0.469264,10.213664,0.017028,-0.045762,0.014899,47.302734,-5.238281,62.100000
24.978047,0.068846,0.064086,0.052462,3.094951,0.454898,-0.541090,10.141838,0.015963,0.000000,0.007450,46.777148,-6.111328,60.243750
25.079525,-0.431369,0.057679,0.052036,3.088579,0.627281,-0.555455,9.983821,0.011706,-0.009578,0.011706,45.725977,-6.111328,61.256250
25.180924,0.147749,0.072533,0.054456,3.093548,0.550666,-0.603339,10.108319,0.014899,-0.003193,0.011706,47.127539,-7.158984,59.906250
25.282234,-0.061887,0.069202,0.047834,3.087380,0.584185,-0.555455,10.218453,0.013835,0.002128,0.009578,47.127539,-7.158984,59.906250
25.384216,-0.168984,0.062916,0.056268,3.091207,0.483629,-0.608127,10.084377,0.018092,0.006385,0.012771,45.725977,-6.460547,61.931250
25.485814,-0.303033,0.070149,0.055582,3.093104,0.579397,-0.612916,10.204087,0.011706,0.005321,0.010642,46.426758,-6.809766,61.931250
25.586665,-0.071737,0.070827,0.059211,3.089145,0.536301,-0.660800,10.223241,0.017028,0.000000,0.010642,46.952344,-6.984375,61.762500
25.688696,0.194682,0.057210,0.059696,3.077556,0.627281,-0.646434,10.199299,0.013835,0.006385,0.019156,47.127539,-5.762109,61.593750
25.790845,-0.054011,0.050764,0.057655,3.072952,0.627281,-0.622492,10.184934,0.012771,0.006385,0.011706,47.127539,-5.762109,61.593750
25.891828,-0.260444,0.055105,0.058053,3.074754,0.574608,-0.622492,10.137050,0.012771,0.002128,0.012771,45.375586,-5.762109,61.593750
25.993822,-0.178923,0.081898,0.061150,3.085035,0.545878,-0.675165,10.223241,0.017028,0.003193,0.014899,47.477930,-8.206641,61.931250
