Time, Altitude, Yaw, Pitch, Roll, Ax, Ay, Az, Pitch_rate, Roll_rate,Yaw_rate, Magx, Magy, Magz
0.761690,0.398899,0.000439,0.063535,-0.020695,0.210690,0.632069,9.907206,-0.014899,0.010642,-0.001064,-8.964844,14.285742,45.029297
0.864139,0.087942,0.000159,0.052254,-0.016072,0.162806,0.536301,9.969456,-0.015963,0.011706,-0.004257,-7.207031,16.049414,43.330078
0.964147,0.072753,0.001033,0.057581,-0.030736,0.215478,0.608127,9.964667,-0.015963,0.010642,0.001064,-8.789062,15.873047,44.859375
1.065150,0.091666,-0.000453,0.067638,-0.012066,0.162806,0.641646,9.950302,-0.017028,0.011706,-0.002128,-8.261719,16.402148,43.669922
1.170233,-0.313563,-0.000811,0.060627,-0.008359,0.196325,0.627281,9.945514,-0.017028,0.013835,-0.004257,-7.207031,15.696680,46.048828
1.270160,0.041825,-0.000531,0.056445,-0.018249,0.191536,0.574608,9.964667,-0.017028,0.013835,-0.001064,-7.207031,15.696680,46.048828
1.371826,-0.138077,-0.001103,0.062540,-0.016786,0.181959,0.646434,9.955091,-0.014899,0.011706,0.002128,-9.492188,14.814844,44.859375
1.473290,-0.175978,-0.000889,0.056717,-0.020892,0.186748,0.584185,9.878476,-0.015963,0.008514,0.001064,-8.437500,14.814844,44.179688
1.576610,-0.215896,-0.000557,0.051401,-0.027928,0.244209,0.617704,9.993398,-0.017028,0.011706,-0.003193,-8.085938,16.225781,44.179688
1.679878,-0.327513,-0.000017,0.067949,-0.037860,0.292093,0.665588,10.031705,-0.017028,0.013835,-0.001064,-8.085938,16.225781,44.179688
1.782388,-0.557634,-0.002384,0.055324,-0.000683,0.172383,0.584185,9.993398,-0.017028,0.010642,-0.001064,-7.910156,15.343945,45.029297
1.883925,-0.265580,-0.002103,0.068356,-0.008744,0.177171,0.641646,10.012551,-0.020220,0.009578,-0.001064,-7.734375,16.225781,43.500000
1.985617,-0.292489,-0.001629,0.069026,-0.017177,0.215478,0.608127,9.921572,-0.015963,0.011706,-0.002128,-7.558594,15.696680,44.009766
2.086709,-0.149720,-0.001840,0.070088,-0.016766,0.225055,0.622492,9.916783,-0.015963,0.009578,-0.004257,-9.140625,14.814844,45.539062
2.188572,-0.256436,-0.001873,0.059601,-0.020025,0.196325,0.603339,9.897630,-0.013835,0.009578,-0.001064,-9.667969,14.991211,44.689453
2.291129,-0.555500,-0.001602,0.060003,-0.027491,0.181959,0.660800,10.026917,-0.015963,0.012771,-0.001064,-9.667969,14.991211,44.689453
2.392718,-0.025510,-0.001377,0.061323,-0.032306,0.225055,0.641646,9.931148,-0.015963,0.011706,0.000000,-9.843750,14.462109,43.500000
2.494592,-0.525230,-0.002316,0.063635,-0.025781,0.191536,0.656011,9.988609,-0.014899,0.009578,0.002128,-9.843750,14.462109,43.500000
2.595777,-0.240911,-0.002564,0.059316,-0.021653,0.234632,0.593762,9.902418,-0.017028,0.008514,-0.001064,-9.843750,14.462109,43.500000
2.698427,-0.110046,-0.001976,0.058524,-0.027895,0.201113,0.651223,9.878476,-0.019156,0.009578,-0.001064,-8.789062,14.814844,45.199219
2.800497,-0.195636,-0.002750,0.054753,-0.018193,0.205901,0.593762,10.041282,-0.015963,0.010642,-0.003193,-7.734375,16.578516,45.539062
2.901360,-0.528018,-0.003398,0.063631,-0.012069,0.162806,0.646434,9.979033,-0.012771,0.011706,-0.003193,-7.734375,16.578516,45.539062
3.003285,-0.362444,-0.003303,0.059878,-0.017738,0.138864,0.593762,9.955091,-0.018092,0.009578,-0.001064,-6.152344,15.343945,44.009766
3.104979,-0.363486,-0.003722,0.058523,-0.008366,0.148441,0.579397,10.050859,-0.014899,0.010642,-0.002128,-6.152344,15.343945,44.009766
3.207035,-0.427948,-0.003300,0.051773,-0.016098,0.167594,0.545878,9.911995,-0.012771,0.010642,-0.003193,-8.261719,16.049414,44.349609
3.308111,-0.154786,-0.003609,0.062650,-0.014896,0.186748,0.569820,9.921572,-0.018092,0.007450,-0.003193,-8.261719,16.049414,44.349609
3.409700,-0.280357,-0.003039,0.062701,-0.024332,0.287304,0.617704,9.888053,-0.014899,0.009578,-0.004257,-8.789062,13.756641,43.500000
3.512688,-0.259177,-0.003514,0.054785,-0.017969,0.148441,0.526724,9.945514,-0.012771,0.011706,-0.002128,-8.613281,16.049414,45.029297
3.613747,-0.370575,-0.002664,0.065882,-0.032019,0.205901,0.584185,9.888053,-0.013835,0.010642,-0.002128,-8.261719,16.754883,45.029297
3.714731,-0.559641,-0.002522,0.071674,-0.037495,0.287304,0.699107,9.926360,-0.015963,0.007450,-0.001064,-7.382812,15.520312,45.199219
3.816611,-0.330089,-0.003202,0.075330,-0.030199,0.258574,0.708684,9.911995,-0.013835,0.012771,0.001064,-7.910156,14.638477,45.708984
3.918528,-0.303337,-0.004753,0.058767,-0.012031,0.205901,0.646434,9.964667,-0.018092,0.008514,0.000000,-8.437500,15.520312,44.859375
4.019744,-0.317277,-0.004281,0.046336,-0.018912,0.277727,0.588974,9.868899,-0.014899,0.012771,-0.002128,-9.492188,15.873047,45.199219
4.121614,-0.521661,-0.004132,0.066461,-0.021417,0.205901,0.641646,9.931148,-0.018092,0.008514,-0.002128,-9.140625,15.873047,44.859375
4.223162,-0.422140,-0.004621,0.064725,-0.015691,0.205901,0.598550,10.002975,-0.017028,0.013835,-0.001064,-9.316406,16.402148,44.689453
4.324459,-0.384270,-0.004312,0.062972,-0.020369,0.263362,0.636858,10.065224,-0.017028,0.011706,-0.001064,-9.316406,16.402148,44.689453
4.427366,-0.042412,-0.004173,0.048039,-0.022843,0.248997,0.502782,9.902418,-0.015963,0.010642,0.000000,-7.558594,15.696680,45.029297
4.528985,-0.083766,-0.005136,0.052562,-0.009166,0.181959,0.550666,9.969456,-0.017028,0.008514,-0.002128,-7.558594,15.696680,45.029297
4.630415,0.207348,-0.003949,0.057682,-0.031907,0.177171,0.656011,9.993398,-0.017028,0.010642,-0.004257,-7.382812,16.225781,44.179688
4.732146,-0.226065,-0.005986,0.062963,-0.003839,0.220267,0.646434,9.964667,-0.018092,0.011706,-0.002128,-7.382812,16.225781,44.179688
4.833468,-0.414973,-0.004317,0.060314,-0.030957,0.311246,0.608127,9.993398,-0.018092,0.010642,0.000000,-8.085938,15.167578,45.199219
4.934615,-0.410523,-0.005551,0.064151,-0.011256,0.196325,0.608127,9.955091,-0.015963,0.014899,-0.002128,-7.910156,14.638477,43.330078
5.036133,-0.306615,-0.005032,0.056994,-0.024284,0.205901,0.641646,9.911995,-0.018092,0.010642,0.003193,-9.140625,15.520312,44.179688
5.138030,-0.296242,-0.004538,0.060551,-0.031787,0.277727,0.627281,9.950302,-0.017028,0.011706,-0.003193,-9.140625,15.520312,44.179688
5.239679,-0.566996,-0.006239,0.058672,-0.006361,0.172383,0.651223,9.868899,-0.018092,0.011706,0.000000,-8.964844,16.402148,45.369141
5.340706,-0.644486,-0.004549,0.074094,-0.033347,0.177171,0.656011,9.988609,-0.013835,0.012771,-0.002128,-7.734375,14.814844,44.859375
5.442084,-0.283947,-0.005503,0.045183,-0.019031,0.215478,0.574608,9.974244,-0.012771,0.012771,0.000000,-8.437500,14.109375,44.519531
5.543693,-0.400218,-0.005495,0.058214,-0.022548,0.215478,0.608127,9.907206,-0.015963,0.009578,-0.001064,-8.437500,14.109375,44.519531
5.644784,-0.326359,-0.005837,0.063268,-0.017891,0.181959,0.641646,9.840169,-0.015963,0.011706,-0.004257,-7.382812,15.873047,45.199219
5.745866,-0.442934,-0.006266,0.067737,-0.013308,0.138864,0.675165,9.883264,-0.014899,0.009578,-0.004257,-8.964844,15.696680,44.349609
5.847690,-0.467375,-0.006627,0.062273,-0.011958,0.129287,0.608127,9.859322,-0.014899,0.011706,-0.002128,-7.910156,15.696680,44.689453
5.949376,-0.486734,-0.005263,0.058315,-0.038535,0.201113,0.584185,9.969456,-0.015963,0.011706,-0.001064,-7.558594,16.049414,44.689453
6.050654,-0.654944,-0.005621,0.070691,-0.034165,0.258574,0.675165,9.911995,-0.015963,0.014899,-0.004257,-9.492188,14.814844,45.539062
6.153470,-0.081665,-0.006216,0.054510,-0.028798,0.244209,0.579397,9.835380,-0.012771,0.010642,-0.002128,-7.910156,16.049414,44.349609
6.254862,-0.439538,-0.006913,0.045126,-0.019200,0.158017,0.579397,10.055647,-0.013835,0.013835,0.000000,-7.910156,16.049414,44.349609
6.356363,-0.372167,-0.007770,0.071960,-0.010978,0.143652,0.675165,9.959879,-0.013835,0.011706,0.000000,-7.910156,16.049414,44.349609
6.458554,-0.560387,-0.007663,0.075918,-0.012084,0.196325,0.699107,10.002975,-0.012771,0.008514,-0.001064,-9.140625,16.225781,43.839844
6.560695,-0.363648,-0.005457,0.071722,-0.044436,0.344765,0.679953,9.969456,-0.014899,0.011706,0.001064,-9.843750,15.520312,43.839844
6.661550,-0.267146,-0.006756,0.050129,-0.028830,0.201113,0.598550,10.007763,-0.017028,0.009578,-0.003193,-8.964844,16.402148,45.029297
6.763409,-0.494805,-0.007390,0.064924,-0.018824,0.181959,0.641646,9.840169,-0.019156,0.010642,-0.002128,-8.964844,16.754883,45.708984
6.865139,-0.762411,-0.007382,0.065903,-0.021981,0.191536,0.656011,10.012551,-0.013835,0.013835,0.000000,-6.855469,15.343945,44.349609
6.969152,-0.560432,-0.007295,0.056473,-0.024721,0.287304,0.593762,10.103531,-0.018092,0.007450,-0.002128,-8.789062,16.225781,45.878906
7.069069,-0.606052,-0.007534,0.057970,-0.021782,0.205901,0.593762,9.835380,-0.015963,0.011706,0.000000,-8.789062,16.225781,45.878906
7.169493,-0.337079,-0.007647,0.054152,-0.020354,0.177171,0.584185,9.926360,-0.017028,0.009578,0.000000,-8.085938,15.167578,43.839844
7.271627,-0.446731,-0.007752,0.063073,-0.023134,0.215478,0.670376,9.940725,-0.015963,0.010642,-0.001064,-9.140625,15.167578,45.199219
7.374257,-0.287848,-0.007912,0.066454,-0.020548,0.191536,0.641646,10.022128,-0.017028,0.008514,-0.003193,-8.964844,15.696680,45.369141
7.475540,-0.493025,-0.009421,0.070122,-0.004736,0.143652,0.713472,9.864111,-0.019156,0.013835,-0.002128,-8.613281,15.696680,45.708984
7.578009,-0.370955,-0.009358,0.073140,-0.009445,0.119710,0.627281,9.773131,-0.018092,0.010642,-0.004257,-9.316406,16.049414,45.029297
7.678912,-0.700114,-0.008327,0.076044,-0.026380,0.205901,0.632069,9.907206,-0.020220,0.010642,0.000000,-9.316406,16.049414,45.029297
7.782250,-0.464079,-0.007910,0.075412,-0.032973,0.229843,0.665588,9.935937,-0.014899,0.013835,-0.004257,-9.492188,16.225781,43.839844
7.882801,-0.477122,-0.008543,0.053390,-0.023263,0.201113,0.598550,9.940725,-0.015963,0.011706,0.001064,-9.492188,16.225781,43.839844
7.983680,0.014771,-0.009866,0.048971,-0.002140,0.134075,0.612916,9.911995,-0.018092,0.008514,-0.001064,-7.382812,15.873047,45.199219
8.085241,-0.481859,-0.009050,0.072747,-0.021285,0.201113,0.746991,10.007763,-0.017028,0.012771,-0.003193,-8.789062,16.225781,44.519531
8.186987,-0.507377,-0.009346,0.060461,-0.017959,0.172383,0.632069,9.888053,-0.017028,0.012771,-0.001064,-8.437500,16.225781,44.859375
8.288734,-0.216945,-0.009592,0.054176,-0.016708,0.225055,0.641646,9.840169,-0.017028,0.010642,-0.002128,-8.085938,14.462109,43.500000
8.390867,-0.364600,-0.009270,0.074788,-0.027798,0.263362,0.608127,9.945514,-0.019156,0.010642,-0.002128,-8.613281,16.049414,45.708984
8.491154,-0.523992,-0.010092,0.047907,-0.020048,0.196325,0.646434,9.983821,-0.018092,0.008514,-0.002128,-8.613281,16.049414,45.708984
8.592469,-0.316185,-0.008485,0.032351,-0.047263,0.938527,-0.296881,10.208876,0.026606,0.179854,0.006385,-8.613281,16.049414,45.708984
8.694081,-0.042609,-0.009420,0.053855,-0.009436,0.296881,0.569820,9.950302,-0.028734,-0.031927,0.001064,-8.261719,16.402148,44.689453
8.795986,-0.229721,-0.007897,0.056753,-0.041071,0.301669,0.608127,10.022128,-0.039376,-0.071303,0.001064,-8.789062,16.931250,44.519531
8.897999,-0.082990,-0.009626,0.049441,-0.015736,0.162806,0.569820,9.844957,-0.007450,0.036184,-0.002128,-9.316406,15.696680,46.728516
8.999423,-0.325250,-0.010987,0.055766,0.004691,0.028730,0.612916,9.888053,-0.015963,0.017028,-0.002128,-8.437500,15.873047,43.500000
9.101121,-0.171311,-0.011221,0.078908,0.002250,0.071826,0.699107,9.792285,-0.019156,0.013835,-0.003193,-8.964844,15.343945,44.349609
9.202023,-0.499792,-0.011383,0.068729,0.001731,0.076614,0.670376,9.926360,-0.011706,0.014899,-0.003193,-9.843750,16.578516,45.539062
9.304344,-0.497697,-0.012639,0.068141,-0.059819,1.168370,0.598550,10.500968,-0.062789,-0.419304,-0.200074,-8.964844,14.991211,44.349609
9.406330,-0.278961,-0.018385,0.073762,-0.013483,0.114922,0.713472,9.950302,-0.004257,0.093652,-0.009578,-8.964844,14.991211,44.349609
9.507118,-0.348011,-0.017860,0.091540,0.082161,-0.905008,1.125275,9.758766,0.179854,0.574681,-0.103230,-7.382812,15.873047,44.859375
9.608412,-0.391037,-0.033531,0.103777,0.060311,-0.665588,1.072602,9.792285,0.038312,0.151120,-0.227744,-9.843750,20.811328,45.878906
9.709843,-0.129405,-0.048001,0.091937,0.099988,-0.948104,0.885855,9.902418,-0.022349,-0.008514,-0.004257,-11.250000,24.338672,43.839844
9.811411,-0.492468,-0.038873,0.083049,0.047945,-0.842759,1.005565,9.859322,-0.003193,0.185175,-0.027670,-11.250000,20.811328,44.859375
9.912274,-0.182465,-0.039839,0.075822,0.058100,-0.593762,0.713472,9.840169,-0.048954,-0.094716,-0.057468,-11.250000,20.811328,44.859375
10.013019,-0.416054,-0.041038,0.075089,0.022200,-0.301669,0.761356,9.821015,-0.035119,-0.004257,0.006385,-10.019531,19.929492,44.689453
10.114902,-0.225434,-0.043172,0.097176,0.058189,-0.665588,0.976834,9.902418,0.002128,0.148991,0.007450,-10.019531,19.929492,44.689453
10.216796,-0.147568,-0.044783,0.058371,0.059908,-0.588974,0.593762,10.050859,-0.010642,0.000000,-0.055340,-11.601562,20.458594,45.878906
10.318369,-0.401342,-0.043750,0.078358,0.041064,-0.440533,0.746991,9.902418,-0.039376,-0.068110,0.006385,-12.832031,21.693164,46.048828
10.419886,-0.732307,-0.043978,0.071494,0.030530,-0.062249,0.574608,10.060435,0.020220,-0.094716,0.021284,-12.128906,20.634961,45.029297
10.521120,-0.345686,-0.046691,0.154328,0.001701,-0.100556,1.393425,9.519346,0.484222,-0.072367,-0.127707,-11.074219,20.634961,45.029297
10.622713,-0.042118,-0.060142,0.175396,0.027895,-0.205901,1.728614,10.065224,0.386313,-0.095780,-0.114936,-16.523438,18.342187,43.500000
10.724148,-0.349159,-0.075712,0.202780,-0.013617,-0.019154,1.963245,9.715670,0.536369,-0.013835,-0.254350,-21.445312,19.400391,41.121094
10.826360,-0.565625,-0.105572,0.274325,-0.005855,-0.268151,2.724601,9.399636,0.535305,-0.122386,-0.138349,-29.531250,18.694922,36.023438
10.927020,-0.321310,-0.129494,0.362342,-0.017951,-0.287304,3.514688,9.409213,0.476772,-0.039376,-0.227744,-29.531250,18.694922,36.023438
11.028537,-0.334467,-0.145072,0.380576,-0.041399,-0.181959,3.682282,9.232042,0.268185,-0.012771,-0.179854,-34.277344,17.107617,34.494141
11.129495,-0.302111,-0.159987,0.407910,-0.036806,-0.248997,3.830723,9.107543,0.152184,-0.036184,-0.062789,-37.617188,19.047656,31.265625
11.231385,-0.283295,-0.150205,0.409512,-0.068898,-0.114922,4.108450,9.169792,0.046826,-0.002128,-0.010642,-40.957031,18.518555,30.755859
11.332809,-0.613871,-0.158236,0.422719,-0.053327,-0.167594,4.194641,9.064447,-0.007450,-0.021284,-0.027670,-40.957031,18.518555,30.755859
11.435003,-0.457963,-0.159040,0.422633,-0.057090,-0.148441,4.122815,9.059659,0.002128,0.046826,-0.025541,-40.429688,18.694922,30.585938
11.536341,-0.126879,-0.158680,0.436776,-0.059398,-0.124498,4.266467,9.069236,-0.044697,0.006385,-0.026606,-40.429688,18.694922,30.585938
11.637974,-0.121363,-0.158113,0.431698,-0.065005,-0.114922,4.266467,9.102755,0.032991,0.012771,-0.037248,-40.429688,18.694922,30.585938
11.739710,-0.308232,-0.164678,0.436753,-0.054297,-0.186748,4.290409,9.059659,-0.013835,0.024477,-0.035119,-41.308594,19.224023,29.056641
11.841242,-0.614296,-0.164574,0.432174,-0.056639,-0.177171,4.237737,9.093178,-0.027670,0.012771,-0.006385,-41.835938,19.753125,29.566406
11.943209,-0.560613,-0.166152,0.427404,-0.055233,-0.191536,4.170699,9.078813,-0.020220,-0.008514,-0.014899,-42.011719,17.813086,30.416016
12.044222,-0.311190,-0.166942,0.417108,-0.055711,-0.153229,4.098873,9.078813,-0.024477,0.004257,-0.002128,-40.781250,18.694922,30.246094
12.145981,-0.271213,-0.168352,0.402161,-0.043559,-0.167594,3.940856,9.423578,-0.233065,-0.014899,0.101101,-42.011719,19.224023,30.076172
12.247661,-0.368979,-0.155580,0.301181,-0.001092,-0.550666,3.088520,9.715670,-1.118500,0.103230,0.304368,-36.210938,19.047656,31.605469
12.348790,0.051020,-0.105146,0.262175,-0.052972,0.330400,2.853888,9.447520,-0.754535,0.029798,0.303304,-36.210938,19.047656,31.605469
12.449839,-0.439035,-0.080901,0.174493,-0.022255,0.292093,2.772486,10.663774,-0.597030,0.054275,0.127707,-27.246094,17.460352,37.552734
12.551311,-0.285672,-0.067781,0.141263,0.012935,-0.205901,1.422156,9.849746,-0.240515,0.345873,0.126643,-27.246094,17.460352,37.552734
12.653100,-0.204302,-0.058139,0.093277,0.103208,-1.039084,0.991199,10.146627,-0.405469,1.298354,0.079817,-16.875000,20.458594,42.820312
12.754897,-0.145487,-0.058306,0.082539,0.247828,-2.202666,0.574608,8.020576,-0.332038,1.655933,-0.223487,-14.062500,31.393359,43.500000
12.856439,-0.366196,-0.083706,0.117777,0.418512,-4.007894,0.852336,9.121908,-0.121322,1.404776,-0.263928,-8.261719,48.500977,41.291016
12.957986,-0.651273,-0.126272,0.140835,0.578776,-5.434838,0.670376,8.437167,0.002128,1.158940,-0.276698,-7.558594,56.966602,35.853516
13.059329,-0.437179,-0.172970,0.130240,0.684234,-6.090849,0.143652,7.316680,0.150056,0.686425,-0.275634,-8.261719,65.432227,32.115234
13.161234,-0.161953,-0.197409,0.137837,0.704258,-6.200982,0.009577,7.311892,0.042569,0.194753,-0.072367,-8.261719,65.432227,32.115234
13.262642,-0.661494,-0.201503,0.139578,0.688518,-6.148310,0.052672,7.326257,0.041505,0.054275,-0.037248,-9.492188,69.135937,29.226562
13.363676,-0.357060,-0.199908,0.143596,0.680713,-6.047753,0.143652,7.479486,0.029798,-0.021284,-0.005321,-9.492188,69.135937,29.226562
13.465493,-0.485403,-0.196362,0.142089,0.674704,-6.387730,0.143652,7.771579,-0.021284,-0.004257,-0.015963,-9.140625,69.841406,29.226562
13.567210,-0.165213,-0.192567,0.149145,0.668144,-6.344634,0.239420,7.714118,-0.044697,0.012771,-0.013835,-8.085938,69.488672,30.246094
13.668511,-0.381532,-0.191977,0.119664,0.685419,-6.282385,0.014365,7.536947,-0.102166,-0.006385,-0.021284,-7.734375,68.783203,29.566406
13.770509,-0.325622,-0.185319,0.123922,0.668535,-6.277597,0.167594,7.762002,-0.046826,0.002128,0.015963,-8.261719,70.017773,30.416016
13.872211,-0.236012,-0.188027,0.135882,0.695490,-6.196194,0.033519,7.196970,0.010642,-0.187303,0.059597,-8.261719,70.017773,30.416016
13.973528,-0.456290,-0.158818,0.071131,0.575215,-5.008670,-0.105345,7.417237,0.068110,-1.845365,0.387378,-8.261719,70.017773,30.416016
14.075141,-0.280927,-0.091716,0.121375,0.295985,-3.155558,1.101333,9.749189,0.363965,-2.388119,0.587452,-9.140625,60.670313,35.343750
14.176591,-0.410226,-0.059953,0.164706,0.123826,-1.551443,1.790863,10.740389,0.268185,-1.169582,0.175597,-11.250000,40.564453,41.460938
14.278220,-0.884978,-0.058287,0.112585,0.095749,-1.359907,1.278504,9.974244,0.195817,-0.355451,0.190496,-14.589844,26.984180,44.349609
14.380112,-0.356199,-0.049976,0.103072,-0.001339,-0.062249,1.043872,9.821015,-0.159634,-0.040441,-0.059597,-12.832031,22.045898,42.650391
14.481138,-0.422112,-0.059170,0.078779,0.053906,-0.804452,0.790087,10.232818,-0.369286,0.010642,-0.029798,-10.722656,20.634961,43.669922
14.583490,-0.174175,-0.065766,0.057815,-0.025266,0.330400,0.588974,9.610325,-0.042569,-0.002128,-0.075560,-8.613281,22.045898,45.708984
14.685583,-0.321574,-0.072498,0.062706,0.003765,-0.081403,0.569820,9.955091,0.040441,0.177725,-0.096844,-8.613281,22.045898,45.708984
14.786795,-0.530179,-0.079614,0.049395,0.088282,-1.110910,0.339977,9.935937,0.059597,0.320332,-0.039376,-10.722656,22.398633,47.408203
14.889198,-0.591769,-0.076749,0.092589,0.052689,-0.684742,0.818817,9.801862,-0.015963,0.010642,-0.003193,-11.425781,22.398633,45.708984
14.991577,-0.397600,-0.077012,0.087028,0.053290,-0.584185,0.828394,9.945514,-0.018092,0.011706,0.000000,-10.898438,22.927734,44.179688
15.092625,-0.374618,-0.076783,0.078261,0.051299,-0.545878,0.723049,9.787496,-0.020220,-0.003193,0.001064,-11.777344,23.809570,45.708984
15.194351,-0.342604,-0.076199,0.099622,0.043393,-0.579397,0.809240,9.931148,-0.015963,0.020220,-0.002128,-12.304688,24.338672,45.878906
15.296038,-0.193789,-0.078422,0.090984,0.067812,-0.598550,0.746991,9.792285,-0.014899,0.013835,0.001064,-12.304688,24.338672,45.878906
15.397831,-0.311544,-0.076618,0.080463,0.046959,-0.555455,0.770933,10.074801,-0.017028,0.003193,-0.001064,-10.546875,22.575000,45.539062
15.499251,-0.189636,-0.077759,0.068963,0.063423,-0.656011,0.718260,9.897630,-0.012771,0.013835,-0.003193,-10.546875,22.575000,45.539062
15.601663,-0.462618,-0.077424,0.074487,0.059969,-0.612916,0.703895,9.931148,-0.020220,0.003193,-0.001064,-11.425781,22.751367,45.029297
15.703863,-0.736913,-0.076985,0.077227,0.053886,-0.617704,0.727837,9.974244,-0.013835,0.015963,-0.001064,-10.722656,24.515039,45.029297
15.805106,-0.377323,-0.075992,0.073461,0.040287,-0.550666,0.799663,10.031705,-0.020220,0.007450,-0.004257,-10.722656,24.515039,45.029297
15.906342,-0.520787,-0.076341,0.087900,0.044280,-0.545878,0.775721,10.046070,-0.014899,0.011706,-0.004257,-11.601562,25.044141,45.539062
16.006900,-0.695772,-0.076322,0.083540,0.043634,-0.617704,0.770933,9.921572,-0.015963,0.009578,-0.003193,-9.843750,22.575000,46.898438
16.108545,-0.471969,-0.076777,0.084295,0.045528,-0.584185,0.766145,10.002975,-0.019156,0.012771,-0.001064,-9.667969,23.456836,44.689453
16.210249,-0.342411,-0.076891,0.080443,0.045643,-0.555455,0.780510,9.940725,-0.015963,0.009578,-0.003193,-11.425781,24.867773,47.068359
16.311312,-0.400588,-0.076687,0.087390,0.044422,-0.622492,0.675165,9.844957,-0.017028,0.009578,0.001064,-11.425781,24.867773,47.068359
16.413192,-0.192292,-0.077589,0.073010,0.054825,-0.550666,0.746991,9.835380,-0.015963,0.014899,-0.001064,-11.953125,22.927734,45.878906
16.514508,-0.280350,-0.078119,0.086154,0.060673,-0.665588,0.799663,9.787496,-0.014899,0.021284,-0.001064,-10.019531,24.867773,46.048828
16.616829,-0.317764,-0.076725,0.081054,0.044917,-0.545878,0.756568,9.916783,-0.015963,-0.003193,0.001064,-10.019531,24.867773,46.048828
16.718467,-0.512658,-0.077502,0.081941,0.054803,-0.598550,0.746991,9.983821,-0.013835,0.008514,-0.002128,-11.777344,23.104102,45.708984
16.819974,-0.220170,-0.077631,0.086333,0.054093,-0.531513,0.718260,9.868899,-0.012771,0.017028,-0.004257,-10.546875,24.338672,45.539062
16.921429,-0.360395,-0.076710,0.076090,0.041965,-0.588974,0.756568,9.940725,-0.015963,0.008514,0.002128,-9.492188,24.338672,46.558594
17.023193,-0.168920,-0.077538,0.061996,0.050801,-0.545878,0.627281,9.931148,-0.014899,0.014899,0.001064,-11.250000,22.927734,46.898438
17.124361,-0.542255,-0.077567,0.091361,0.049289,-0.622492,0.718260,9.878476,-0.015963,0.007450,-0.001064,-10.371094,22.751367,46.048828
17.225821,-0.252873,-0.077155,0.072876,0.043007,-0.517148,0.723049,10.046070,-0.015963,0.006385,-0.002128,-10.019531,24.867773,45.708984
17.328326,-0.424378,-0.076421,0.085451,0.033355,-0.474052,0.718260,9.964667,-0.015963,0.018092,-0.003193,-10.019531,24.867773,45.708984
17.429850,-0.294167,-0.078561,0.099990,0.056664,-0.617704,0.847547,9.926360,-0.008514,0.039376,-0.002128,-10.722656,22.398633,45.369141
17.530994,0.003437,-0.078105,0.068657,0.052256,-0.574608,0.751779,9.998186,-0.025541,-0.032991,-0.002128,-11.074219,24.162305,45.369141
17.632247,-0.375413,-0.077804,0.068098,0.049405,-0.536301,0.742203,9.979033,-0.019156,-0.008514,-0.003193,-11.074219,23.104102,45.708984
17.735016,-0.269169,-0.078099,0.071754,0.053486,-0.579397,0.665588,9.916783,-0.013835,0.032991,-0.004257,-10.546875,23.633203,45.539062
