Time, Altitude, Yaw, Pitch, Roll, Ax, Ay, Az, Pitch_rate, Roll_rate,Yaw_rate, Magx, Magy, Magz
0.760575,0.102663,0.006946,0.175249,0.033007,-0.234632,1.963245,9.677363,-0.008514,0.017028,0.011706,-24.960938,-2.116406,38.062500
0.860788,0.242351,0.020149,0.373452,0.081551,-0.014365,2.370260,9.361328,-0.038312,0.272441,0.042569,-24.960938,-2.116406,38.062500
0.960883,-0.290657,0.121859,0.424647,0.098519,-0.009577,2.398990,9.768343,-0.059597,-0.035119,0.053211,-26.367188,1.058203,38.742188
1.061155,0.035408,0.256635,0.441894,0.036035,-0.052672,2.413355,11.152191,-0.301175,0.162826,0.048954,-26.367188,0.705469,38.062500
1.163249,-0.027759,0.361071,0.425312,0.004453,-0.450110,1.833958,10.443508,-0.562975,0.689617,-0.072367,-23.906250,3.527344,37.722656
1.264513,-0.048738,0.464155,0.436487,-0.039761,-0.943315,1.666364,8.667010,-0.482094,0.470387,0.172404,-23.906250,3.527344,37.722656
1.366238,-0.071317,0.484408,0.454367,-0.020378,-1.891419,1.154005,10.046070,0.190496,-0.370350,0.084074,-13.007812,16.931250,40.101562
1.468260,-0.396038,0.477969,0.344293,0.074428,-0.684742,0.780510,11.923124,-0.356515,0.434203,0.032991,-14.765625,12.345703,39.082031
1.569719,-0.358903,0.454179,0.399659,0.117537,0.306458,2.509123,11.089942,0.169212,-0.171340,0.122386,-11.953125,21.164062,37.722656
1.671253,-0.254967,0.372247,0.384655,0.216322,-1.345541,1.307234,10.419566,0.155377,-0.635342,0.237322,-11.953125,21.164062,37.722656
1.772722,-0.329215,0.381749,0.365616,0.146455,-0.919373,1.374272,8.825027,0.175597,0.046826,0.110679,-14.589844,13.227539,35.173828
1.874076,-0.059165,0.359688,0.415593,0.135562,-2.202666,2.140416,9.169792,0.040441,0.594901,-0.038312,-14.589844,13.227539,35.173828
1.975694,0.040650,0.357544,0.333419,0.100058,-0.847547,-0.272939,8.729259,-0.101101,-0.190496,-0.011706,-12.656250,12.698437,34.324219
2.077187,-0.099767,0.335725,0.336800,0.159375,-0.933739,2.901772,12.186486,0.228808,-0.351194,0.059597,-13.007812,11.992969,33.304688
2.178145,-0.014686,0.305898,0.270890,0.146075,0.239420,0.837971,10.060435,-0.124514,-0.246900,-0.313946,-13.007812,12.345703,36.703125
2.280716,-0.433014,0.247129,0.352996,0.131963,-1.632846,0.837971,8.518570,0.106422,0.247964,-0.050019,-13.359375,11.287500,34.324219
2.382583,-0.250005,0.219345,0.297538,0.148791,-0.354342,0.660800,9.131485,-0.031927,0.211781,-0.056404,-12.128906,11.816602,34.833984
2.484427,-0.421561,0.199049,0.339804,0.209393,-1.292869,1.335965,9.045294,0.222423,0.424625,-0.223487,-10.546875,14.462109,33.984375
2.586304,-0.029833,0.131321,0.334791,0.224570,-1.292869,0.277727,10.165780,0.145799,0.172404,0.014899,-10.371094,17.813086,33.814453
2.689683,-0.275435,0.038806,0.365747,0.277790,-2.475605,0.948104,9.074024,-0.030863,0.044697,-0.044697,-10.898438,17.283984,32.625000
2.791766,-0.025120,-0.006190,0.272922,0.239129,-1.996764,0.158017,6.756437,-0.084074,-0.567232,-0.301175,-9.492188,15.167578,33.644531
2.894209,-0.092999,-0.093859,0.283113,0.253950,-1.900996,1.513135,9.447520,0.044697,0.235194,-0.113872,-10.195312,14.814844,31.945312
2.995875,0.012043,-0.139748,0.207763,0.277393,-0.967257,1.594538,11.329362,0.014899,0.119193,0.221359,-10.019531,13.227539,33.134766
3.098090,-0.250424,-0.157991,0.238437,0.280916,-1.934515,1.584961,12.741941,0.187303,-0.429947,-0.095780,-11.074219,11.111133,33.134766
3.201340,-0.414761,-0.233340,0.227275,0.267139,-1.244985,1.489193,10.328586,-0.211781,0.474644,-0.023413,-10.722656,12.522070,32.794922
3.301184,0.103112,-0.318182,0.278902,0.275362,-1.623269,0.363919,10.596737,-0.184111,0.226680,-0.534241,-9.667969,18.518555,35.513672
3.403088,-0.499611,-0.471211,0.176910,0.284386,9.734824,2.461239,12.258312,-0.457616,-0.328845,-0.474644,-9.667969,18.518555,35.513672
3.504937,-0.566203,-0.627600,0.073127,0.241566,2.446874,-0.009577,8.336610,-0.012771,-0.218166,-0.197946,-7.207031,19.576758,35.173828
3.606786,0.069038,-0.758608,0.040318,0.203850,2.025495,-0.933739,11.367669,-0.041505,0.073431,0.213909,-7.207031,19.576758,35.173828
3.708834,-0.100729,-0.869077,0.094746,0.237477,0.186748,-1.197101,9.959879,0.201138,-0.452295,-0.464002,-6.152344,16.754883,35.513672
3.810243,-0.247558,-0.987642,0.141922,0.244216,-1.110910,0.019154,9.979033,-0.531048,0.123450,0.249028,-7.910156,19.929492,33.474609
3.911794,-0.171442,-1.100857,0.070388,0.177193,-0.095768,-0.134075,8.729259,-0.105358,-0.144734,0.145799,-2.988281,22.398633,34.494141
4.013095,-0.059742,-1.215339,0.023868,0.134896,-0.507571,-0.296881,10.362105,0.091523,-0.119193,0.021284,-3.515625,18.694922,35.343750
4.114998,-0.014992,-1.319434,0.032069,0.105729,-0.067038,-0.335188,10.376470,0.102166,0.053211,-0.023413,-2.988281,17.460352,35.513672
4.217197,-0.329620,-1.453406,0.037179,0.071689,-0.138864,-0.296881,9.840169,0.017028,-0.026606,0.034055,-2.988281,17.460352,35.513672
4.319377,0.014199,-1.583359,0.050079,0.062434,-0.277727,-0.488417,10.103531,-0.057468,0.060661,0.029798,-3.867188,16.225781,37.722656
4.421274,-0.081079,-1.679652,0.027288,0.011439,0.033519,-0.311246,9.840169,-0.051083,0.083009,-0.003193,-2.636719,15.696680,37.212891
4.522397,0.002146,-1.695204,0.050315,0.031919,-0.234632,-0.521936,9.782708,-0.009578,0.000000,0.002128,-2.636719,15.696680,37.212891
4.623874,0.035003,-1.709681,0.052050,0.022625,-0.229843,-0.536301,9.840169,-0.038312,0.030863,-0.045762,-2.988281,18.165820,34.833984
4.726105,0.069173,-1.743008,0.045648,0.046676,-0.253785,-0.469264,10.031705,-0.101101,-0.057468,0.009578,-4.042969,15.343945,36.533203
4.828119,-0.518489,-1.727114,0.051407,0.015277,0.028730,-0.512359,9.959879,-0.025541,0.042569,-0.001064,-2.460938,16.225781,36.023438
4.929497,-0.308622,-1.710951,0.052205,0.030241,-0.090980,-0.497994,9.979033,-0.026606,0.057468,0.009578,-3.164062,17.989453,35.343750
5.032225,-0.275956,-1.700444,0.032921,0.012218,-0.181959,-0.392649,9.974244,-0.019156,0.020220,-0.028734,-3.164062,17.989453,35.343750
5.133250,0.155343,-1.699005,0.059919,0.010657,-0.191536,-0.617704,9.979033,-0.003193,0.026606,-0.014899,-2.109375,18.342187,35.343750
5.235521,-0.154988,-1.658783,0.055297,0.003665,-0.062249,-0.526724,9.768343,0.012771,0.009578,0.001064,-2.109375,18.342187,35.343750
5.337021,-0.441547,-1.687484,0.047914,0.027374,-0.067038,-0.454898,9.888053,-0.015963,0.034055,0.003193,-2.812500,17.989453,36.023438
5.438514,-0.108712,-1.687259,0.048982,0.030034,-0.076614,-0.507571,10.007763,-0.037248,0.007450,-0.004257,-2.812500,16.931250,37.382812
5.539999,-0.509668,-1.658844,0.045177,0.020206,-0.148441,-0.464475,9.792285,-0.053211,0.023413,0.000000,-2.109375,16.578516,34.664062
5.642175,0.231269,-1.722562,0.039353,0.035130,-0.138864,-0.407014,9.768343,-0.012771,0.043633,0.004257,-3.867188,17.283984,36.703125
5.743469,-0.409445,-1.676074,0.051198,0.012982,-0.086191,-0.474052,9.916783,-0.008514,0.023413,-0.002128,-2.109375,16.225781,36.363281
5.846233,0.314443,-1.647316,0.053728,0.019946,-0.181959,-0.531513,10.036493,0.025541,-0.040441,-0.011706,-2.285156,17.813086,35.173828
5.947388,0.171346,-1.658286,0.049935,0.011442,-0.134075,-0.507571,9.931148,0.001064,-0.007450,-0.020220,-2.285156,17.813086,35.173828
6.049342,-0.322175,-1.661556,0.059591,0.012409,-0.105345,-0.521936,9.873688,0.024477,-0.031927,-0.002128,-2.285156,17.460352,35.853516
6.151206,-0.255873,-1.674245,0.061195,0.012104,-0.043096,-0.555455,10.242395,0.027670,-0.048954,0.007450,-2.460938,17.283984,36.363281
6.252767,-0.205746,-1.727951,0.035183,0.026774,0.043096,-0.354342,10.156203,-0.013835,0.029798,-0.007450,-4.042969,15.343945,36.533203
6.354717,-0.054141,-1.775929,0.053746,0.017126,-0.052672,-0.780510,9.979033,-0.133028,-0.015963,-0.051083,-3.691406,15.343945,37.552734
6.456866,-0.188674,-1.768183,0.044415,0.020483,0.019154,-0.430956,9.964667,-0.141542,0.063853,0.128771,-3.691406,15.343945,37.552734
6.559022,-0.208505,-1.725656,0.088004,0.023789,-0.392649,-0.909797,10.587160,-0.625764,0.259671,0.174533,1.054688,17.989453,37.042969
6.660230,-0.119515,-1.603348,0.207441,0.042833,-1.340753,-2.169147,11.439496,-1.295161,0.169212,0.161762,1.054688,17.989453,37.042969
6.762610,-0.193179,-1.479209,0.366433,-0.033110,-0.569820,-3.203442,9.935937,-1.554832,0.179854,0.038312,9.492188,20.458594,37.382812
6.865349,-0.189846,-1.356696,0.506371,-0.091991,-0.426168,-4.089296,7.498640,-1.236629,0.672590,-0.060661,21.796875,25.396875,35.003906
6.966888,-0.378214,-1.231742,0.647465,-0.119587,-1.886631,-5.951985,7.723695,-1.215344,0.769434,0.078753,31.289062,31.746094,30.585938
7.068506,-0.356275,-1.065637,0.765389,-0.187394,-2.533065,-6.852205,5.923255,-0.690682,0.111744,-0.472516,40.605469,42.857227,24.978516
7.170596,-0.098252,-0.838515,0.843242,-0.346231,-1.853112,-7.307103,4.611232,-0.071303,-0.229872,-0.221359,43.945312,42.680859,20.050781
7.271974,-0.230163,-0.703923,0.735129,-0.426523,-1.632846,-6.804321,7.374141,0.136221,-0.175597,-0.112808,42.187500,41.269922,21.070312
7.373589,-0.320943,-0.601962,0.648418,-0.469747,-1.891419,-7.029376,7.244854,0.178790,-0.015963,-0.042569,43.769531,40.035352,21.919922
7.475308,-0.389597,-0.612500,0.590271,-0.498149,-1.096544,-6.607997,7.086837,0.640663,-0.050019,-0.022349,43.769531,40.035352,21.919922
7.577139,0.354903,-0.678575,0.470617,-0.433368,-0.641646,-5.085284,5.937620,2.645661,-0.516149,-0.208588,43.769531,40.035352,21.919922
7.678803,-0.334204,-0.831011,0.348001,-0.190090,-0.828394,-3.136404,9.021352,2.014577,-0.360772,0.351194,29.355469,35.097070,27.697266
7.780565,-0.264040,-0.946673,0.170150,0.016256,-0.900220,-1.312023,11.209652,0.830095,-0.195817,0.390570,14.414062,26.807813,34.324219
7.882481,-0.003417,-1.078558,0.118222,0.139978,-1.417367,-0.670376,10.663774,0.288405,0.407598,-0.073431,3.339844,20.282227,36.193359
7.985116,-0.173506,-1.201413,0.023495,0.130270,-0.478840,0.201113,9.581595,0.143670,-0.234129,0.055340,-0.878906,21.340430,38.572266
8.087021,0.056735,-1.333801,0.051316,0.116193,-0.603339,-0.330400,10.419566,-0.020220,0.074496,-0.020220,-4.042969,20.634961,38.572266
8.188981,0.032789,-1.465045,0.036692,0.118310,-0.847547,-0.335188,9.792285,-0.014899,0.073431,-0.071303,-4.042969,20.634961,38.572266
8.291393,-0.347432,-1.534141,0.029236,0.087091,-0.742203,-0.292093,9.653421,0.037248,0.036184,0.008514,-2.988281,19.929492,37.892578
8.392588,-0.227503,-1.545453,0.036190,0.086693,-0.914585,-0.344765,9.744401,0.035119,-0.022349,0.034055,-2.988281,19.929492,37.892578
8.494219,-0.091695,-1.531437,0.018136,0.096556,-0.900220,-0.143652,10.046070,-0.062789,0.036184,0.005321,-2.636719,22.045898,39.591797
8.596151,-0.297590,-1.522634,0.029561,0.083012,-0.909797,-0.244209,9.840169,-0.022349,0.044697,0.005321,-2.460938,21.516797,38.402344
8.697605,-0.188643,-1.522981,0.029005,0.090609,-1.000776,-0.225055,9.787496,0.039376,-0.014899,0.014899,-2.460938,21.516797,38.402344
8.800030,-0.305760,-1.563134,0.035523,0.097482,-0.981623,-0.301669,10.165780,0.010642,0.022349,0.014899,-3.691406,19.929492,38.572266
8.901871,-0.211115,-1.555340,0.016587,0.100238,-1.058237,-0.138864,10.026917,-0.054275,0.063853,0.011706,-2.988281,20.634961,39.591797
9.004315,-0.124212,-1.553200,0.020905,0.103402,-0.876278,-0.253785,9.830592,-0.034055,0.009578,-0.011706,-3.691406,22.398633,39.591797
9.107506,-0.381875,-1.558370,0.007852,0.101339,-1.048660,-0.143652,10.022128,-0.028734,0.029798,-0.008514,-3.339844,22.751367,39.251953
9.210416,-0.524689,-1.540894,0.026269,0.084060,-0.837971,-0.229843,9.868899,-0.020220,-0.001064,0.011706,-3.164062,22.927734,39.421875
9.312313,0.060337,-1.522405,0.008479,0.074650,-0.818817,-0.158017,10.031705,-0.028734,0.002128,0.014899,-2.109375,22.222266,39.421875
9.414453,-0.050630,-1.520173,0.029709,0.103173,-0.972046,-0.244209,10.070012,-0.005321,-0.158569,-0.014899,-2.988281,22.751367,39.591797
9.516298,-0.199429,-1.520565,0.084109,0.102047,-1.067814,-0.804452,10.342951,-0.438460,-0.308625,0.260735,-2.988281,22.751367,39.591797
9.620113,-0.252044,-1.547031,0.134701,0.073174,-0.541090,-1.594538,10.299856,-0.982279,0.084074,-0.032991,-2.988281,22.751367,39.591797
9.721119,-0.298558,-1.454393,0.291275,-0.007034,-0.852336,-2.604891,9.490615,-1.318574,0.244772,0.098973,8.261719,21.340430,39.251953
9.822568,-0.298808,-1.309788,0.406068,-0.109134,-0.976834,-4.132392,9.562441,-1.271748,0.372478,0.005321,20.039062,26.102344,35.683594
9.924385,-0.097840,-1.160628,0.500848,-0.199354,-0.124498,-4.730942,9.404424,-0.958866,0.556589,0.068110,20.039062,26.102344,35.683594
10.027853,-0.549643,-1.014993,0.609349,-0.236042,-0.928950,-5.085284,7.517793,-0.713030,0.267120,-0.135156,37.968750,35.626172,29.226562
10.128481,-0.075664,-0.844730,0.646454,-0.341928,-1.096544,-6.382942,7.182605,-0.245836,0.285212,-0.028734,39.550781,37.213477,27.017578
10.230694,-0.102813,-0.630155,0.697030,-0.499258,-1.417367,-6.895301,6.344634,-0.031927,-0.005321,0.065982,40.957031,39.329883,24.978516
10.332590,-0.147203,-0.670390,0.585534,-0.440936,-1.216254,-6.200982,7.522582,0.139413,-0.028734,0.028734,40.781250,39.153516,24.468750
10.435661,-0.050608,-0.668359,0.602342,-0.447018,-1.182736,-5.971139,6.651092,0.724737,-0.043633,0.022349,40.605469,38.624414,24.638672
10.536151,-0.085493,-0.745020,0.549902,-0.344665,-1.091756,-4.367024,6.622362,1.330280,-0.192625,0.176661,33.398438,37.389844,27.187500
10.637926,-0.465802,-0.866538,0.361022,-0.117037,-1.632846,-2.580949,10.146627,1.602722,-0.252221,0.259671,22.675781,31.569727,34.154297
10.740294,-0.292847,-0.943890,0.090783,-0.007400,-0.239420,-0.885855,11.937489,1.294097,-0.993985,0.177725,22.675781,31.569727,34.154297
10.842924,-0.222682,-1.017002,-0.028280,0.085549,-3.557784,6.162675,14.331691,0.756663,0.373543,0.420369,7.207031,21.693164,38.912109
10.944254,-0.194840,-1.008480,-0.063518,0.238543,-1.781286,2.173935,8.820239,-0.100037,-0.030863,0.008514,-1.933594,16.402148,42.650391
11.046717,-0.366180,-1.101684,-0.037141,0.230066,-1.053449,1.369483,9.605537,0.015963,-0.158569,-0.108551,-7.207031,18.165820,43.669922
11.148752,-0.415566,-1.202546,-0.022099,0.151651,-1.058237,0.608127,9.557653,-0.345873,-0.567232,-0.070239,-7.734375,17.636719,43.500000
11.251844,0.022122,-1.297658,-0.043554,0.156202,-0.459687,0.881066,8.202535,0.150056,-0.050019,0.432075,-6.679688,15.520312,40.781250
11.353625,-0.416767,-1.328018,-0.095097,0.183071,0.756568,1.551443,9.351752,0.274570,-0.529984,0.277763,-10.898438,11.287500,41.800781
11.456075,-0.332882,-1.386849,-0.100531,0.152714,0.148441,2.140416,10.137050,0.159634,-0.295854,0.091523,-12.480469,3.350977,43.330078
11.558574,-0.290577,-1.464276,-0.074175,0.133855,0.445322,2.346318,9.710882,0.227744,-0.209652,-0.032991,-12.480469,3.350977,43.330078
11.660387,-0.480172,-1.583357,0.038866,0.143306,0.814029,1.187524,11.367669,-0.041505,-0.114936,-0.192625,-15.644531,-1.234570,42.310547
11.762773,-0.125406,-1.718208,0.054895,0.181852,-0.967257,2.303222,8.159439,0.113872,-0.114936,0.211781,-20.039062,-4.232812,42.480469
11.864108,-0.243557,-1.813261,-0.001308,0.159293,-0.497994,2.509123,10.965444,0.075560,-0.228808,-0.007450,-17.226562,-2.469141,41.460938
11.965368,-0.387752,-1.977481,0.038007,0.150672,1.019930,2.039860,9.749189,0.003193,-0.015963,-0.021284,-20.214844,-4.761914,40.611328
12.067348,-0.022350,-2.158058,0.050374,0.126990,1.082179,2.178724,9.265560,0.015963,0.081945,0.106422,-20.039062,-7.054688,41.460938
12.169602,-0.245546,-2.331335,0.051337,0.120851,0.339977,2.403778,10.213664,0.110679,-0.044697,0.143670,-20.390625,-9.523828,40.781250
12.271138,-0.223117,-2.499758,0.061517,0.094724,0.718260,2.533065,9.706094,0.153248,-0.208588,0.102166,-21.269531,-9.347461,39.931641
12.373451,-0.159233,-2.678809,0.065051,0.068292,1.484405,2.901772,10.060435,0.077688,-0.209652,0.043633,-21.093750,-11.992969,39.082031
12.475562,-0.525424,-2.855708,0.100395,0.057609,1.661576,2.734178,10.472238,0.022349,-0.093652,0.005321,-21.093750,-11.992969,39.082031
12.577835,-0.020363,-3.031691,0.138620,0.012718,1.216254,2.489970,9.251195,0.119193,-0.148991,0.037248,-21.093750,-11.992969,39.082031
12.679388,-0.473908,3.081550,0.170623,0.003085,1.316811,2.552219,9.481039,-0.039376,0.034055,-0.004257,-24.433594,-17.107617,36.873047
12.781696,0.070355,2.898158,0.184222,-0.003630,0.632069,2.920926,9.260772,0.055340,-0.134092,-0.189432,-25.312500,-19.400391,36.023438
12.884889,-0.278549,2.731572,0.239135,-0.021938,2.557007,2.619257,9.739612,-0.030863,0.136221,-0.042569,-25.312500,-19.400391,36.023438
12.985876,-0.005295,2.578413,0.265751,-0.081849,1.455675,2.801216,9.500192,0.021284,0.010642,-0.015963,-25.488281,-17.460352,37.552734
13.087567,-0.021865,2.461425,0.295734,-0.101917,1.565808,2.676717,9.552865,-0.022349,-0.017028,-0.013835,-27.597656,-18.165820,37.552734
13.189552,-0.176567,2.419421,0.295218,-0.113531,1.379060,2.829946,9.543288,-0.017028,0.017028,-0.013835,-25.488281,-17.813086,38.572266
13.291935,-0.345056,2.446058,0.251648,-0.143517,0.976834,2.662352,9.763554,-0.004257,0.005321,-0.047890,-26.718750,-16.578516,39.082031
13.393794,-0.195141,2.467381,0.291730,-0.128390,1.364695,2.834735,9.485827,-0.010642,-0.001064,0.019156,-26.367188,-16.578516,40.781250
13.495909,-0.007129,2.455800,0.270180,-0.125728,1.331176,2.638410,9.653421,-0.054275,0.039376,0.001064,-26.367188,-16.578516,40.781250
13.596703,-0.020091,2.465336,0.296939,-0.141345,1.345541,2.925714,9.404424,0.002128,0.000000,-0.018092,-27.070312,-17.283984,38.062500
13.699094,-0.394193,2.463045,0.289253,-0.119172,1.350330,2.748544,9.428366,0.018092,0.008514,-0.014899,-28.300781,-17.813086,38.572266
13.800469,0.060409,2.484444,0.274773,-0.107093,1.695095,2.379836,9.610325,0.004257,0.201138,0.107487,-28.300781,-16.402148,40.951172
13.902279,-0.302945,2.465965,0.264880,-0.117594,2.351106,4.065354,10.299856,-0.037248,-0.005321,0.131964,-25.488281,-17.107617,38.232422
14.004014,-0.334140,2.452541,0.213429,-0.118946,0.857124,2.303222,9.749189,-0.308625,0.451231,0.145799,-21.621094,-12.874805,39.931641
14.105248,-0.357342,2.442766,0.155490,-0.142025,1.786074,2.446874,9.816227,-0.348001,0.473580,-0.062789,-19.160156,-5.114648,41.630859
14.206684,-0.186274,2.535345,0.140878,-0.170636,0.306458,2.188300,9.753978,0.028734,0.273506,-0.018092,-19.160156,-5.114648,41.630859
14.309113,0.047603,2.521714,0.035082,-0.171497,-0.272939,2.169147,11.362881,-0.630021,0.713030,-0.077688,-15.996094,-2.292773,39.931641
14.410636,-0.054518,2.571638,-0.012173,-0.263842,-1.058237,2.049437,10.022128,-0.018092,0.533176,-0.079817,-14.941406,4.056445,39.591797
14.513283,-0.240190,2.590571,0.022494,-0.324670,-1.632846,1.053449,8.805874,0.047890,-0.100037,-0.259671,-10.898438,15.520312,38.742188
14.615205,-0.146250,2.663907,-0.038005,-0.348720,-2.092532,0.909797,10.132261,-0.037248,0.011706,-0.134092,-14.238281,16.754883,37.552734
14.716963,0.055741,2.795928,-0.002981,-0.365020,-1.221043,1.513135,9.710882,-0.037248,0.157505,0.035119,-14.062500,18.694922,37.042969
14.818558,-0.051953,2.888660,-0.106020,-0.362306,-2.643199,1.470040,10.366893,-0.189432,0.036184,0.058532,-14.062500,18.694922,37.042969
14.921063,-0.036559,2.988253,-0.107429,-0.358454,-2.461239,2.173935,9.787496,-0.078753,-0.040441,0.087266,-13.359375,18.342187,35.683594
15.022996,0.030677,3.058860,-0.107846,-0.280285,-1.412579,1.096544,10.314221,-0.013835,-0.017028,-0.013835,-13.359375,15.520312,37.382812
15.124823,-0.435505,3.088272,-0.157788,-0.341541,-3.505111,3.706224,6.986280,0.007450,-0.104294,0.112808,-13.359375,15.520312,37.382812
15.227100,0.031675,3.114195,-0.070554,-0.302355,-0.746991,1.958457,9.255984,-0.106422,-0.551268,0.271377,-13.359375,15.520312,37.382812
15.328201,-0.305825,3.128073,-0.080601,-0.220860,-1.359907,2.226608,12.220005,0.307561,-0.300111,0.072367,-16.523438,10.229297,38.062500
15.430040,0.070418,3.074815,-0.037904,-0.213644,-0.914585,2.710236,10.697293,-0.014899,0.028734,-0.100037,-18.984375,5.996484,38.062500
15.531587,0.047341,3.077243,-0.006150,-0.189869,-0.196325,2.485181,10.132261,0.026606,-0.006385,0.043633,-18.808594,5.467383,37.892578
15.632803,-0.206090,3.066210,-0.070094,-0.215175,-0.134075,1.848324,8.877700,0.023413,0.104294,-0.100037,-18.984375,8.465625,40.101562
15.733492,0.062160,3.054806,-0.115149,-0.258661,-0.723049,1.240196,11.611878,0.001064,0.094716,-0.201138,-21.269531,11.816602,36.533203
15.834171,0.146161,3.083330,-0.120124,-0.261266,-0.761356,1.891419,10.907983,0.393763,-0.293726,-0.067046,-21.269531,11.816602,36.533203
15.935975,-0.075305,3.088928,-0.115212,-0.296820,-1.570596,2.743755,6.880936,0.201138,-0.291597,-0.036184,-20.390625,10.229297,36.703125
16.037744,0.152948,3.111202,-0.086576,-0.192181,-1.307234,1.264138,9.682152,-0.104294,0.210716,-0.030863,-20.742188,8.112891,37.042969
16.139207,-0.118047,3.119788,-0.113178,-0.220129,-3.332729,3.591302,9.830592,-0.210716,0.539562,-0.052147,-18.457031,12.874805,37.552734
16.241442,0.183262,-3.089096,-0.178127,-0.226017,-1.781286,2.015918,10.366893,-0.329910,0.655562,0.001064,-18.457031,12.874805,37.552734
16.343389,-0.209855,-2.972785,-0.200916,-0.238569,-2.044648,1.450886,9.083601,-0.127707,0.405469,-0.073431,-17.402344,20.634961,37.892578
16.445067,0.147174,-2.900695,-0.250245,-0.312378,-1.891419,1.824382,9.821015,0.075560,0.454424,-0.267120,-12.832031,25.220508,34.154297
16.547573,-0.070937,-2.768540,-0.352021,-0.219460,-4.821922,1.757344,7.805097,0.015963,0.674718,0.095780,-14.414062,28.924219,31.945312
16.649222,-0.109342,-2.638624,-0.371490,-0.193521,-3.356671,1.728614,9.112332,0.097909,-0.317139,0.028734,-14.414062,28.924219,31.945312
16.751335,0.359898,-2.530421,-0.290986,-0.139008,-2.992752,0.421379,10.687716,0.159634,-0.117065,-0.128771,-12.304688,33.157031,32.285156
16.852278,-0.061066,-2.419784,-0.264546,-0.087133,-3.088520,-1.283292,8.336610,0.627892,0.253285,-0.038312,-10.371094,29.100586,34.154297
16.953422,0.092163,-2.290382,-0.279882,-0.049131,-3.284845,0.550666,10.012551,-0.280955,0.166019,0.078753,-8.964844,34.038867,32.115234
17.054575,0.109115,-2.171041,-0.272420,0.008019,-4.036624,0.493206,9.447520,0.241579,0.217102,0.013835,-8.437500,32.804297,32.964844
17.155962,-0.046586,-2.074061,-0.194929,0.027082,-2.518700,1.010353,10.261548,0.094716,-0.188368,-0.188368,-7.382812,32.804297,33.644531
17.257197,-0.314016,-1.936316,-0.152573,0.138457,-3.711013,0.349553,9.859322,-0.302240,0.486350,0.057468,-7.382812,32.804297,33.644531
17.359599,-0.124951,-1.788335,-0.114408,0.234708,-4.362235,0.354342,9.050082,-0.420369,0.452295,0.201138,-4.921875,35.626172,31.265625
17.461716,0.136131,-1.658578,-0.048356,0.356495,-4.438850,0.138864,6.919243,-0.037248,0.167083,-0.179854,-2.109375,39.858984,28.207031
17.563793,0.004031,-1.537763,-0.038735,0.336546,-4.893748,1.450886,8.374917,0.358644,-0.070239,0.097909,-0.527344,43.562695,27.017578
17.665461,-0.174806,-1.477616,-0.048540,0.350706,-4.577714,1.292869,9.931148,0.114936,-0.340552,-0.224551,-4.218750,41.975391,28.207031
17.767800,-0.227131,-1.410244,-0.015650,0.447600,-4.611232,-0.239420,8.470685,-0.508699,0.930132,0.544883,-1.406250,37.742578,29.226562
17.869756,0.019743,-1.400847,0.105288,0.401471,-5.042189,-0.713472,7.517793,0.440589,-0.309689,-0.187303,-1.406250,37.742578,29.226562
17.971448,0.013473,-1.347086,0.099311,0.384155,-9.955091,-1.968034,2.681506,0.672590,-1.582501,-0.054275,-4.394531,34.744336,32.115234
18.072538,0.147711,-1.379821,0.025846,0.310229,-3.720589,0.201113,7.206547,1.351565,-1.240885,0.188368,-8.964844,28.747852,33.134766
18.174371,-0.095286,-1.424685,-0.057087,0.353420,-2.748544,0.584185,9.107543,0.275634,0.558718,-0.218166,-8.964844,28.747852,33.134766
18.275692,-0.137145,-1.459081,-0.105942,0.251521,-1.642422,0.909797,9.485827,0.120257,0.000000,0.090459,-8.964844,28.747852,33.134766
18.376705,-0.305242,-1.518038,-0.075613,0.336157,-3.524265,1.618480,9.567230,0.125578,0.318203,-0.135156,-13.710938,26.807813,35.003906
18.478237,-0.311762,-1.533757,-0.177781,0.342859,-2.561796,2.092532,9.069236,0.361836,-0.214973,0.045762,-15.644531,28.395117,34.494141
18.579331,-0.275951,-1.621220,-0.307818,0.251270,-2.111686,2.892196,9.773131,1.248335,-0.437396,0.112808,-15.644531,28.395117,34.494141
18.681705,-0.509323,-1.760179,-0.478050,0.152877,0.119710,3.864241,10.036493,2.974507,0.063853,0.253285,-27.773438,28.571484,25.828125
18.782982,-0.085509,-1.851012,-0.664759,0.206099,-2.528277,5.640739,6.177040,1.231307,0.249028,0.423561,-43.242188,29.629687,10.195312
18.884793,-0.031584,-2.024499,-0.782841,0.109321,-1.934515,8.992621,6.799533,0.183047,-0.048954,0.440589,-43.242188,29.629687,10.195312
18.986716,-0.039170,-2.280015,-0.765326,-0.079735,-1.599327,8.015787,6.708553,-0.001064,-0.027670,-0.014899,-44.824219,25.573242,6.626953
19.087948,-0.188714,-2.517071,-0.690731,-0.263920,-1.240196,6.502652,5.923255,-0.674718,-0.076624,-0.013835,-44.824219,25.573242,6.626953
19.189555,-0.397204,-2.587359,-0.502014,-0.228844,-1.417367,6.607997,7.987057,-2.574358,-0.730058,0.086202,-43.945312,23.280469,7.816406
19.291431,-0.552927,-2.598913,-0.332560,-0.116929,-2.394202,3.720589,8.619126,-1.198317,-0.714094,0.361836,-31.464844,19.576758,22.259766
19.392734,-0.015769,-2.650817,-0.142392,-0.150948,0.699107,3.471592,10.591948,-0.423561,-0.720480,0.454424,-19.863281,9.347461,27.017578
19.494123,-0.543973,-2.764613,-0.041323,-0.166878,0.857124,2.327164,9.227253,-0.017028,-0.403341,0.084074,-15.996094,0.529102,30.755859
19.596037,-0.400233,-2.855175,0.124005,-0.124874,1.053449,3.074155,9.078813,-0.120257,-1.031233,0.139413,-13.359375,-8.465625,30.585938
19.697685,-0.409997,-3.020143,0.221493,-0.056881,2.049437,2.896984,10.572795,-0.525727,-0.086202,-0.074496,-13.359375,-8.465625,30.585938
19.799193,-0.340663,3.097290,0.286431,0.017109,2.585738,2.461239,9.117120,-0.104294,0.042569,-0.074496,-15.468750,-20.105859,30.246094
19.900081,-0.468072,2.928515,0.335274,0.022520,2.528277,3.342306,9.026140,0.095780,-0.092588,0.011706,-17.753906,-21.340430,30.755859
20.001630,-0.532278,2.764403,0.349561,0.048875,2.001553,2.882619,9.006987,0.056404,-0.025541,0.210716,-20.566406,-24.162305,29.396484
20.103597,-0.616356,2.601121,0.410888,0.053360,3.155558,3.050213,9.356540,-0.038312,-0.175597,0.030863,-19.160156,-24.515039,27.697266
20.205789,-0.681787,2.443576,0.402624,0.078304,3.093309,2.408567,9.217676,-0.035119,-0.036184,0.007450,-21.621094,-31.569727,26.677734
20.307333,-0.655802,2.285795,0.426241,0.064735,2.590526,3.811569,9.241618,0.114936,0.040441,-0.048954,-21.621094,-31.569727,26.677734
20.408840,-0.090994,2.188031,0.438211,0.038617,2.796428,3.275268,8.935161,-0.061725,-0.027670,-0.141542,-21.269531,-30.511523,28.716797
20.510983,-0.281460,2.204751,0.407977,0.084612,2.916138,2.949656,9.169792,0.024477,-0.019156,-0.015963,-21.269531,-30.511523,28.716797
20.612103,-0.379035,2.190124,0.439084,0.067316,2.987964,2.992752,8.949526,-0.022349,0.014899,0.001064,-21.445312,-31.746094,31.265625
20.713813,-0.219092,2.242114,0.424273,0.056269,3.064578,2.944868,9.083601,-0.018092,0.009578,0.002128,-22.324219,-29.453320,31.775391
20.815527,-0.406514,2.192555,0.434302,0.057127,2.887407,3.131616,9.054871,-0.007450,0.030863,0.009578,-20.566406,-30.511523,31.775391
20.916671,-0.054970,2.189433,0.420243,0.061650,2.916138,2.964022,9.117120,-0.012771,0.027670,-0.008514,-20.742188,-31.040625,33.304688
21.018609,-0.738345,2.209466,0.416017,0.068722,3.011906,2.935291,9.093178,-0.018092,0.012771,-0.002128,-21.796875,-31.040625,32.285156
21.120662,-0.800072,2.229249,0.439087,0.065273,3.007117,2.949656,8.983045,-0.018092,0.008514,0.001064,-22.675781,-30.511523,32.794922
21.222218,-0.607625,2.212676,0.427326,0.072299,3.011906,2.930503,9.083601,-0.020220,0.014899,-0.004257,-20.566406,-29.806055,32.115234
21.323897,-0.498026,2.205315,0.430722,0.056096,3.011906,2.959233,9.040505,-0.015963,0.013835,-0.005321,-20.566406,-29.806055,32.115234
21.425380,-0.423220,2.214138,0.427518,0.090329,3.394978,2.499547,8.786720,0.005321,0.012771,-0.050019,-21.972656,-30.511523,31.095703
21.527343,-0.392111,2.178844,0.421050,0.075665,2.729390,2.652775,9.054871,-0.038312,0.017028,-0.011706,-21.445312,-32.451563,30.925781
21.629416,-0.355040,2.180238,0.417573,0.071648,2.853888,2.868254,9.045294,-0.018092,0.018092,-0.012771,-21.445312,-32.451563,30.925781
21.731438,-0.365834,2.182509,0.417843,0.071199,2.930503,2.882619,9.078813,-0.003193,0.012771,-0.001064,-20.917969,-31.922461,32.115234
21.832753,-0.480404,2.217141,0.421856,0.060834,2.940080,2.896984,9.059659,-0.017028,0.012771,0.000000,-22.324219,-30.864258,33.134766
21.934561,-0.709456,2.207770,0.412277,0.069754,2.959233,2.858677,9.083601,-0.018092,0.012771,-0.001064,-22.148438,-31.393359,30.585938
22.036114,-0.390310,2.202878,0.411290,0.063881,2.930503,2.829946,9.078813,-0.018092,0.014899,-0.003193,-21.972656,-31.922461,31.775391
22.138565,-0.899176,2.183743,0.429350,0.085805,2.997540,2.882619,9.011775,-0.011706,0.012771,0.000000,-20.390625,-30.687891,32.964844
22.239048,-0.440944,2.193907,0.413587,0.065844,2.964022,2.877830,9.150639,-0.015963,0.009578,-0.003193,-20.390625,-30.687891,32.964844
22.340613,-0.316195,2.196202,0.423980,0.066517,2.954445,2.877830,9.074024,-0.017028,0.012771,-0.001064,-21.093750,-30.335156,32.285156
22.442301,-0.646739,2.209246,0.420626,0.058055,2.954445,2.911349,9.054871,-0.014899,0.011706,-0.003193,-21.093750,-30.335156,32.285156
22.543673,-0.280939,2.208980,0.430008,0.061689,2.992752,2.916138,9.030929,-0.023413,0.010642,0.000000,-21.093750,-30.335156,32.285156
22.645089,-0.661620,2.216644,0.428961,0.066943,2.935291,2.887407,9.016563,-0.011706,0.008514,0.002128,-23.203125,-31.746094,31.945312
22.747044,-0.680242,2.183843,0.424883,0.085539,2.954445,2.906561,9.002198,-0.017028,0.013835,0.000000,-20.566406,-30.511523,31.775391
22.848921,-0.642095,2.211598,0.441920,0.066372,3.031059,2.978387,9.026140,-0.015963,0.013835,-0.001064,-21.972656,-30.864258,33.134766
22.950411,-0.230599,2.209310,0.436268,0.072830,3.074155,2.983175,9.102755,-0.018092,0.008514,0.001064,-21.621094,-30.511523,33.134766
23.052112,-0.593665,2.225090,0.427760,0.066099,2.992752,2.916138,9.030929,-0.018092,0.011706,0.000000,-22.148438,-29.982422,32.964844
23.153980,-0.117020,2.207817,0.414044,0.061492,2.906561,2.858677,9.050082,-0.015963,0.007450,-0.003193,-21.972656,-31.216992,33.134766
23.255393,-0.458992,2.213159,0.437669,0.064995,3.011906,2.911349,9.141062,-0.020220,0.012771,0.002128,-21.972656,-31.216992,33.134766
23.357698,-0.549869,2.230907,0.412012,0.063656,2.978387,2.767697,9.045294,0.008514,0.046826,-0.037248,-22.148438,-30.687891,30.925781
23.458731,-0.486958,2.203167,0.423285,0.081187,3.050213,2.748544,8.930372,-0.036184,0.002128,0.001064,-21.796875,-31.040625,31.265625
23.561647,-0.619006,2.217907,0.430121,0.061637,3.007117,2.935291,9.030929,-0.007450,0.010642,-0.004257,-21.972656,-30.511523,31.435547
23.662768,-0.503569,2.194662,0.423142,0.069678,2.944868,2.916138,9.078813,-0.018092,0.013835,-0.001064,-20.214844,-30.158789,32.455078
23.764502,-0.113855,2.196864,0.430900,0.068598,3.026271,2.901772,9.064447,-0.019156,0.011706,-0.001064,-20.214844,-30.158789,32.455078
23.866051,-0.508324,2.210856,0.432178,0.066685,2.992752,2.964022,8.983045,-0.013835,0.010642,-0.001064,-21.796875,-31.040625,31.945312
23.967458,-0.599354,2.210095,0.420531,0.082184,3.021482,2.810793,9.121908,-0.017028,0.009578,-0.001064,-21.796875,-30.687891,31.945312
24.069834,-0.229079,2.200517,0.424981,0.077332,2.992752,2.940080,9.050082,-0.020220,0.011706,-0.001064,-21.796875,-30.687891,31.945312
24.171827,-0.378013,2.213380,0.426918,0.070253,2.997540,2.849100,9.169792,-0.013835,0.013835,0.001064,-21.796875,-30.687891,31.945312
24.273440,-0.296745,2.211480,0.426109,0.059718,3.011906,2.882619,9.074024,-0.021284,0.009578,0.003193,-21.972656,-31.569727,32.794922
24.375462,-0.288813,2.204592,0.432573,0.070591,2.992752,2.882619,9.050082,-0.019156,0.009578,-0.001064,-21.972656,-31.569727,32.794922
24.477671,-0.564367,2.187292,0.422540,0.084847,3.011906,2.873042,9.040505,-0.014899,0.014899,0.001064,-20.566406,-30.511523,30.755859
24.580257,-0.538697,2.199828,0.435280,0.070599,3.016694,2.916138,9.064447,-0.017028,0.009578,-0.004257,-21.269531,-30.864258,31.435547
24.682387,-0.405484,2.216797,0.414767,0.073862,3.035848,2.863465,9.222465,-0.019156,0.012771,-0.002128,-22.500000,-32.098828,32.625000
24.783907,-0.545651,2.205376,0.417630,0.061828,2.911349,2.834735,9.088390,-0.020220,0.010642,-0.002128,-21.445312,-31.040625,32.625000
24.885216,-0.481077,2.176565,0.402784,0.084146,3.035848,2.863465,9.193734,-0.017028,0.011706,0.002128,-20.917969,-32.275195,31.775391
24.987730,-0.361458,2.201555,0.425025,0.060536,2.911349,2.896984,9.045294,-0.015963,0.010642,0.001064,-21.269531,-29.806055,32.794922
25.090064,-0.335451,2.210700,0.422371,0.072967,2.983175,2.901772,9.121908,-0.017028,0.008514,-0.001064,-21.269531,-29.806055,32.794922
25.192450,-0.654604,2.206265,0.434688,0.064522,3.045425,2.925714,9.021352,-0.015963,0.011706,-0.001064,-21.269531,-30.864258,32.115234
25.294425,-0.430453,2.169552,0.412912,0.084318,2.968810,2.839523,9.169792,-0.015963,0.009578,0.000000,-20.566406,-32.275195,31.435547
25.396559,-0.574720,2.163362,0.418155,0.090942,2.983175,2.863465,9.102755,-0.017028,0.010642,0.002128,-20.566406,-32.275195,31.435547
25.498367,-0.505635,2.197516,0.425286,0.070695,3.026271,2.949656,9.078813,-0.015963,0.012771,-0.004257,-21.269531,-31.216992,33.134766
25.601047,-0.357338,2.157141,0.428967,0.072701,2.906561,3.002329,8.978256,-0.020220,0.014899,0.001064,-20.214844,-32.627930,31.775391
25.703089,-0.229078,2.159873,0.419327,0.084844,2.901772,2.920926,9.069236,-0.015963,0.010642,-0.003193,-20.214844,-32.627930,31.775391
25.805231,-0.328703,2.194664,0.419288,0.064540,2.949656,2.896984,9.150639,-0.017028,0.008514,0.002128,-20.917969,-30.511523,33.474609
25.907742,-0.379820,2.206430,0.429291,0.061159,3.031059,2.916138,9.145850,-0.013835,0.014899,-0.001064,-20.917969,-30.511523,33.474609
26.011128,0.064717,2.198618,0.419852,0.075870,3.021482,2.801216,9.074024,-0.017028,0.010642,0.000000,-21.093750,-30.687891,32.285156
26.111639,-0.367426,2.209854,0.413290,0.069441,2.944868,2.820370,9.145850,-0.014899,0.012771,-0.004257,-21.269531,-30.158789,32.455078
26.214555,-0.203720,2.205866,0.436869,0.062430,3.031059,2.925714,9.040505,-0.014899,0.009578,-0.006385,-22.500000,-32.451563,31.265625
26.316325,-0.060843,2.231373,0.430911,0.051904,2.992752,2.949656,9.097966,-0.018092,0.007450,0.002128,-23.203125,-31.393359,32.964844
26.417970,-0.181699,2.232273,0.430561,0.069549,3.074155,2.844312,8.987833,-0.011706,0.013835,-0.005321,-21.796875,-29.276953,32.285156
26.519793,-0.432424,2.191605,0.427686,0.067283,2.954445,2.940080,9.002198,-0.021284,0.011706,-0.003193,-21.269531,-31.216992,31.095703
26.621776,-0.406364,2.201965,0.413802,0.061398,2.935291,2.839523,9.069236,-0.008514,0.015963,-0.007450,-21.269531,-31.216992,32.115234
26.723451,-0.405059,2.214464,0.421763,0.066338,3.007117,2.839523,9.040505,0.001064,0.027670,-0.010642,-21.269531,-29.453320,32.115234
26.826054,-0.318222,2.227058,0.421168,0.060982,2.968810,2.882619,9.160216,-0.007450,0.029798,-0.001064,-21.269531,-29.453320,32.115234
26.927947,-0.442296,2.208815,0.417727,0.074811,2.968810,2.901772,9.093178,-0.006385,0.024477,-0.006385,-21.796875,-31.393359,32.964844
27.029416,-0.233240,2.198028,0.424017,0.085506,2.983175,2.853888,9.059659,-0.018092,0.011706,0.014899,-21.796875,-31.393359,32.964844
27.131547,-0.424982,2.185690,0.414451,0.075082,2.959233,2.887407,9.112332,-0.001064,0.021284,-0.012771,-21.621094,-31.922461,31.095703
27.234322,-0.479802,2.171978,0.414673,0.072418,2.930503,2.920926,9.131485,-0.024477,0.014899,-0.002128,-19.863281,-31.216992,32.455078
27.335260,-0.434123,2.175650,0.441581,0.083100,3.021482,2.983175,9.050082,-0.017028,0.006385,-0.001064,-20.566406,-31.216992,32.115234
27.437543,-0.360865,2.176999,0.429565,0.079971,2.992752,2.877830,9.150639,-0.018092,0.012771,0.001064,-20.742188,-31.393359,31.265625
27.540587,-0.251784,2.192270,0.417665,0.075304,3.021482,2.858677,9.160216,-0.020220,0.011706,-0.003193,-21.269531,-31.569727,32.455078
27.642647,-0.033333,2.187898,0.423932,0.080275,2.968810,2.868254,9.102755,-0.011706,0.017028,0.006385,-21.269531,-31.569727,32.455078
27.744553,-0.321118,2.191222,0.415889,0.070428,2.944868,2.868254,9.054871,-0.007450,0.020220,-0.001064,-20.566406,-30.864258,32.794922
27.846725,-0.303567,2.202143,0.422692,0.091559,3.035848,2.748544,9.040505,-0.018092,0.014899,-0.003193,-21.445312,-31.040625,31.265625
27.946779,-0.299511,2.195779,0.426088,0.075695,3.011906,2.882619,9.040505,-0.015963,0.008514,0.003193,-21.445312,-31.040625,31.265625
28.050015,-0.401801,2.189666,0.428745,0.065634,3.002329,2.949656,9.074024,-0.013835,0.009578,0.003193,-21.621094,-32.627930,33.474609
28.152773,-0.542432,2.182544,0.419750,0.069682,2.964022,2.930503,9.141062,0.001064,0.027670,-0.015963,-21.445312,-32.451563,30.925781
28.253337,-0.205863,2.185595,0.424944,0.067790,2.992752,2.940080,9.126697,-0.021284,0.007450,0.005321,-20.214844,-30.864258,32.115234
28.356493,-0.287129,2.161408,0.422321,0.076324,2.954445,2.954445,9.131485,-0.004257,0.022349,-0.005321,-19.511719,-30.864258,31.775391
28.457520,-0.339120,2.198580,0.421407,0.078912,3.045425,2.887407,9.212888,-0.019156,0.011706,-0.001064,-21.093750,-30.687891,31.945312
28.559798,-0.322537,2.193169,0.419306,0.073403,2.983175,2.849100,9.093178,-0.031927,-0.001064,0.011706,-21.093750,-30.687891,31.945312
28.662284,-0.169402,2.195635,0.433865,0.084343,3.078943,2.916138,9.131485,-0.005321,0.018092,0.001064,-21.093750,-30.687891,31.945312
28.767248,-0.119390,2.144484,0.411831,0.098252,2.949656,2.849100,9.011775,-0.021284,0.009578,0.001064,-19.160156,-31.922461,32.115234
28.869488,-0.365840,2.212899,0.423357,0.071736,3.078943,2.873042,9.203311,-0.012771,0.018092,-0.004257,-20.742188,-30.335156,32.625000
28.971981,-0.178655,2.191352,0.437018,0.078078,3.002329,2.882619,9.054871,-0.012771,0.013835,0.002128,-21.269531,-30.864258,31.095703
29.074439,-0.408595,2.201739,0.432031,0.090260,3.117251,2.829946,9.006987,-0.022349,0.008514,0.001064,-21.269531,-30.864258,31.095703
29.178681,-0.599370,2.201078,0.427082,0.076669,3.083732,2.983175,9.074024,-0.008514,0.014899,-0.005321,-21.093750,-31.040625,32.285156
29.278739,-0.264114,2.220682,0.427575,0.055294,2.983175,2.882619,9.040505,-0.012771,0.015963,-0.003193,-21.621094,-30.158789,31.775391
29.380798,-0.141106,2.185954,0.425237,0.087272,3.122039,2.858677,9.102755,-0.035119,-0.008514,0.007450,-20.742188,-32.098828,31.605469
29.482111,-0.256185,2.175089,0.415779,0.079502,2.992752,2.868254,9.145850,-0.018092,0.003193,0.006385,-20.742188,-32.098828,31.605469
29.585669,-0.087007,2.166431,0.417123,0.083703,2.906561,2.920926,8.987833,-0.032991,0.019156,0.003193,-20.742188,-32.098828,31.605469
29.688760,-0.474847,2.184018,0.430586,0.091584,2.992752,2.858677,8.959103,-0.025541,0.001064,0.011706,-20.390625,-31.040625,32.625000
29.792416,-0.283203,2.198170,0.417160,0.087933,3.126827,2.762909,9.184158,-0.017028,0.000000,0.001064,-20.566406,-30.158789,32.455078
29.893367,-0.380836,2.172443,0.425186,0.099354,3.078943,2.863465,9.097966,-0.020220,0.010642,-0.001064,-20.742188,-31.746094,30.585938
29.994720,-0.479708,2.201902,0.418033,0.077048,3.016694,2.820370,9.093178,-0.009578,0.012771,-0.004257,-21.796875,-31.393359,32.285156
30.097239,-0.241412,2.192565,0.421589,0.059880,2.877830,2.983175,9.112332,-0.010642,0.020220,-0.012771,-21.269531,-31.216992,32.794922
30.200412,0.040434,2.205781,0.424887,0.065395,3.035848,2.882619,9.083601,-0.018092,0.011706,0.001064,-20.742188,-30.335156,31.605469
30.303101,-0.193579,2.196055,0.415855,0.088522,3.045425,2.829946,9.107543,-0.018092,0.011706,-0.001064,-21.445312,-31.393359,32.625000
30.404307,-0.090745,2.197970,0.406254,0.071115,2.935291,2.834735,9.131485,-0.015963,0.008514,-0.002128,-21.445312,-31.393359,32.625000
30.509519,-0.268834,2.187397,0.425175,0.098550,3.160346,2.806004,9.093178,-0.019156,0.006385,0.003193,-20.917969,-31.569727,33.474609
30.609388,-0.497083,2.183158,0.416350,0.089125,2.983175,2.863465,9.059659,-0.019156,0.003193,0.000000,-20.917969,-31.569727,33.474609
30.711659,-0.138470,2.174365,0.421316,0.089706,2.978387,2.868254,9.112332,-0.019156,0.011706,-0.005321,-20.039062,-30.687891,31.605469
30.811825,-0.457665,2.221742,0.436875,0.082862,3.088520,2.858677,9.002198,-0.020220,0.009578,0.002128,-22.148438,-30.335156,33.304688
30.913495,-0.357793,2.217643,0.430450,0.054225,2.954445,2.920926,9.074024,-0.011706,0.013835,-0.002128,-21.093750,-29.629687,32.285156
31.014812,-0.314003,2.217187,0.411031,0.066909,2.940080,2.825158,9.050082,-0.021284,0.013835,-0.004257,-21.093750,-29.629687,32.285156
31.116430,-0.331582,2.191713,0.424303,0.062910,2.930503,2.868254,9.093178,-0.019156,0.007450,-0.002128,-20.917969,-31.216992,32.455078
31.217872,-0.038298,2.226257,0.422258,0.062742,3.011906,2.858677,9.107543,-0.011706,0.010642,0.001064,-21.796875,-29.982422,32.285156
31.319723,-0.029459,2.222357,0.424681,0.070594,3.007117,2.839523,9.097966,-0.013835,0.006385,0.002128,-21.796875,-29.982422,32.285156
31.421232,-0.752586,2.230935,0.427219,0.073744,3.035848,2.896984,9.050082,-0.015963,0.012771,-0.001064,-22.851562,-30.687891,32.625000
31.522449,-0.356536,2.186366,0.426528,0.078641,3.045425,2.925714,9.035717,-0.013835,0.011706,-0.001064,-21.269531,-31.922461,33.134766
31.623913,-0.494709,2.193048,0.423028,0.074925,2.992752,2.853888,9.011775,-0.013835,0.012771,-0.001064,-21.269531,-31.922461,33.134766
31.725450,0.102534,2.186759,0.425288,0.071223,2.987964,2.940080,9.107543,-0.014899,0.014899,-0.002128,-21.093750,-31.746094,31.945312
31.827416,-0.229487,2.194287,0.424174,0.070102,3.002329,2.978387,9.203311,-0.019156,0.011706,-0.001064,-21.269531,-31.569727,32.794922
31.929375,0.080373,2.204854,0.427196,0.085636,3.069367,2.863465,9.088390,-0.014899,0.010642,0.001064,-21.621094,-30.864258,32.455078
32.030501,-0.450603,2.196881,0.416976,0.078463,3.002329,2.844312,9.165004,-0.019156,0.012771,0.003193,-20.390625,-32.098828,32.625000
32.132061,-0.122527,2.169062,0.414921,0.094588,3.064578,2.820370,9.193734,-0.021284,0.011706,0.001064,-20.390625,-32.098828,32.625000
32.234238,-0.199167,2.180785,0.416066,0.080200,3.031059,2.863465,9.088390,-0.014899,0.012771,-0.001064,-20.390625,-32.098828,32.625000
32.336592,0.008594,2.154031,0.423687,0.099257,3.050213,2.911349,9.150639,-0.014899,0.011706,-0.001064,-19.511719,-31.569727,32.115234
32.438158,-0.107941,2.202922,0.417477,0.079578,2.997540,2.863465,9.097966,-0.015963,0.013835,-0.003193,-21.445312,-30.335156,31.945312
32.540096,-0.214279,2.180451,0.430656,0.076331,3.016694,2.997540,9.136274,-0.019156,0.011706,-0.003193,-20.390625,-31.040625,32.964844
32.641558,0.026405,2.191520,0.410007,0.089002,3.021482,2.806004,9.093178,-0.015963,0.011706,-0.001064,-20.390625,-31.040625,32.964844
32.743302,-0.586679,2.211951,0.423403,0.069761,3.021482,2.858677,9.088390,-0.012771,0.011706,-0.002128,-21.445312,-30.335156,32.625000
32.844536,0.035252,2.214970,0.423557,0.064119,2.978387,2.882619,9.102755,-0.015963,0.011706,-0.001064,-21.445312,-30.335156,32.625000
32.946503,-0.129471,2.174558,0.409733,0.080324,2.978387,2.806004,9.131485,-0.018092,0.013835,-0.001064,-18.457031,-29.453320,32.115234
33.048332,0.015366,2.166926,0.410916,0.102470,3.011906,2.810793,9.083601,-0.017028,0.013835,0.000000,-18.457031,-29.453320,32.115234
33.150259,-0.328350,2.176981,0.413313,0.086565,2.944868,2.782062,9.030929,-0.020220,0.019156,-0.050019,-19.863281,-31.216992,32.115234
33.252102,-0.493509,2.193117,0.440209,0.077219,3.428497,3.366248,9.883264,-0.002128,0.004257,-0.011706,-20.566406,-30.511523,32.455078
33.354276,-0.278529,2.209701,0.407399,0.068126,2.968810,2.806004,9.030929,-0.020220,0.009578,0.000000,-21.269531,-30.864258,33.134766
33.455731,-0.378880,2.198941,0.421385,0.087775,3.007117,2.839523,9.097966,-0.027670,0.051083,0.014899,-21.269531,-30.864258,33.134766
33.557694,-0.193264,2.187957,0.438765,0.069035,3.083732,3.165135,9.097966,0.120257,0.040441,0.004257,-20.390625,-31.393359,33.304688
33.659251,-0.290468,2.180125,0.396406,0.089625,5.889736,2.619257,9.658209,-0.111744,0.013835,-0.052147,-20.390625,-31.393359,33.304688
33.761760,-0.098836,2.217219,0.410463,0.063741,2.892196,2.767697,9.030929,-0.022349,0.005321,-0.004257,-20.917969,-29.453320,31.095703
33.863163,-0.471336,2.177613,0.444762,0.140348,3.179500,3.519476,8.437167,0.051083,-0.092588,0.227744,-19.160156,-31.216992,34.154297
33.964400,-0.026969,2.163844,0.434177,0.067263,2.877830,3.002329,8.825027,0.038312,0.048954,0.023413,-20.566406,-32.275195,29.396484
34.066050,-0.120754,2.132069,0.369042,0.049233,2.691083,2.269703,9.557653,-0.125578,-0.041505,-0.023413,-19.687500,-32.804297,31.605469
34.167635,-0.441598,2.173764,0.402946,0.049987,2.667141,3.002329,9.227253,0.026606,-0.038312,0.018092,-21.093750,-30.335156,32.625000
34.268685,-0.468660,2.199364,0.423668,0.080779,3.797204,3.083732,9.093178,-0.186239,0.072367,0.041505,-20.742188,-31.040625,33.644531
34.370402,0.037096,2.195484,0.394375,0.073172,2.858677,2.691083,9.437943,0.071303,0.060661,-0.067046,-20.742188,-31.040625,33.644531
34.471906,-0.149202,2.172643,0.419096,0.091204,3.112462,2.882619,9.275137,-0.268185,-0.009578,0.034055,-19.863281,-30.864258,32.794922
34.573760,-0.471603,2.197336,0.391436,0.094209,2.896984,2.504335,8.920795,-0.100037,-0.055340,0.111744,-20.390625,-30.687891,32.964844
34.675454,0.107065,2.170945,0.395205,0.072524,3.457227,3.921702,11.271901,0.294790,0.042569,-0.138349,-20.214844,-32.275195,34.154297
34.777530,-0.293352,2.226573,0.328174,-0.035735,1.929727,2.944868,10.658986,0.011706,1.192995,-0.266056,-20.039062,-25.044141,33.644531
34.878755,-0.328043,2.281505,0.236839,-0.091541,1.024718,1.728614,7.110779,-0.340552,1.035490,-0.017028,-14.589844,-6.878320,35.173828
34.981067,0.033261,2.350322,0.148305,-0.221546,-0.809240,2.231396,9.126697,-0.925875,0.541690,0.102166,-8.789062,3.880078,35.003906
35.082688,-0.431741,2.403294,0.140396,-0.149383,5.046977,-1.781286,10.007763,-0.260735,0.097909,0.122386,-2.285156,5.114648,34.833984
35.184308,-0.673928,2.406459,0.088573,-0.207103,-4.065354,3.509900,6.828263,0.739636,-0.254350,-0.431011,-2.285156,5.114648,34.833984
35.285781,-0.093712,2.408453,0.075526,-0.155671,-0.368707,1.110910,9.294291,-0.451231,0.176661,0.092588,-5.800781,4.056445,34.154297
35.387251,-0.148263,2.464703,0.085409,-0.197441,-1.086968,0.885855,9.667786,-0.109615,-0.214973,-0.020220,-6.679688,8.465625,35.683594
35.489359,-0.507382,2.498784,0.099941,-0.186042,-0.397437,2.116474,11.386823,-0.160698,0.124514,-0.143670,-3.867188,7.054688,36.363281
35.590898,-0.487358,2.467843,0.058763,-0.159731,-0.488417,0.943315,10.496180,0.035119,0.359708,-0.417176,-3.867188,7.054688,36.363281
35.693766,-0.308735,2.470099,0.114132,-0.188448,-0.067038,0.718260,7.987057,-0.068110,-0.153248,-0.045762,-6.855469,15.343945,36.193359
35.796123,-0.339580,2.546375,0.164896,-0.231166,0.689530,-0.215478,9.198523,-0.199010,-0.036184,-0.102166,-5.800781,15.696680,34.494141
35.898050,-0.277945,2.618417,0.126334,-0.258172,-0.445322,0.497994,9.763554,-0.087266,-0.108551,-0.111744,-5.800781,15.696680,34.494141
35.999386,-0.426523,2.728615,0.122105,-0.250701,-0.100556,0.727837,10.912771,-0.045762,-0.092588,-0.036184,-4.042969,13.227539,35.513672
36.100958,-0.355346,2.811872,0.108634,-0.234339,-0.052672,0.995988,9.844957,0.078753,0.011706,0.043633,-4.042969,13.227539,35.513672
36.202218,-0.582557,2.908572,0.028919,-0.255258,-1.082179,1.537077,10.180145,-0.058532,0.199010,-0.078753,-5.273438,13.051172,36.363281
36.304211,-0.173863,2.963897,0.000534,-0.225594,-1.187524,0.852336,9.193734,-0.493800,0.325653,0.224551,-5.273438,13.051172,36.363281
36.405698,-0.084406,3.043902,0.074774,-0.247830,-0.220267,0.699107,10.874464,-0.316075,0.047890,-0.421433,-2.988281,18.165820,37.552734
36.507296,-0.465448,3.063782,0.051403,-0.233621,-1.326388,0.014365,10.108319,-0.409726,0.437396,-0.665140,-0.527344,19.929492,37.552734
36.608842,-0.188390,3.101450,0.150072,-0.265159,0.497994,-0.316035,8.590396,-0.129835,-0.098973,-0.444846,1.054688,26.102344,36.023438
36.710496,-0.300227,-3.068249,0.176782,-0.287037,-0.086191,-0.598550,9.572018,0.286276,-0.229872,0.001064,1.230469,25.220508,36.533203
36.813240,-0.443202,-2.957741,0.135805,-0.298852,-0.660800,-0.191536,9.835380,0.342680,-0.284148,-0.104294,1.230469,25.220508,36.533203
36.915075,-0.105777,-2.860548,0.094907,-0.297248,-0.483629,-0.028730,10.184934,0.224551,-0.262863,0.024477,1.230469,25.220508,36.533203
37.016728,-0.589664,-2.780365,0.023719,-0.222817,-0.809240,0.565032,9.830592,0.168147,-0.114936,0.172404,-2.812500,18.342187,36.703125
37.118852,-0.493985,-2.642087,-0.012145,-0.178683,-0.301669,0.344765,10.295067,0.109615,-0.245836,0.151120,-5.800781,17.460352,36.873047
37.220575,-0.539292,-2.523227,-0.029565,-0.126825,0.143652,0.775721,10.256760,0.034055,0.039376,0.188368,-6.679688,13.051172,36.363281
37.322612,-0.388685,-2.391848,-0.080264,-0.071761,-0.521936,0.780510,10.079589,0.028734,0.106422,0.058532,-7.031250,12.698437,34.664062
37.424782,-0.374188,-2.290872,-0.071420,-0.051528,-0.229843,0.751779,9.945514,-0.085138,0.162826,-0.025541,-7.031250,12.698437,34.664062
37.526621,-0.616760,-2.218220,-0.062619,-0.047103,-0.086191,0.694318,9.888053,-0.044697,0.040441,-0.010642,-7.734375,14.814844,37.382812
37.629080,-0.258020,-2.134492,-0.060704,-0.034473,-0.138864,0.636858,9.667786,0.035119,-0.001064,-0.022349,-7.558594,15.696680,34.154297
37.729973,-0.548369,-2.060710,-0.083959,-0.020647,-0.344765,0.742203,9.677363,-0.009578,-0.005321,-0.002128,-7.558594,15.696680,34.154297
37.832326,-0.141649,-2.013117,-0.107482,0.007263,-0.746991,0.809240,9.706094,0.039376,-0.011706,-0.010642,-7.031250,15.520312,35.343750
37.934206,-0.401531,-1.982128,-0.083821,-0.000617,-0.435745,0.708684,10.189722,-0.025541,0.045762,-0.012771,-5.976562,14.109375,35.003906
38.035457,-0.302731,-1.990756,-0.101708,0.019708,-0.488417,0.804452,9.974244,-0.027670,0.040441,0.008514,-7.382812,16.225781,36.363281
38.137928,-0.510656,-2.005937,-0.087941,0.014927,-0.450110,0.766145,9.907206,-0.012771,0.010642,-0.023413,-7.734375,15.520312,34.324219
38.239265,-0.133703,-2.013038,-0.107005,-0.014096,-0.416591,0.986411,9.816227,0.051083,-0.009578,-0.046826,-6.679688,15.520312,34.324219
38.342185,-0.154151,-1.989234,-0.106478,0.010503,-0.665588,0.943315,10.692505,-0.061725,0.035119,-0.175597,-6.679688,15.520312,34.324219
38.443713,-0.098242,-2.001062,-0.178087,0.022775,-1.005565,1.647211,10.615890,-0.056404,0.056404,-1.206830,-7.734375,17.283984,38.062500
38.545366,-0.410090,-2.156268,-0.151932,-0.107998,1.335965,1.814805,9.964667,0.280955,0.086202,-1.865585,-7.734375,17.283984,38.062500
38.647210,-0.288813,-2.307945,-0.128321,-0.081752,-0.354342,1.168370,7.939173,-0.180918,-0.022349,-1.183417,-14.062500,24.691406,35.683594
38.748748,-0.589841,-2.280198,-0.044255,-0.045213,0.234632,0.081403,10.309432,0.056404,0.201138,-0.355451,-18.281250,29.276953,31.265625
38.850172,-0.334903,-2.192921,-0.071704,-0.022968,0.201113,0.727837,9.739612,0.164955,0.156441,0.070239,-20.917969,30.158789,31.095703
38.951970,-0.538594,-2.180599,-0.131116,0.008556,-0.995988,1.134852,10.481815,-0.076624,0.105358,0.125578,-20.917969,30.158789,31.095703
39.053549,-0.537076,-2.105774,-0.143027,0.053704,-1.661576,0.694318,9.461885,-0.167083,0.113872,0.537433,-20.390625,33.509766,29.226562
39.155658,-0.476852,-2.040776,-0.101738,0.056946,-1.335965,0.469264,9.074024,-0.137285,0.279891,0.772627,-17.929688,31.746094,29.566406
39.257969,-0.388104,-2.006438,-0.114272,0.077805,-2.193089,0.536301,9.083601,-0.126643,0.186239,0.515085,-17.929688,31.746094,29.566406
39.360330,-0.665770,-1.958441,-0.135544,0.119137,-1.575385,0.814029,9.959879,-0.219230,-0.112808,0.520406,-17.929688,31.746094,29.566406
39.461648,-0.649860,-1.923754,-0.097469,0.091201,-1.848324,0.732626,9.533711,0.162826,-0.219230,0.558718,-13.359375,27.866016,33.984375
39.562920,-0.298624,-1.928743,-0.148887,0.095691,-0.967257,1.096544,9.131485,0.138349,0.141542,0.450167,-14.765625,23.985937,33.984375
39.664946,-0.428699,-1.950469,-0.176787,0.145163,-2.207454,0.991199,9.730036,0.077688,-0.150056,-0.011706,-14.238281,22.398633,33.134766
39.766589,-0.410566,-1.990006,-0.157861,0.076778,-0.857124,1.374272,9.931148,-0.127707,0.097909,0.005321,-14.765625,20.811328,32.964844
39.867839,-0.475077,-2.062154,-0.142610,0.057245,-1.206678,0.981623,9.624691,-0.029798,0.090459,0.003193,-13.535156,21.693164,31.775391
39.969745,-0.492680,-2.040909,-0.148155,0.045950,-0.967257,1.182736,9.706094,-0.005321,-0.004257,0.002128,-13.535156,21.693164,31.775391
40.071942,-0.349102,-2.048651,-0.145371,0.075587,-1.216254,1.048660,9.868899,-0.052147,0.072367,0.000000,-13.710938,21.164062,31.945312
40.174230,-0.638752,-2.030004,-0.138965,0.059509,-1.168370,0.952892,9.907206,-0.052147,0.052147,-0.004257,-13.007812,22.575000,32.285156
40.274980,-0.372138,-1.975764,-0.153614,0.089072,-1.355118,0.914585,9.629479,-0.063853,0.057468,0.010642,-13.007812,22.575000,32.285156
40.376763,-0.131285,-1.968292,-0.132959,0.086472,-1.225831,0.905008,10.074801,-0.036184,0.042569,0.006385,-12.832031,22.398633,32.115234
40.478441,-0.190877,-2.002389,-0.154882,0.073678,-1.388637,0.972046,9.792285,-0.010642,0.008514,0.003193,-13.535156,22.045898,30.755859
40.580584,-0.246014,-2.029583,-0.144213,0.084476,-1.297657,0.972046,9.945514,0.003193,-0.019156,0.005321,-14.414062,22.927734,30.925781
40.681851,-0.679012,-2.039091,-0.140484,0.081373,-1.326388,0.905008,9.916783,-0.050019,0.040441,-0.003193,-14.062500,21.516797,32.285156
40.783380,-0.334031,-2.011231,-0.163946,0.058071,-1.182736,1.120486,9.720459,-0.030863,0.022349,0.007450,-13.359375,22.927734,33.644531
40.885481,-0.369501,-1.975791,-0.137835,0.089249,-1.326388,0.919373,9.854534,-0.032991,0.009578,0.000000,-12.656250,22.927734,31.265625
40.987102,-0.253446,-1.965994,-0.137322,0.107555,-1.441309,0.876278,9.715670,-0.032991,0.032991,-0.024477,-13.886719,22.045898,32.794922
41.089330,-0.659174,-2.012750,-0.141564,0.089668,-1.350330,0.914585,9.873688,0.001064,0.002128,0.000000,-13.886719,22.045898,32.794922
41.191054,-0.222912,-1.994433,-0.118531,0.088923,-1.326388,0.861913,9.959879,0.008514,-0.020220,0.011706,-14.238281,24.162305,32.455078
41.293283,-0.021019,-1.995299,-0.127675,0.085024,-1.331176,0.919373,9.993398,0.000000,-0.023413,0.002128,-14.238281,24.162305,32.455078
41.396058,-0.011490,-1.963247,-0.136604,0.082620,-1.331176,0.933739,9.926360,-0.037248,0.036184,-0.007450,-13.007812,23.985937,32.285156
41.497498,-0.416801,-2.008227,-0.147305,0.090975,-1.316811,0.995988,9.787496,-0.044697,0.038312,-0.011706,-13.359375,20.811328,32.964844
41.599508,-0.320398,-1.965142,-0.155010,0.079105,-1.326388,0.991199,9.782708,-0.023413,0.023413,-0.010642,-12.656250,22.222266,31.605469
41.700859,-0.335405,-1.998222,-0.129690,0.080898,-1.355118,0.809240,9.835380,-0.017028,0.045762,-0.015963,-14.414062,23.633203,31.265625
41.802114,-0.132690,-1.938588,-0.135536,0.090130,-1.465251,0.861913,9.739612,-0.011706,-0.026606,0.024477,-13.007812,25.044141,32.625000
41.903557,-0.082513,-2.006337,-0.121127,0.102649,-1.312023,0.761356,9.921572,0.018092,0.030863,0.011706,-14.062500,20.811328,33.644531
42.004713,-0.468496,-1.959479,-0.117890,0.079524,-1.268927,0.857124,9.907206,0.009578,-0.001064,0.035119,-12.656250,22.927734,32.625000
42.106905,-0.414496,-1.964114,-0.118738,0.080396,-1.297657,0.881066,10.079589,-0.054275,0.026606,0.026606,-12.832031,22.398633,32.455078
42.208168,-0.628501,-1.946382,-0.150493,0.080039,-1.379060,0.976834,9.691728,-0.008514,0.017028,-0.002128,-12.304688,22.222266,32.285156
42.309495,-0.187095,-1.965966,-0.142828,0.077558,-1.302446,0.976834,9.825804,0.000000,0.000000,-0.007450,-13.007812,22.222266,32.285156
42.411853,-0.466270,-1.982388,-0.146659,0.065522,-1.240196,1.067814,9.955091,-0.005321,0.006385,-0.008514,-13.007812,22.222266,32.285156
42.513871,-0.278864,-1.981293,-0.139187,0.077250,-1.388637,1.010353,10.036493,0.010642,-0.001064,-0.062789,-13.007812,22.222266,32.285156
42.615432,-0.215422,-1.985565,-0.121499,0.095552,-1.436521,0.890643,10.745177,-0.168147,0.010642,-0.393763,-13.710938,22.927734,32.285156
42.716855,-0.378563,-2.022272,-0.183357,0.131085,-2.245761,1.776498,9.414001,-0.180918,-0.309689,-1.882613,-14.414062,24.338672,33.644531
42.818210,-0.647881,-2.133987,-0.146822,0.025847,-2.092532,1.192312,8.820239,0.157505,-0.105358,-1.710208,-12.656250,27.513281,33.984375
42.920231,-0.639512,-2.172149,-0.050621,-0.010814,-0.110133,-0.239420,9.792285,-0.253285,0.107487,-0.782205,-13.007812,34.920703,34.324219
43.021902,-0.341567,-2.085456,0.000016,-0.027993,-0.814029,-0.646434,9.481039,0.031927,0.092588,-0.143670,-11.953125,38.800781,35.683594
43.123597,-0.130448,-1.947321,0.006766,0.021916,-1.446098,-0.689530,10.012551,-0.001064,0.038312,0.092588,-9.316406,40.388086,33.814453
43.225092,-0.338482,-1.813725,0.001050,0.090966,-1.450886,-0.430956,10.204087,-0.008514,-0.071303,0.428882,-12.128906,40.035352,32.794922
43.326565,-0.257476,-1.759694,-0.011829,0.133771,-1.465251,-0.459687,9.088390,-0.053211,-0.034055,0.780076,-12.128906,40.035352,32.794922
43.428199,-0.432196,-1.670024,0.000545,0.130340,-1.091756,0.043096,10.194511,-0.371414,0.542754,0.951416,-12.128906,40.035352,32.794922
43.530106,-0.478778,-1.670520,-0.079693,0.176333,-3.672705,0.181959,9.988609,0.070239,-0.370350,0.390570,-11.074219,36.860742,32.794922
43.632175,-0.356852,-1.731176,-0.109162,0.205350,-2.284068,1.134852,10.745177,0.022349,-0.045762,0.157505,-13.710938,32.098828,32.964844
43.733284,-0.086497,-1.763908,-0.070981,0.162612,-1.958457,0.143652,9.514557,-0.220294,0.105358,0.169212,-11.601562,30.335156,33.984375
43.835221,-0.091787,-1.717170,0.035473,0.076333,0.038307,-0.043096,9.141062,-0.159634,-0.369286,1.482464,-10.195312,29.982422,35.683594
43.936814,-0.482740,-1.656688,-0.008095,0.031248,-0.679953,0.837971,10.208876,0.221359,-0.110679,1.186610,-5.800781,21.693164,40.271484
44.038358,-0.385086,-1.560368,-0.101328,0.129255,-1.374272,1.130063,10.620679,0.120257,-0.029798,0.535305,-5.800781,21.693164,40.271484
44.140028,-0.253109,-1.537977,-0.072562,0.113317,-0.885855,0.914585,10.424354,-0.046826,-0.137285,0.166019,-5.273438,16.225781,39.082031
44.241204,-0.594914,-1.605944,-0.039612,0.088408,-0.809240,0.148441,10.017340,0.048954,0.001064,-0.077688,-4.218750,13.756641,37.042969
44.342242,-0.558791,-1.668764,-0.034816,0.070061,-0.694318,0.387861,9.821015,-0.004257,0.025541,-0.052147,-4.218750,13.756641,37.042969
44.443414,-0.376022,-1.671789,-0.049803,0.079578,-0.900220,0.416591,9.935937,-0.012771,0.001064,-0.007450,-3.691406,15.343945,36.533203
44.545420,-0.512240,-1.710604,-0.062893,0.080797,-0.651223,0.531513,9.792285,0.024477,-0.039376,-0.035119,-6.328125,17.283984,37.042969
44.646685,-0.233504,-1.773286,-0.086828,0.063308,-0.608127,0.665588,9.586383,-0.042569,-0.071303,0.024477,-5.449219,13.580273,37.212891
44.748810,-0.562497,-1.792659,-0.065754,0.068018,-0.718260,0.579397,10.481815,0.038312,-0.093652,0.072367,-6.503906,11.816602,36.873047
44.851202,-0.394509,-1.870569,-0.099853,0.049636,-0.699107,0.866701,10.510545,-0.002128,0.117065,0.007450,-6.503906,11.816602,36.873047
44.953237,-0.278988,-1.883182,-0.097609,0.077936,-1.201889,0.632069,10.271125,-0.089395,0.152184,-0.204331,-6.328125,12.698437,38.402344
45.054407,-0.379486,-1.837145,-0.103651,0.060745,-1.292869,0.948104,10.156203,-0.105358,0.237322,-0.307561,-4.921875,15.520312,35.003906
45.155680,-0.394361,-1.823412,-0.112676,0.112470,-2.403778,0.416591,10.917560,-0.144734,0.606608,-1.295161,-4.218750,20.105859,36.703125
45.257425,-0.060747,-1.870700,-0.059371,0.084918,-1.877054,0.244209,10.247183,-0.153248,0.197946,-1.453730,-4.218750,20.105859,36.703125
45.359191,-0.250502,-1.891007,-0.079487,0.031711,-1.225831,0.344765,9.591172,-0.164955,0.057468,-1.166390,-7.910156,37.213477,37.552734
45.461182,-0.456072,-1.876075,-0.041971,0.039124,-1.968034,-0.598550,10.137050,0.104294,0.034055,-0.817324,-8.613281,37.918945,36.533203
45.562652,-0.399882,-1.801834,0.022264,0.102999,-1.412579,-0.608127,9.591172,0.040441,0.127707,-0.154313,-8.613281,37.918945,36.533203
45.664230,-0.092863,-1.687435,0.036743,0.133787,-1.312023,-0.555455,9.476250,0.097909,0.051083,-0.080881,-8.613281,37.918945,36.533203
45.765286,-0.080820,-1.668587,0.010087,0.179183,-1.810016,-0.186748,9.883264,-0.009578,0.014899,-0.055340,-10.195312,41.269922,35.343750
