Time, Altitude, Yaw, Pitch, Roll, Ax, Ay, Az, Pitch_rate, Roll_rate,Yaw_rate, Magx, Magy, Magz0.901329,-0.498848,-0.110145,-0.034682,0.128756,0.402226,-1.350330,10.223241,-0.017028,-0.083009,0.031927,24.877734,15.714844,23.287500
1.001405,-0.380032,-0.150114,-0.124142,0.294007,0.330400,-0.928950,9.907206,0.030863,-0.053211,0.035119,24.527344,13.968750,23.625000
1.101743,-0.332863,-0.101551,-0.235778,0.458488,0.440533,-0.617704,9.658209,0.050019,-0.088331,0.074496,24.527344,13.968750,23.625000
1.202475,-0.360154,-0.011967,-0.335072,0.620257,0.651223,-0.967257,9.974244,-0.026606,-0.195817,-0.021284,24.527344,13.968750,23.625000
1.304810,-0.241193,0.102057,-0.414660,0.796289,1.072602,-0.828394,10.165780,0.128771,-0.023413,-0.062789,23.826563,12.222656,21.937500
1.407070,-0.615248,0.239448,-0.433977,0.993857,0.952892,-0.957681,10.103531,0.024477,0.126643,0.130900,23.125781,11.873437,22.950000
1.508911,-0.510870,0.342418,-0.413383,1.169257,0.881066,-0.967257,10.232818,0.019156,-0.010642,-0.011706,23.300977,14.841797,23.456250
1.611030,-0.170091,0.409101,-0.343371,1.322848,0.521936,-0.957681,10.247183,-0.002128,0.090459,0.069175,22.600195,13.794141,22.781250
1.712647,-0.397082,0.439744,-0.250508,1.448033,0.622492,-0.991199,10.160992,0.105358,0.032991,0.004257,24.176953,13.619531,23.962500
1.813797,-0.369561,0.430223,-0.141309,1.570175,0.416591,-0.928950,10.070012,-0.012771,0.052147,-0.039376,23.826563,14.317969,22.950000
1.915647,-0.590164,0.395984,-0.017232,1.695862,0.459687,-0.742203,9.993398,0.002128,0.088331,0.003193,24.877734,13.619531,25.987500
2.017485,-0.405469,0.336640,0.107770,1.835606,0.143652,-0.780510,10.213664,0.072367,0.090459,0.001064,22.600195,14.841797,23.793750
2.118984,-0.585578,0.244143,0.218287,1.989700,0.181959,-0.378284,10.232818,0.052147,0.001064,-0.043633,22.600195,14.841797,23.793750
2.221383,-0.525182,0.125138,0.311941,2.157428,0.306458,-0.814029,9.935937,-0.002128,0.034055,-0.012771,21.724219,16.064062,24.637500
2.322705,-0.746389,-0.007837,0.370668,2.349274,0.330400,-0.746991,10.381258,0.019156,-0.037248,-0.021284,23.300977,14.492578,24.806250
2.424633,-0.774380,-0.149111,0.387246,2.541999,0.454898,-0.665588,9.950302,0.021284,-0.012771,0.028734,22.775391,15.365625,22.612500
2.526750,-0.556978,-0.290962,0.363703,2.735679,0.253785,-0.689530,10.271125,-0.032991,0.021284,-0.025541,23.300977,12.746484,24.806250
2.628440,-0.498219,-0.414190,0.304899,2.919672,0.363919,-0.703895,10.189722,0.041505,0.054275,0.043633,22.600195,17.286328,23.793750
2.730076,-0.849350,-0.521121,0.203405,3.082093,-0.354342,-0.531513,10.352528,-0.009578,0.042569,0.061725,21.373828,15.016406,25.312500
2.831663,-0.603923,-0.587319,0.050015,-3.127709,0.220267,-0.430956,9.773131,0.019156,-0.025541,0.007450,22.249805,15.540234,24.131250
2.933270,-0.503395,-0.615255,0.084273,-3.129933,0.287304,-0.785298,10.390835,-0.015963,0.073431,-0.038312,22.249805,15.540234,24.131250
3.035211,-1.003902,-0.549738,0.076175,-3.107718,-0.014365,-0.857124,10.453084,0.062789,0.068110,-0.024477,24.176953,14.317969,23.625000
3.136605,-0.767489,-0.526494,0.056688,-3.119843,0.043096,-0.646434,10.070012,0.048954,0.027670,0.026606,21.373828,15.016406,25.312500
3.238754,-0.712634,-0.586624,0.068367,-3.130300,0.162806,-0.646434,10.132261,-0.008514,-0.045762,0.051083,21.373828,15.016406,25.312500
3.340072,-0.676654,-0.632257,0.077786,-3.131314,0.368707,-0.703895,10.314221,0.017028,0.025541,-0.015963,21.549023,16.238672,23.456250
3.441753,-0.563770,-0.619626,0.043787,-3.106161,-0.009577,-0.588974,10.007763,0.034055,0.005321,-0.025541,21.549023,16.238672,23.456250
3.543836,-0.927340,-0.558948,0.057276,-3.113955,0.071826,-0.665588,10.199299,0.032991,0.070239,0.037248,22.249805,14.841797,24.131250
3.645478,-0.767038,-0.588457,0.035305,-3.125494,0.033519,-0.493206,10.247183,0.021284,0.078753,-0.002128,22.425000,15.714844,24.637500
3.746825,-0.514172,-0.602747,0.047294,-3.099898,-0.081403,-0.723049,10.022128,-0.035119,0.061725,0.030863,21.899414,15.889453,25.143750
3.848032,-0.787643,-0.545692,0.051710,-3.087238,-0.205901,-0.694318,10.237606,-0.003193,0.008514,0.001064,22.425000,15.016406,24.637500
3.949470,-0.785691,-0.528489,0.058151,-3.091376,-0.067038,-0.718260,10.232818,-0.008514,-0.022349,0.052147,23.651367,14.841797,24.468750
4.051017,-0.869175,-0.520787,0.066564,-3.099193,0.009577,-0.665588,10.031705,-0.008514,-0.057468,0.023413,23.826563,14.317969,24.637500
4.152785,-0.751444,-0.561938,0.063144,-3.128421,0.100556,-0.632069,9.969456,-0.006385,-0.047890,0.001064,23.300977,15.540234,24.131250
4.254296,-1.005077,-0.606284,0.050620,-3.114955,0.114922,-0.612916,10.079589,0.009578,0.010642,0.005321,21.899414,16.238672,26.156250
4.356599,-0.778067,-0.608670,0.041679,-3.107633,-0.076614,-0.483629,10.156203,0.019156,0.052147,0.041505,21.899414,16.238672,26.156250
4.458239,-1.122377,-0.564551,0.066284,-3.126186,0.134075,-0.737414,9.969456,0.003193,0.013835,0.022349,22.950586,14.492578,24.468750
4.559481,-0.589390,-0.559151,0.074226,-3.089055,0.057461,-0.890643,10.117896,0.023413,0.001064,0.006385,21.549023,15.889453,24.131250
4.661409,-0.799421,-0.600411,0.057405,-3.114112,0.100556,-0.656011,10.170569,0.013835,0.012771,0.030863,24.176953,16.064062,25.312500
4.762700,-0.906685,-0.565739,0.058481,-3.102905,0.076614,-0.656011,10.084377,0.029798,0.020220,0.011706,24.176953,16.064062,25.312500
4.864435,-0.813403,-0.558563,0.066821,-3.102407,0.105345,-0.708684,10.084377,0.015963,0.010642,0.014899,22.600195,14.841797,25.818750
4.966161,-0.959827,-0.550659,0.049375,-3.108215,0.043096,-0.569820,10.122685,0.038312,0.005321,0.010642,21.724219,13.968750,24.300000
5.068322,-0.749642,-0.573855,0.034393,-3.097778,-0.090980,-0.565032,10.137050,0.004257,-0.026606,0.002128,22.425000,15.714844,23.962500
5.169940,-0.492583,-0.541349,0.067700,-3.100196,0.062249,-0.770933,10.204087,0.009578,0.004257,0.010642,22.950586,14.492578,24.806250
5.271630,-1.050308,-0.569649,0.044374,-3.123014,-0.004788,-0.531513,10.079589,0.020220,0.009578,0.019156,22.425000,15.365625,24.300000
5.373218,-0.940574,-0.572536,0.065487,-3.120030,0.090980,-0.751779,10.113108,-0.002128,-0.030863,0.026606,22.425000,15.365625,24.300000
5.475114,-0.597536,-0.621689,0.079987,-3.117446,0.148441,-0.756568,10.232818,-0.007450,0.009578,0.023413,20.848242,15.889453,24.131250
5.576711,-0.712309,-0.582252,0.066819,-3.105070,0.162806,-0.732626,10.218453,0.021284,-0.004257,0.012771,23.125781,15.714844,23.962500
5.678465,-0.815090,-0.557097,0.062597,-3.124279,0.215478,-0.627281,9.940725,0.010642,0.030863,0.027670,22.425000,14.667187,24.300000
5.779753,-0.697127,-0.558989,0.064735,-3.099344,0.023942,-0.675165,10.261548,0.020220,0.153248,0.044697,22.425000,15.016406,23.625000
5.881367,-0.983439,-0.543029,0.030856,-3.069084,-0.512359,-0.699107,10.395624,0.007450,0.402277,0.101101,22.425000,15.016406,23.625000
5.983183,-0.545310,-0.507962,0.006123,-3.007392,-0.809240,-0.560243,9.974244,0.121322,0.404405,0.044697,22.775391,19.905469,26.325000
6.084848,-0.659153,-0.558261,-0.031072,-2.957260,-1.656788,-0.718260,9.394847,-0.012771,0.540626,0.205395,22.775391,19.905469,26.325000
6.186594,-0.784626,-0.561693,-0.036814,-2.913284,-2.102109,-0.933739,9.495404,0.097909,0.468259,0.154313,23.125781,22.350000,27.675000
6.287756,-0.531131,-0.606608,-0.063748,-2.871519,-3.514688,-0.871489,9.715670,-0.013835,0.840737,0.105358,24.702539,26.016797,28.181250
6.389275,-0.843079,-0.620583,-0.140481,-2.822477,-3.361459,-0.814029,9.562441,0.029798,0.452295,0.125578,25.578516,31.778906,30.037500
6.490828,-1.003066,-0.608019,-0.176065,-2.812352,-3.639187,-0.555455,9.471462,0.151120,0.358644,0.020220,26.279297,34.223437,31.387500
6.592914,-1.128877,-0.607504,-0.238789,-2.776517,-4.266467,-0.330400,9.040505,0.102166,0.431011,0.073431,24.702539,35.445703,29.531250
6.695388,-1.087389,-0.641252,-0.291528,-2.718800,-4.673482,-0.229843,8.638280,0.051083,0.394827,0.147927,23.651367,39.287109,29.193750
6.797068,-0.722965,-0.648756,-0.281442,-2.728252,-4.673482,-0.349553,8.753201,0.021284,0.207524,0.039376,22.425000,40.509375,31.050000
6.898812,-0.983496,-0.657584,-0.327446,-2.717466,-4.975151,-0.229843,8.590396,0.059597,0.289469,0.017028,24.001758,42.430078,30.206250
7.001264,-1.124717,-0.653256,-0.317878,-2.694925,-5.147534,-0.421379,8.815451,0.104294,0.197946,-0.030863,22.775391,43.303125,30.712500
7.102488,-0.961165,-0.618216,-0.337257,-2.660963,-5.430049,-0.258574,8.394071,0.055340,0.184111,-0.008514,24.702539,46.271484,32.231250
7.203505,-1.044670,-0.582197,-0.386559,-2.597151,-6.076484,-0.047884,8.116344,0.025541,0.296919,0.044697,22.074609,45.747656,30.375000
7.305336,-0.929243,-0.570768,-0.383988,-2.603070,-5.951985,-0.138864,8.001422,0.008514,0.253285,0.110679,22.074609,45.747656,30.375000
7.407283,-0.893299,-0.548466,-0.394376,-2.566814,-6.335058,-0.023942,7.829039,0.020220,0.251157,0.050019,23.300977,49.763672,29.868750
7.509082,-0.990560,-0.558937,-0.436312,-2.565811,-6.411672,0.167594,7.489063,-0.007450,0.286276,0.046826,23.300977,49.763672,29.868750
7.610878,-0.964657,-0.537534,-0.430406,-2.512078,-6.756437,-0.148441,7.335834,0.017028,0.306497,0.048954,23.300977,51.858984,29.868750
7.712347,-0.772490,-0.474590,-0.408765,-2.490986,-6.924031,0.004788,7.307103,0.042569,0.320332,0.039376,26.104102,53.954297,29.531250
7.813392,-0.833455,-0.425875,-0.397077,-2.418033,-7.278373,-0.114922,6.885724,0.038312,0.337359,-0.062789,26.104102,53.954297,29.531250
7.915532,-0.995408,-0.406825,-0.433291,-2.416063,-7.225701,0.205901,6.689399,-0.004257,0.291597,0.109615,24.877734,56.922656,30.375000
8.016586,-0.899557,-0.441363,-0.474760,-2.390589,-7.747637,0.004788,6.564901,-0.041505,0.348001,0.136221,22.775391,59.017969,27.675000
8.118140,-0.966975,-0.424049,-0.495745,-2.336338,-7.982268,0.062249,6.224924,0.067046,0.304368,0.005321,23.300977,62.335547,28.181250
8.219630,-1.112647,-0.392196,-0.502738,-2.313510,-8.034941,0.148441,5.731719,0.047890,0.348001,0.111744,22.425000,63.208594,29.700000
8.321948,-0.870825,-0.370571,-0.480659,-2.295198,-8.283938,0.119710,5.918467,0.031927,0.194753,0.048954,22.950586,64.780078,28.856250
8.423649,-1.072819,-0.309670,-0.497084,-2.249241,-8.528146,0.407014,5.616797,0.185175,0.065982,-0.107487,22.425000,66.700781,28.350000
8.524879,-0.726231,-0.350627,-0.505452,-2.272772,-7.627926,0.248997,5.291186,0.063853,0.302240,0.041505,22.425000,66.700781,28.350000
8.627148,-1.211538,-0.257560,-0.564591,-2.168827,-8.887277,0.679953,4.577714,-0.021284,0.297983,-0.145799,22.600195,67.573828,26.493750
8.728394,-0.893737,-0.272628,-0.447323,-2.132987,-8.667010,-0.038307,4.702212,-0.072367,0.419304,0.045762,23.300977,70.367578,25.143750
8.831096,-1.019582,-0.209639,-0.406895,-2.084040,-8.719682,0.191536,4.443638,0.004257,0.234129,-0.009578,25.403320,71.066016,22.781250
8.932689,-1.315565,-0.176195,-0.381318,-2.029267,-9.121908,0.028730,4.094085,0.044697,0.203267,-0.003193,23.826563,74.732812,22.950000
9.034364,-0.831613,-0.131626,-0.392797,-1.982632,-8.887277,0.320823,3.457227,0.124514,0.370350,0.038312,22.074609,73.685156,21.600000
9.136447,-1.054040,-0.079632,-0.351409,-1.918853,-9.404424,0.292093,2.877830,0.060661,0.372478,0.007450,22.425000,75.780469,20.250000
9.238381,-0.604956,-0.074415,-0.286102,-1.866125,-9.260772,0.158017,2.652775,0.021284,0.224551,0.010642,22.600195,78.748828,18.056250
9.340358,-0.867896,-0.052345,-0.253971,-1.837476,-9.993398,0.210690,2.288857,0.067046,0.299047,0.074496,22.600195,78.748828,18.056250
9.441764,-0.946198,-0.012200,-0.227256,-1.813525,-9.500192,0.397437,2.312799,0.160698,0.187303,0.013835,22.074609,81.367969,15.862500
9.543078,-0.970164,-0.019967,-0.209637,-1.800929,-9.303868,0.220267,1.953669,0.171340,0.254350,0.060661,22.600195,80.494922,15.356250
9.645102,-0.805224,0.003698,-0.153692,-1.757113,-9.935937,0.306458,1.589750,0.074496,0.084074,0.040441,22.600195,80.494922,15.356250
9.747153,-1.055231,0.017296,-0.115210,-1.751845,-9.773131,0.368707,1.738190,0.045762,0.084074,0.080881,21.549023,80.844141,14.343750
9.848894,-1.025251,0.037036,-0.068434,-1.715214,-9.576807,0.426168,1.230620,0.000000,0.155377,-0.006385,21.549023,80.494922,13.331250
9.949813,-1.152530,0.024873,-0.013468,-1.726737,-9.576807,0.196325,1.355118,0.037248,0.079817,-0.025541,19.271484,81.018750,13.837500
10.052075,-0.942675,0.032116,0.016594,-1.709632,-9.773131,0.287304,1.297657,0.047890,0.080881,-0.015963,20.673047,82.764844,13.500000
10.154202,-1.048863,0.047527,0.047483,-1.703004,-9.888053,0.435745,1.211466,0.051083,0.048954,0.005321,19.972266,81.717187,13.162500
10.255579,-0.783618,0.048245,0.087429,-1.696166,-9.639056,0.373495,1.101333,0.047890,0.065982,0.023413,20.673047,82.415625,14.175000
10.356837,-0.882105,0.044942,0.104501,-1.674921,-9.983821,0.402226,0.885855,0.023413,0.067046,0.026606,20.848242,82.590234,12.656250
10.457570,-0.714628,0.064306,0.107417,-1.696988,-9.567230,0.454898,1.177947,0.061725,0.069175,-0.007450,21.549023,82.590234,12.318750
10.559081,-1.082664,0.031950,0.105632,-1.677059,-9.763554,0.210690,0.981623,0.076624,0.072367,-0.065982,19.446680,83.987109,12.318750
10.660924,-0.918921,0.035393,0.156442,-1.649708,-9.830592,0.311246,0.545878,0.044697,-0.058532,0.000000,19.446680,83.987109,12.318750
10.761730,-0.997415,0.063741,0.184206,-1.663030,-9.447520,0.483629,0.718260,-0.006385,0.024477,0.027670,20.673047,83.463281,11.137500
10.863262,-0.935880,0.031139,0.219809,-1.642388,-9.787496,0.172383,0.636858,0.018092,0.064918,-0.003193,20.322656,83.463281,11.475000
10.964899,-0.952167,0.069087,0.224594,-1.658365,-9.701305,0.474052,0.933739,0.017028,0.027670,0.006385,21.549023,83.288672,10.968750
11.066622,-1.081756,0.042128,0.231489,-1.648165,-9.749189,0.158017,0.823605,0.012771,0.052147,0.027670,20.673047,84.860156,10.800000
11.168008,-1.128574,0.044548,0.249471,-1.650634,-9.734824,0.158017,0.670376,0.001064,0.013835,0.019156,20.673047,84.860156,10.800000
11.270191,-0.926792,0.036944,0.263615,-1.638938,-9.758766,0.205901,0.622492,0.018092,-0.014899,0.008514,19.621875,82.764844,10.800000
11.371649,-1.019011,0.038142,0.264205,-1.637052,-9.821015,0.172383,0.665588,0.001064,0.000000,0.017028,21.198633,82.590234,10.968750
11.473484,-0.994862,0.047289,0.277861,-1.664817,-9.706094,0.210690,0.852336,-0.010642,-0.070239,-0.015963,19.972266,84.161719,11.475000
11.575929,-0.855613,0.056621,0.234673,-1.636669,-9.691728,0.335188,0.732626,0.008514,0.027670,0.047890,20.848242,85.034766,8.943750
11.677961,-1.285841,0.039235,0.233907,-1.637084,-9.734824,0.229843,0.536301,0.058532,0.019156,0.009578,19.446680,83.987109,10.293750
11.779529,-0.891908,0.031894,0.233276,-1.633117,-9.883264,0.153229,0.679953,-0.002128,0.025541,0.013835,20.673047,84.510937,10.125000
11.881447,-0.931226,0.045273,0.235819,-1.646794,-9.615114,0.306458,0.703895,-0.007450,0.003193,0.012771,21.373828,84.510937,10.800000
11.982713,-1.101578,0.034937,0.224196,-1.640631,-9.773131,0.181959,0.713472,0.042569,-0.023413,0.001064,21.373828,84.510937,10.800000
12.084385,-1.232364,0.033008,0.229276,-1.655957,-9.821015,0.162806,0.756568,0.002128,0.004257,0.008514,20.497852,82.939453,10.293750
12.186457,-0.861667,0.043495,0.230436,-1.651989,-9.878476,0.263362,0.723049,0.009578,0.003193,0.007450,20.322656,84.860156,11.137500
12.287791,-1.098477,0.040299,0.245168,-1.650624,-9.734824,0.229843,0.670376,0.021284,0.025541,0.000000,21.023438,83.463281,11.137500
12.389414,-1.231123,0.046673,0.261637,-1.641682,-9.591172,0.311246,0.579397,0.036184,0.009578,-0.018092,21.023438,83.463281,11.137500
12.491635,-1.117416,0.044383,0.264576,-1.656631,-9.821015,0.177171,0.861913,-0.008514,-0.036184,0.005321,21.023438,83.463281,11.137500
12.593559,-0.751795,0.040392,0.244093,-1.647513,-9.878476,0.234632,0.651223,-0.015963,-0.051083,0.017028,22.600195,82.939453,10.968750
12.695363,-0.864089,0.054847,0.231659,-1.633637,-9.878476,0.368707,0.703895,0.024477,-0.026606,-0.003193,22.600195,82.939453,10.968750
12.797273,-0.921418,0.024360,0.241744,-1.660063,-9.667786,0.000000,0.981623,0.022349,-0.122386,0.020220,20.322656,84.510937,11.475000
12.899442,-0.942145,0.040836,0.243287,-1.658080,-9.792285,0.234632,0.670376,-0.050019,-0.454424,0.014899,20.322656,84.510937,11.475000
13.000388,-1.163581,0.067956,0.223261,-1.695210,-10.098743,0.507571,1.120486,-0.097909,-0.916297,-0.164955,22.074609,82.415625,13.162500
13.103230,-1.188775,0.043030,0.144791,-1.850613,-9.102755,0.047884,3.327940,0.058532,-1.501620,-0.161762,20.673047,78.574219,16.537500
13.205049,-1.004461,-0.008540,0.016811,-2.008398,-8.384494,-0.052672,4.908113,0.076624,-1.643162,-0.200074,24.352148,71.415234,22.781250
13.306040,-0.940842,-0.158964,-0.046571,-2.202643,-7.240066,-0.632069,6.708553,-0.026606,-1.122757,-0.131964,23.300977,62.335547,27.168750
13.407839,-0.767617,-0.303971,-0.144984,-2.373634,-6.392518,-0.833182,7.723695,0.334166,-1.236629,-0.121322,24.176953,52.732031,29.362500
13.510024,-0.774225,-0.475792,-0.199502,-2.573591,-5.214571,-0.699107,8.743624,0.407598,-1.327088,-0.141542,21.549023,45.573047,31.218750
13.610824,-0.782785,-0.657951,-0.243334,-2.775847,-4.122815,0.143652,9.720459,0.293726,-1.150426,0.052147,15.942773,37.191797,32.568750
13.712946,-0.667967,-0.775585,-0.198489,-2.966925,-1.661576,1.034295,9.782708,0.005321,-1.026976,0.052147,14.891602,27.064453,30.881250
13.814559,-0.915173,-0.814781,-0.086891,-3.033763,-1.192312,-0.186748,9.979033,0.242643,-0.816260,0.060661,15.767578,22.350000,28.687500
13.916221,-0.868656,-0.867426,-0.110764,-3.079693,-0.852336,0.301669,10.309432,0.427818,-0.954609,-0.179854,13.665234,17.460938,27.337500
14.017624,-0.918344,-0.945187,0.024083,3.071834,0.694318,0.660800,10.352528,0.034055,-0.591709,-0.172404,13.665234,17.460938,27.337500
14.118976,-1.039156,-0.924672,0.015881,3.064277,0.622492,0.421379,10.184934,0.120257,-0.031927,-0.133028,11.212500,11.873437,22.612500
14.221378,-1.048631,-0.848742,-0.044883,3.071445,0.019154,0.684742,10.132261,0.087266,0.027670,-0.084074,11.562891,10.127344,22.950000
14.322703,-0.882393,-0.920004,-0.042422,3.071146,0.148441,1.058237,9.868899,0.031927,0.144734,0.075560,9.635742,11.000391,22.781250
14.423642,-0.806943,-1.004212,-0.019950,3.081143,0.325611,0.890643,10.041282,-0.096844,0.111744,0.122386,8.934961,13.095703,24.131250
14.525313,-0.894845,-1.007928,0.001410,3.052394,0.450110,0.742203,10.237606,-0.267120,0.130900,0.141542,9.986133,12.397266,25.481250
14.627142,-1.035283,-0.906772,0.010516,3.107862,-0.138864,-0.483629,10.256760,-0.234129,0.087266,0.088331,14.015625,13.270312,22.275000
14.728623,-1.182550,-0.765046,0.010543,3.135976,0.004788,-0.138864,10.256760,0.024477,-0.019156,0.036184,14.015625,13.270312,22.275000
14.830507,-0.786762,-0.681421,0.006769,3.124461,0.090980,-0.023942,10.103531,-0.042569,-0.006385,0.050019,17.169141,12.571875,24.300000
14.932314,-1.002609,-0.703119,0.029011,-3.126519,0.067038,-0.301669,10.074801,-0.005321,-0.023413,-0.020220,13.840430,12.746484,24.806250
15.033773,-1.039237,-0.688722,0.015390,3.140908,-0.028730,-0.215478,10.165780,0.031927,-0.005321,0.013835,14.716406,11.873437,24.637500
15.135236,-0.937498,-0.682766,0.011401,3.132547,0.090980,-0.038307,10.070012,0.005321,-0.021284,0.020220,14.716406,11.873437,24.637500
15.237074,-0.986837,-0.677286,0.013832,3.131815,0.158017,-0.038307,10.065224,0.027670,0.014899,0.015963,15.241992,12.397266,24.806250
15.338762,-0.599209,-0.679438,0.031095,3.131717,0.186748,-0.248997,10.261548,0.013835,0.019156,0.026606,14.541211,11.349609,24.131250
15.440629,-0.941060,-0.663677,0.013441,3.129075,0.134075,-0.071826,10.184934,0.023413,-0.043633,-0.011706,15.066797,11.873437,24.131250
15.541956,-0.595436,-0.672646,0.040574,-3.130976,0.205901,-0.248997,10.089166,-0.013835,-0.026606,0.026606,15.066797,11.873437,24.300000
15.642894,-0.783627,-0.681492,0.040981,-3.137931,0.292093,-0.282516,10.242395,-0.051083,-0.061725,0.006385,15.066797,11.873437,24.300000
15.744908,-1.056762,-0.690372,0.037876,3.126760,0.349553,-0.239420,10.285490,0.015963,0.035119,0.040441,13.490039,11.000391,25.818750
15.846999,-0.896651,-0.678822,0.040388,-3.138489,0.177171,-0.277727,10.132261,-0.021284,0.037248,0.006385,15.592383,12.397266,25.481250
15.948774,-0.787277,-0.652225,0.015200,3.138503,0.210690,-0.181959,10.165780,0.012771,0.050019,0.030863,14.190820,10.651172,23.118750
16.050216,-0.587837,-0.612798,0.030468,-3.136054,0.181959,-0.268151,10.342951,0.020220,0.011706,0.020220,16.293164,11.349609,24.806250
16.151908,-0.845301,-0.682917,0.019020,3.133916,0.186748,-0.177171,10.170569,0.007450,-0.006385,0.011706,14.190820,11.698828,24.131250
16.253596,-0.690391,-0.654221,0.013592,-3.124519,0.095768,-0.225055,10.141838,-0.017028,-0.015963,0.008514,15.592383,12.048047,25.143750
16.355303,-0.788406,-0.636398,0.039906,-3.112787,0.153229,-0.387861,10.228029,-0.084074,0.461873,0.157505,15.417188,12.222656,25.312500
16.456693,-0.885267,-0.611008,-0.052071,-2.961960,-2.140416,-0.794875,9.935937,-0.065982,0.607672,0.096844,17.169141,16.064062,25.987500
16.559022,-0.615038,-0.704395,-0.082246,-2.960490,-1.910573,-0.565032,9.758766,-0.021284,0.064918,0.068110,16.468359,22.350000,29.025000
16.660382,-0.972652,-0.702263,-0.076798,-2.986245,-1.738190,-0.497994,9.892841,0.012771,-0.024477,0.003193,17.869922,22.000781,28.350000
16.762420,-0.675787,-0.696094,-0.065350,-2.984612,-1.723825,-0.584185,10.070012,0.019156,0.009578,-0.007450,18.045117,21.826172,29.531250
16.864714,-0.967353,-0.686686,-0.077321,-2.971534,-1.738190,-0.454898,9.911995,0.036184,0.045762,0.020220,17.519531,20.953125,29.362500
16.965549,-0.847959,-0.673728,-0.097027,-2.961788,-1.944092,-0.383072,9.878476,0.008514,0.031927,0.023413,18.045117,21.127734,28.856250
17.067058,-0.599099,-0.714020,-0.083300,-2.958093,-1.915361,-0.579397,9.916783,0.020220,0.024477,0.015963,18.745898,23.572266,29.868750
17.169159,-1.163001,-0.667922,-0.094691,-2.953564,-2.030283,-0.407014,9.825804,0.025541,-0.026606,0.002128,18.220313,21.302344,29.362500
17.271531,-0.915292,-0.712099,-0.070211,-2.992857,-1.455675,-0.387861,9.892841,0.093652,-0.839673,-0.346937,17.694727,22.524609,28.518750
17.372534,-1.343583,-0.795948,0.010967,-3.094632,-0.215478,-0.335188,9.902418,0.053211,-0.531048,-0.121322,16.643555,19.032422,27.843750
17.473890,-1.089712,-0.817216,0.027252,-3.098457,-0.095768,-0.478840,10.314221,0.018092,-0.108551,0.019156,16.643555,19.032422,27.843750
17.574958,-1.100529,-0.751080,0.043093,-3.139211,0.181959,-0.440533,10.232818,0.056404,-0.065982,-0.039376,14.716406,13.619531,24.637500
17.676466,-1.447477,-0.674391,0.024046,-3.114736,-0.076614,-0.387861,10.065224,0.018092,-0.014899,0.004257,15.942773,13.095703,24.468750
17.777849,-1.072587,-0.693375,0.015817,-3.121188,0.009577,-0.229843,10.218453,0.007450,-0.004257,0.005321,14.366016,13.270312,25.650000
17.879670,-1.168254,-0.720225,0.041217,-3.108281,0.067038,-0.502782,10.247183,0.014899,0.003193,0.018092,14.366016,13.270312,25.650000
17.982095,-1.184129,-0.731420,0.029038,-3.101950,-0.047884,-0.440533,10.065224,0.010642,0.009578,0.011706,15.066797,14.317969,24.637500
18.083681,-1.132714,-0.715912,0.020746,-3.136800,-0.004788,-0.301669,10.141838,0.015963,0.008514,-0.017028,14.891602,13.095703,25.818750
18.185002,-1.049640,-0.703071,0.027603,-3.119724,0.105345,-0.330400,9.964667,-0.015963,-0.011706,0.014899,14.891602,13.095703,25.818750
18.286371,-1.234084,-0.717065,0.036033,-3.124322,-0.019154,-0.421379,10.290279,0.026606,-0.003193,0.018092,13.665234,12.921094,25.650000
18.388135,-1.318002,-0.752837,0.028340,-3.130529,0.134075,-0.263362,10.266337,0.020220,0.038312,0.042569,13.665234,12.921094,25.650000
18.490237,-0.979168,-0.675733,0.034277,-3.127069,0.009577,-0.445322,10.208876,0.018092,0.039376,0.027670,14.716406,12.571875,25.650000
18.592326,-1.394107,-0.707994,0.031088,-3.120025,0.047884,-0.344765,10.122685,0.001064,-0.008514,0.027670,15.592383,13.794141,25.143750
18.693870,-1.149877,-0.647017,0.033848,-3.122497,0.047884,-0.363919,10.055647,0.003193,0.003193,0.028734,16.117969,12.571875,25.650000
18.796080,-1.008341,-0.647280,0.026354,-3.129121,0.153229,-0.411803,10.275914,0.000000,-0.003193,0.030863,16.117969,12.571875,25.650000
18.897334,-1.230739,-0.695419,0.031797,-3.119541,0.119710,-0.301669,10.304644,0.029798,-0.207524,-0.051083,15.241992,13.444922,25.818750
18.998629,-1.289553,-0.697572,0.076378,3.084579,0.928950,-0.148441,10.007763,0.073431,-0.490607,-0.140478,14.716406,11.175000,24.300000
19.100650,-1.452795,-0.683143,0.081608,3.081269,0.814029,-0.368707,9.911995,0.019156,-0.137285,-0.024477,13.314844,8.730469,23.962500
19.202748,-1.172898,-0.684447,0.087844,3.069260,1.206678,-0.186748,10.137050,0.044697,-0.177725,-0.020220,12.263672,8.381250,21.937500
19.304836,-1.297329,-0.662353,0.106332,3.025237,1.546654,-0.411803,10.433931,0.045762,0.046826,0.020220,11.913281,5.238281,21.937500
19.406148,-1.418877,-0.614659,0.093682,3.096522,1.192312,-0.282516,10.409989,-0.001064,0.565103,0.204331,11.913281,9.079687,22.612500
19.507845,-1.488954,-0.685772,0.047415,3.112288,0.617704,-0.143652,10.290279,0.006385,0.275634,0.072367,12.789258,10.301953,24.131250
19.610294,-1.340084,-0.712965,0.028969,3.127691,0.555455,-0.067038,10.012551,-0.030863,0.271377,-0.010642,13.665234,12.222656,24.975000
19.711387,-1.633214,-0.682171,-0.001713,-3.100048,-0.378284,-0.134075,10.108319,0.005321,0.295854,0.013835,13.665234,12.222656,24.975000
19.813420,-1.275559,-0.650299,-0.016091,-3.090429,-0.574608,-0.311246,10.093954,-0.019156,0.157505,0.005321,14.015625,12.921094,25.987500
19.914809,-1.385171,-0.719158,-0.035609,-3.058457,-0.775721,-0.201113,10.022128,-0.010642,0.102166,0.025541,14.190820,15.889453,24.806250
20.016555,-1.163506,-0.682646,-0.045731,-3.062454,-0.708684,-0.172383,10.041282,0.007450,-0.024477,-0.029798,16.293164,16.587891,25.818750
20.118575,-1.206765,-0.733011,-0.045320,-3.041435,-1.120486,-0.373495,10.386047,0.002128,-0.007450,0.041505,16.117969,18.857812,27.337500
20.220815,-1.296490,-0.802468,-0.054433,-3.045805,-1.053449,-0.229843,9.969456,0.014899,0.027670,0.039376,14.891602,19.381641,27.168750
20.322364,-1.444498,-0.771635,-0.049027,-3.050805,-0.933739,-0.311246,10.194511,0.026606,-0.011706,0.006385,16.468359,19.905469,27.000000
20.424555,-1.455224,-0.755469,-0.041720,-3.031117,-1.048660,-0.416591,9.955091,0.018092,-0.076624,0.035119,15.942773,18.683203,26.831250
20.526844,-1.590337,-0.760217,-0.031710,-3.056992,-0.967257,-0.402226,9.950302,-0.030863,-0.139413,0.039376,15.592383,18.683203,26.831250
20.628483,-1.282930,-0.734810,-0.009543,-3.061714,-0.699107,-0.545878,10.199299,-0.013835,-0.091523,0.042569,15.241992,16.238672,26.493750
20.730140,-1.091130,-0.680415,-0.003597,-3.065370,-0.646434,-0.483629,9.911995,-0.028734,-0.051083,0.052147,15.592383,15.540234,26.156250
20.831924,-1.191958,-0.702786,0.010390,-3.051340,-0.574608,-0.641646,10.141838,-0.041505,-0.052147,0.040441,16.643555,17.286328,27.168750
20.933071,-1.305626,-0.719032,0.025557,-3.064272,-0.330400,-0.651223,9.959879,0.004257,-0.036184,0.062789,16.993945,16.937109,26.831250
21.034830,-1.129750,-0.702560,0.002093,-3.070894,-0.579397,-0.459687,10.141838,-0.046826,-0.058532,0.023413,16.993945,16.937109,26.831250
21.136947,-1.249323,-0.631819,0.044455,-3.089264,-0.282516,-0.746991,10.156203,-0.050019,-0.110679,0.146863,18.045117,15.191016,26.831250
21.238971,-0.834997,-0.639641,0.051861,-3.078092,-0.119710,-0.713472,10.381258,-0.092588,0.077688,0.183047,18.045117,15.191016,26.831250
21.341003,-1.305843,-0.626531,0.035337,-3.031547,-0.632069,-0.948104,10.256760,-0.037248,0.148991,0.282019,18.220313,16.413281,25.312500
21.442657,-1.351256,-0.511777,-0.001665,-3.070458,-0.579397,-0.397437,9.753978,0.116000,0.319267,0.259671,22.074609,14.667187,24.637500
21.544276,-1.234018,-0.543047,-0.003713,-2.996941,-1.244985,-0.723049,10.103531,-0.011706,0.095780,-0.012771,22.074609,17.111719,25.650000
21.645359,-1.280144,-0.561050,0.001237,-2.988759,-1.273715,-0.852336,10.184934,0.007450,0.131964,-0.042569,21.198633,17.635547,25.481250
21.747407,-1.275861,-0.598057,0.004109,-2.997227,-1.086968,-0.818817,10.093954,0.021284,0.055340,0.015963,20.147461,18.333984,28.518750
21.848822,-1.389037,-0.646295,-0.025512,-3.007037,-1.235408,-0.632069,9.964667,0.013835,0.181982,0.051083,20.147461,20.429297,26.831250
21.950951,-1.239058,-0.654492,-0.033739,-2.989679,-1.268927,-0.588974,9.806650,0.055340,0.167083,0.030863,19.972266,19.905469,26.325000
22.052669,-1.205988,-0.614845,-0.036675,-2.992467,-1.522712,-0.641646,10.079589,0.056404,0.146863,-0.031927,21.023438,20.254687,27.675000
22.154848,-1.077282,-0.663262,-0.035657,-2.939656,-1.661576,-0.871489,10.141838,0.054275,0.334166,0.039376,18.570703,22.699219,28.350000
22.256707,-1.250862,-0.683135,-0.100611,-2.926445,-2.403778,-0.699107,9.873688,0.029798,0.581066,-0.080881,20.147461,23.921484,27.843750
22.358250,-1.189010,-0.644897,-0.164652,-2.855721,-3.945644,-0.387861,9.332598,-0.070239,0.971637,0.177725,20.322656,27.937500,29.025000
22.459503,-1.235848,-0.610181,-0.162628,-2.793905,-3.754108,-0.684742,9.792285,-0.153248,0.649177,0.114936,20.848242,31.604297,31.556250
22.561329,-1.303600,-0.515248,-0.222373,-2.688292,-5.023035,-0.512359,8.805874,0.060661,0.589580,0.279891,20.848242,31.604297,31.556250
22.662990,-1.041880,-0.465765,-0.215326,-2.612604,-5.343858,-0.464475,8.738836,0.084074,0.580002,0.181982,21.373828,40.858594,28.687500
22.764607,-0.975007,-0.528584,-0.318260,-2.585457,-5.760449,-0.335188,8.015787,0.145799,0.591709,0.078753,21.373828,40.858594,28.687500
22.866009,-1.173085,-0.537274,-0.381411,-2.553140,-6.311116,-0.244209,7.738060,0.244772,0.517213,0.068110,21.023438,46.446094,31.387500
22.967454,-0.950851,-0.561558,-0.467388,-2.531061,-6.804321,-0.033519,7.244854,0.068110,0.557654,0.074496,18.921094,49.938281,29.700000
23.068978,-1.392063,-0.533828,-0.486064,-2.464387,-6.995857,-0.775721,5.966351,0.068110,0.752407,0.089395,18.921094,49.938281,29.700000
23.170496,-1.225803,-0.443045,-0.563832,-2.365972,-7.675811,0.483629,5.904101,0.113872,0.698131,0.031927,18.395508,59.192578,28.518750
23.272320,-1.034662,-0.436310,-0.583037,-2.318445,-8.063671,0.263362,5.530606,0.205395,0.675782,0.062789,20.322656,65.303906,27.000000
23.374126,-1.291202,-0.376310,-0.658078,-2.233420,-8.911219,0.804452,4.955997,0.224551,0.801361,0.161762,17.519531,70.192969,24.637500
23.476191,-1.242922,-0.289417,-0.700764,-2.108256,-9.078813,0.713472,3.936068,-0.047890,0.637470,0.121322,15.942773,73.161328,22.106250
23.578025,-1.456733,-0.216790,-0.729335,-2.015902,-9.011775,0.895431,3.184288,0.109615,0.872664,0.091523,14.190820,75.955078,19.068750
23.679410,-1.234326,-0.141607,-0.753597,-1.925337,-9.069236,0.962469,2.863465,0.047890,0.456552,0.024477,11.387695,81.891797,16.368750
23.781763,-1.149924,-0.069512,-0.772207,-1.861381,-9.495404,1.182736,2.001553,0.063853,0.260735,0.013835,13.840430,82.939453,14.681250
23.884603,-1.254687,-0.153396,-0.748111,-1.887379,-9.423578,0.699107,2.255338,-0.031927,0.211781,0.002128,12.964453,84.510937,12.150000
23.986580,-1.150452,-0.027371,-0.773957,-1.762016,-9.777920,0.943315,1.307234,0.106422,0.428882,-0.022349,13.490039,85.733203,11.306250
24.088315,-1.205860,-0.023184,-0.746865,-1.766200,-10.002975,0.828394,1.115698,0.092588,0.225616,-0.039376,13.490039,85.733203,11.306250
24.190406,-1.206568,-0.009602,-0.736018,-1.748362,-9.605537,0.943315,1.048660,0.002128,0.237322,0.013835,13.840430,87.828516,9.956250
24.291834,-1.214603,0.008932,-0.702473,-1.720119,-9.859322,0.837971,0.713472,-0.051083,0.452295,0.028734,14.541211,87.828516,9.281250
24.393790,-1.111798,0.038200,-0.679719,-1.659924,-9.830592,0.885855,0.095768,-0.013835,0.121322,0.052147,12.964453,89.400000,8.100000
24.495826,-1.091758,0.043679,-0.659342,-1.641414,-9.892841,0.742203,-0.023942,0.089395,0.072367,0.021284,14.366016,91.495312,6.412500
24.597427,-1.201669,0.061099,-0.614410,-1.623541,-9.816227,0.828394,-0.090980,0.001064,-0.006385,0.021284,13.139648,92.019141,6.243750
24.699063,-1.006418,0.074135,-0.592151,-1.630774,-9.595960,0.952892,0.282516,0.041505,0.025541,-0.028734,12.964453,90.447656,5.400000
24.800914,-0.935039,0.057209,-0.568388,-1.638587,-9.763554,0.837971,0.023942,0.032991,-0.034055,-0.013835,12.964453,90.447656,5.400000
24.903020,-1.003297,0.043204,-0.543654,-1.631634,-9.639056,0.718260,0.110133,0.005321,0.047890,0.022349,13.665234,90.796875,6.412500
25.004862,-1.174684,0.051678,-0.506716,-1.645524,-9.878476,0.823605,0.114922,-0.025541,-0.003193,0.018092,13.665234,90.796875,6.412500
25.106161,-1.158668,0.054589,-0.469767,-1.639545,-9.615114,0.751779,0.177171,0.039376,0.083009,0.031927,15.417188,89.400000,6.412500
25.208106,-0.956759,0.070948,-0.394064,-1.617994,-9.859322,0.780510,-0.248997,0.010642,-0.006385,0.039376,15.417188,89.400000,6.412500
25.309552,-0.904491,0.031028,-0.329628,-1.653387,-9.677363,0.502782,0.368707,-0.048954,-0.058532,-0.048954,15.417188,89.400000,6.412500
25.410634,-1.140041,0.050453,-0.305282,-1.615360,-9.777920,0.656011,-0.081403,0.032991,-0.007450,0.011706,12.614063,89.749219,6.412500
25.512553,-1.187041,0.060646,-0.283702,-1.624710,-9.940725,0.713472,0.181959,-0.006385,0.018092,-0.002128,14.541211,90.622266,5.568750
25.614080,-0.796019,0.045743,-0.245919,-1.618184,-9.744401,0.569820,0.047884,-0.004257,-0.018092,0.028734,14.541211,90.622266,5.568750
25.715393,-1.114375,0.048652,-0.210154,-1.633054,-9.768343,0.651223,0.263362,0.005321,-0.019156,0.008514,14.015625,90.098437,6.412500
25.817263,-0.971293,0.064637,-0.165746,-1.630026,-9.595960,0.718260,0.287304,0.010642,-0.011706,-0.014899,15.066797,90.447656,7.425000
25.918598,-1.089277,0.059244,-0.121474,-1.617769,-9.615114,0.632069,0.114922,0.040441,0.031927,-0.001064,15.241992,90.622266,7.256250
26.020668,-1.163492,0.063574,-0.073849,-1.608933,-9.753978,0.636858,0.038307,0.005321,-0.006385,-0.007450,15.066797,90.796875,7.087500
26.121768,-0.908507,0.073462,-0.014349,-1.634988,-9.710882,0.646434,0.330400,-0.004257,0.019156,0.028734,14.716406,91.495312,7.425000
26.223486,-1.282884,0.064318,0.049282,-1.627490,-9.749189,0.689530,0.181959,0.008514,-0.008514,0.035119,13.840430,89.923828,8.943750
26.325012,-1.226908,0.057486,0.089020,-1.607968,-9.706094,0.560243,0.167594,-0.006385,0.022349,-0.002128,15.942773,90.622266,7.256250
26.427391,-0.915986,0.067512,0.131319,-1.616628,-9.825804,0.689530,0.090980,0.011706,0.014899,0.019156,15.942773,90.622266,7.256250
26.529080,-0.988602,0.055310,0.154475,-1.594838,-9.773131,0.579397,0.129287,0.025541,-0.029798,0.029798,15.241992,89.923828,6.243750
26.630752,-1.464158,0.086704,0.178829,-1.613852,-9.691728,0.794875,0.244209,0.015963,-0.021284,0.019156,15.241992,89.923828,6.243750
26.732922,-1.206508,0.063851,0.225695,-1.602572,-9.710882,0.627281,0.014365,0.014899,0.011706,0.023413,14.366016,88.352344,8.437500
26.835068,-0.930081,0.074232,0.242475,-1.591922,-9.701305,0.694318,0.181959,-0.012771,-0.041505,0.024477,16.117969,90.098437,5.737500
26.936553,-1.151065,0.079320,0.269968,-1.604224,-9.864111,0.679953,0.138864,0.052147,-0.141542,0.035119,14.190820,90.273047,7.593750
27.038412,-1.311062,0.104840,0.290516,-1.633403,-10.098743,0.780510,0.541090,0.173469,-1.140848,-0.110679,14.190820,90.273047,7.593750
27.139590,-1.077183,0.120557,0.220266,-1.789889,-8.810662,0.713472,2.499547,0.192625,-1.804924,0.112808,15.066797,85.907812,12.825000
27.241614,-1.343763,0.164389,0.165413,-1.931899,-7.436390,-0.057461,2.513912,-0.121322,-1.719786,0.272441,12.438867,76.653516,20.756250
27.343831,-1.149097,0.140279,0.147538,-2.015670,-8.839393,1.101333,5.027823,-0.081945,-1.318574,0.051083,14.541211,68.272266,24.806250
27.445676,-0.919739,0.026623,0.104699,-2.179222,-6.545747,0.253785,7.613561,-0.242643,-1.634648,-0.061725,14.541211,68.272266,24.806250
27.548105,-0.835527,-0.047086,0.031984,-2.339277,-5.899313,0.248997,8.188170,0.151120,-1.527162,-0.312882,16.993945,47.319141,31.218750
27.649231,-1.118227,-0.199471,-0.060770,-2.554846,-3.825934,0.033519,9.447520,0.168147,-2.036925,-0.561910,15.767578,37.715625,31.387500
27.750364,-1.030034,-0.338423,-0.021499,-2.770178,-1.302446,-1.139640,12.282255,-0.266056,-1.035490,0.339488,16.818750,25.492969,30.375000
27.852180,-0.967839,-0.485052,-0.002307,-2.919495,-1.422156,-0.694318,10.625467,-0.259671,-0.656626,0.380992,17.869922,20.254687,28.350000
27.954011,-0.980532,-0.603734,0.050691,-3.013499,-0.459687,-0.919373,9.988609,0.035119,-0.759856,0.212845,21.373828,15.714844,25.650000
28.055961,-0.999461,-0.616638,0.037337,3.137358,0.426168,-0.124498,10.007763,0.042569,-0.302240,0.045762,21.373828,15.714844,25.650000
28.157364,-1.368318,-0.548512,0.087668,3.127589,0.584185,-0.708684,10.352528,-0.063853,-0.121322,0.076624,20.673047,11.873437,24.975000
28.259815,-1.579465,-0.493659,0.055496,-3.134404,0.177171,-0.493206,10.060435,-0.070239,-0.101101,0.422497,20.673047,11.524219,20.925000
28.361167,-0.949959,-0.471646,0.061280,-3.137949,0.210690,-0.565032,9.959879,-0.063853,-0.043633,0.321396,21.549023,11.000391,23.456250
28.462208,-1.163279,-0.422423,0.086138,3.140223,0.440533,-0.646434,10.232818,0.039376,0.069175,0.056404,23.651367,10.301953,23.456250
28.563632,-1.061223,-0.376803,0.052447,3.135735,0.138864,-0.512359,10.070012,0.068110,0.026606,0.105358,24.877734,10.127344,22.950000
28.665753,-0.900155,-0.439563,0.060814,3.132372,0.316035,-0.464475,9.940725,-0.003193,0.028734,0.075560,24.527344,11.175000,24.637500
28.766883,-1.315488,-0.448620,0.072381,3.116565,0.474052,-0.584185,10.146627,-0.014899,-0.022349,0.104294,24.527344,11.524219,24.975000
28.869360,-1.060176,-0.462794,0.085895,3.108619,0.627281,-0.627281,10.055647,0.030863,0.029798,0.025541,24.527344,11.524219,24.975000
28.970686,-0.916291,-0.433202,0.071297,3.136413,0.349553,-0.684742,9.983821,0.001064,0.046826,0.029798,24.001758,11.000391,23.793750
29.071614,-0.969398,-0.452603,0.075422,3.138775,0.411803,-0.651223,10.208876,0.021284,0.052147,-0.001064,24.702539,12.397266,24.468750
29.173088,-0.821557,-0.473661,0.077175,-3.135464,0.268151,-0.699107,10.137050,0.050019,-0.015963,-0.012771,24.001758,12.746484,23.793750
29.275317,-0.891627,-0.486413,0.062712,-3.130617,0.205901,-0.603339,10.208876,0.026606,-0.030863,-0.018092,24.001758,12.746484,23.793750
29.377419,-0.924911,-0.494343,0.062346,3.126740,0.454898,-0.603339,10.137050,-0.021284,0.006385,0.032991,24.001758,12.746484,23.793750
29.478628,-1.212022,-0.401686,0.066480,3.132106,0.277727,-0.656011,10.180145,-0.013835,0.041505,0.043633,23.651367,9.952734,23.456250
29.580779,-0.802059,-0.418560,0.068233,-3.140740,0.162806,-0.646434,10.122685,0.021284,0.003193,0.010642,24.001758,11.000391,22.781250
29.681926,-0.845853,-0.464909,0.064592,-3.140726,0.301669,-0.545878,10.280702,0.027670,-0.003193,0.027670,24.001758,12.048047,24.131250
29.783270,-0.659910,-0.475768,0.066275,3.139669,0.368707,-0.555455,9.974244,0.006385,-0.007450,-0.005321,24.001758,12.048047,24.131250
29.884747,-0.815252,-0.389404,0.073840,3.113192,0.483629,-0.593762,10.122685,0.020220,0.025541,0.026606,25.753711,10.301953,23.118750
29.986593,-0.898941,-0.427804,0.076943,3.122825,0.435745,-0.660800,10.141838,0.011706,-0.005321,0.006385,22.249805,9.952734,24.806250
30.088400,-0.724589,-0.406111,0.054824,3.126794,0.469264,-0.411803,10.026917,0.050019,0.014899,0.007450,23.651367,9.603516,23.456250
30.190868,-0.848821,-0.394489,0.060145,3.127869,0.402226,-0.454898,10.160992,0.038312,0.021284,-0.004257,23.651367,9.603516,23.456250
30.293044,-0.902605,-0.410194,0.065861,-3.130676,0.043096,-0.450110,10.453084,-0.072367,0.038312,-0.010642,24.527344,10.825781,23.625000
30.395207,-0.954024,-0.431876,0.054285,-3.140154,0.210690,-0.612916,10.299856,-0.075560,-0.054275,0.020220,25.228125,11.873437,23.287500
30.497040,-0.900235,-0.430932,0.111480,3.116346,0.617704,-0.962469,10.572795,-0.488479,0.348001,0.005321,25.403320,10.651172,25.481250
30.598508,-0.680235,-0.382621,0.160191,-3.076346,-0.052672,-1.742979,9.811438,-0.334166,0.218166,-0.014899,28.206445,13.095703,26.493750
30.700243,-0.959835,-0.385091,0.153405,-3.043233,-0.196325,-1.833958,9.911995,-0.089395,-0.046826,-0.062789,30.308789,14.841797,24.806250
30.802122,-1.025557,-0.372635,0.180116,-3.050694,-0.172383,-1.915361,9.878476,-0.184111,-0.046826,0.028734,31.535156,14.317969,24.975000
30.904669,-0.732476,-0.359026,0.224776,-3.047723,-0.076614,-2.427720,9.758766,-0.416112,0.096844,0.060661,33.812695,14.143359,24.131250
31.006226,-0.703043,-0.354243,0.248444,-2.986995,-0.550666,-2.920926,9.835380,-0.317139,0.053211,0.019156,34.688672,15.714844,23.287500
31.107614,-0.977089,-0.377134,0.279511,-2.976289,-0.531513,-3.169923,9.552865,-0.320332,0.070239,-0.020220,34.688672,15.714844,23.287500
31.209024,-0.915004,-0.362265,0.337279,-2.974504,-0.363919,-3.519476,9.409213,-0.239450,-0.004257,-0.106422,36.615820,15.191016,23.456250
31.311219,-0.996321,-0.360515,0.351233,-2.973652,-0.450110,-3.725378,9.495404,-0.455488,0.030863,0.110679,38.192578,16.064062,23.287500
31.412581,-0.984475,-0.362620,0.393566,-2.905313,-0.905008,-4.185065,8.757990,-0.275634,-0.051083,-0.069175,40.294922,16.413281,22.275000
31.514558,-1.094379,-0.396910,0.444048,-2.927849,-0.387861,-4.592079,8.848969,-0.334166,0.053211,0.055340,41.521289,17.635547,22.443750
31.616719,-1.256144,-0.356800,0.472909,-2.923857,-0.474052,-4.879383,8.815451,-0.464002,-0.029798,0.141542,44.324414,15.540234,19.068750
31.717450,-0.884903,-0.349739,0.494170,-2.919178,-0.488417,-5.123592,8.638280,-0.152184,0.022349,0.051083,49.054688,16.064062,19.575000
31.819153,-0.813003,-0.431993,0.517723,-2.826979,-0.914585,-5.554548,8.245631,-0.234129,-0.024477,0.029798,49.405078,18.159375,16.537500
31.921205,-0.912732,-0.386954,0.557107,-2.920321,-0.023942,-5.497087,7.967903,-0.219230,-0.015963,-0.140478,50.806641,17.111719,16.875000
32.022954,-0.686736,-0.410985,0.565239,-2.864839,-0.402226,-5.851429,8.044518,-0.292662,0.074496,-0.020220,51.157031,17.460938,16.200000
32.124041,-1.219789,-0.425121,0.591422,-2.822453,-0.651223,-6.263232,7.924807,-0.255414,0.000000,0.015963,52.208203,16.413281,13.500000
32.225558,-0.772910,-0.425781,0.613589,-2.841137,-0.392649,-6.229713,7.843405,-0.153248,-0.058532,0.042569,52.733789,16.937109,11.981250
32.326866,-1.178652,-0.466785,0.641996,-2.786613,-0.632069,-6.670246,7.618350,-0.236258,-0.001064,0.250093,53.960156,17.810156,12.150000
32.428258,-0.921754,-0.509719,0.662393,-2.740809,-0.603339,-6.603208,7.082049,-0.188368,-0.085138,0.076624,53.960156,17.810156,12.150000
32.529929,-0.966256,-0.504812,0.658351,-2.742194,-0.665588,-6.440402,6.914454,-0.119193,-0.062789,0.017028,53.960156,17.810156,12.150000
32.632235,-1.067625,-0.551658,0.719482,-2.679409,-0.737414,-7.182605,6.560113,-0.185175,-0.007450,0.111744,56.763281,17.111719,7.762500
32.734797,-0.823380,-0.560243,0.702579,-2.666227,-0.876278,-7.120356,6.564901,-0.083009,-0.111744,-0.014899,58.164844,16.762500,8.100000
32.836371,-1.145080,-0.614831,0.742987,-2.651887,-0.344765,-7.580042,6.459556,-0.068110,-0.072367,-0.013835,60.442383,18.683203,5.906250
32.938801,-0.726376,-0.603207,0.780637,-2.692338,-0.071826,-7.709329,6.531382,-0.230937,-0.087266,-0.102166,60.442383,18.683203,5.906250
33.039976,-1.017628,-0.648898,0.825547,-2.645836,0.282516,-7.891289,5.961562,0.091523,0.046826,-0.379928,61.493555,16.937109,4.893750
33.141451,-0.793720,-0.605259,0.810459,-2.642230,-0.727837,-8.216900,5.770026,-0.110679,0.019156,-0.287341,60.267187,15.365625,3.037500
33.242938,-0.970604,-0.638926,0.879474,-2.589097,-0.272939,-8.427590,5.492299,-0.489543,0.069175,-0.225616,59.391211,13.444922,1.856250
33.344712,-0.898474,-0.681430,0.911266,-2.576377,0.282516,-7.939173,5.228936,-1.249399,0.312882,0.086202,59.391211,13.444922,1.856250
33.447198,-0.943485,-0.911328,0.953595,-2.335638,-0.627281,-8.590396,3.385401,-0.602351,0.068110,-0.120257,64.647070,16.238672,-7.931250
33.548354,-1.022837,-1.120756,0.948234,-2.195752,0.383072,-9.289502,3.318364,-0.768370,0.054275,-0.322460,64.647070,13.095703,-11.306250
33.649358,-1.040617,-1.314596,0.958636,-1.983040,0.866701,-9.303868,1.881843,-0.760920,0.089395,-0.006385,63.595898,12.397266,-16.031250
33.751436,-0.870732,-1.372544,0.909414,-1.931064,0.679953,-9.509769,1.158794,-0.462938,0.021284,-0.028734,63.595898,12.397266,-16.031250
33.853591,-0.670594,-1.439521,0.816319,-1.874484,0.646434,-9.639056,0.938527,-0.037248,0.122386,0.007450,63.595898,12.397266,-16.031250
33.955141,-0.802030,-1.407875,0.709266,-1.895174,0.287304,-9.399636,0.651223,-0.235194,-0.008514,0.194753,65.172656,12.571875,-22.275000
34.056636,-0.839353,-1.419358,0.625148,-1.862599,0.033519,-9.418789,0.124498,-0.356515,0.002128,-0.022349,65.523047,12.571875,-24.300000
34.159048,-0.723393,-1.451428,0.498300,-1.844695,0.292093,-9.653421,0.205901,0.015963,0.074496,0.053211,66.048633,13.794141,-24.806250
34.260889,-1.256437,-1.481061,0.370018,-1.812061,0.196325,-9.768343,0.057461,-0.087266,-0.007450,0.067046,67.099805,14.492578,-25.481250
34.362667,-0.878762,-1.496194,0.222636,-1.795983,0.129287,-9.706094,-0.028730,-0.050019,0.004257,-0.008514,66.048633,14.841797,-26.831250
34.464806,-0.924097,-1.512514,0.069202,-1.775883,0.196325,-9.725247,-0.004788,-0.013835,0.014899,0.000000,66.924609,13.619531,-28.012500
34.566803,-0.759988,-1.532279,-0.079616,-1.744368,0.067038,-9.576807,-0.086191,-0.006385,0.022349,-0.017028,66.399023,14.492578,-26.831250
34.668518,-0.968037,-1.544447,-0.240023,-1.716720,0.095768,-9.892841,-0.114922,0.006385,0.012771,0.007450,66.399023,14.492578,-26.831250
34.769966,-1.181849,-1.546984,-0.407336,-1.681968,0.043096,-9.696517,-0.316035,0.012771,0.018092,-0.005321,67.099805,12.746484,-26.156250
34.871289,-0.927479,-1.560601,-0.583652,-1.670865,0.239420,-9.883264,-0.181959,0.010642,0.001064,0.020220,65.698242,12.746484,-28.181250
34.973788,-0.751120,-1.565040,-0.746693,-1.626759,0.119710,-9.749189,-0.205901,0.022349,0.018092,0.009578,66.574219,12.921094,-25.650000
35.074964,-0.802039,-1.578267,-0.907187,-1.601779,0.225055,-9.662998,-0.172383,-0.004257,0.005321,0.018092,66.574219,12.921094,-25.650000
35.177076,-0.929399,-1.567534,-1.023731,-1.554749,0.225055,-9.662998,-0.167594,-0.039376,0.005321,-0.009578,66.574219,14.317969,-25.650000
35.279217,-0.736204,-1.572178,-1.095453,-1.560957,0.181959,-9.581595,-0.129287,0.010642,0.018092,0.015963,66.048633,14.492578,-27.168750
35.381198,-1.095564,-1.575185,-1.130199,-1.554437,0.124498,-9.955091,-0.320823,0.098973,0.040441,0.095780,66.399023,14.841797,-27.843750
35.482892,-1.003575,-1.540396,-1.103172,-1.530873,-0.062249,-9.902418,-0.110133,-0.022349,-0.008514,0.021284,66.399023,14.841797,-27.843750
35.584371,-0.662233,-1.556371,-1.101070,-1.524542,0.124498,-9.653421,-0.086191,0.000000,0.004257,0.008514,66.399023,15.191016,-24.468750
35.686241,-0.915655,-1.587238,-1.067267,-1.567150,0.124498,-9.677363,-0.071826,0.007450,0.010642,0.017028,66.399023,15.191016,-24.468750
35.787529,-0.542131,-1.542035,-1.083338,-1.525302,0.124498,-9.801862,-0.038307,-0.063853,-0.006385,0.003193,67.099805,15.191016,-25.818750
35.889605,-0.849949,-1.540745,-1.104998,-1.524454,0.019154,-9.768343,-0.177171,0.137285,0.022349,0.063853,66.749414,14.143359,-27.168750
35.991118,-0.655613,-1.544045,-1.104362,-1.542458,0.124498,-9.773131,-0.114922,0.116000,0.038312,0.031927,66.574219,14.667187,-26.325000
36.092416,-0.881937,-1.595255,-1.049164,-1.604924,-0.062249,-9.835380,0.153229,0.240515,0.061725,0.035119,67.450195,15.191016,-25.481250
36.194480,-0.451040,-1.642239,-1.021812,-1.651566,-0.095768,-9.792285,0.368707,0.246900,0.038312,0.018092,67.275000,14.667187,-25.312500
36.295964,-0.916876,-1.664625,-0.957696,-1.660533,0.047884,-9.710882,0.641646,-0.027670,-0.001064,-0.026606,67.099805,15.191016,-22.106250
36.397939,-0.624617,-1.608872,-0.928216,-1.617426,-0.014365,-9.758766,0.301669,-0.135156,-0.024477,-0.029798,67.800586,15.191016,-23.456250
36.499200,-0.644884,-1.668359,-0.942789,-1.677386,0.220267,-9.682152,0.497994,-0.037248,0.006385,-0.001064,65.698242,15.191016,-23.793750
36.600811,-0.873427,-1.610471,-0.978192,-1.593854,0.258574,-9.706094,0.110133,-0.211781,-0.050019,-0.004257,67.275000,15.016406,-23.962500
36.701751,-0.940841,-1.569848,-1.010484,-1.580882,-0.023942,-9.768343,0.019154,0.004257,0.021284,0.018092,67.275000,14.667187,-23.287500
36.803115,-0.918642,-1.602576,-1.033782,-1.573324,0.225055,-9.691728,0.004788,0.005321,0.005321,0.026606,67.450195,15.540234,-25.481250
36.904948,-0.854608,-1.608129,-1.036212,-1.580882,0.153229,-9.816227,0.105345,0.019156,0.008514,0.011706,67.450195,15.889453,-24.806250
37.006541,-0.671402,-1.608382,-1.032618,-1.595931,0.181959,-9.581595,0.100556,0.002128,0.009578,0.009578,67.450195,15.889453,-24.806250
37.108194,-1.052692,-1.574270,-1.084702,-1.571902,0.134075,-9.581595,-0.057461,0.015963,0.006385,0.015963,66.399023,13.794141,-25.481250
37.210153,-0.820681,-1.603348,-1.105817,-1.595814,0.076614,-9.739612,0.057461,0.004257,0.005321,0.006385,67.800586,13.444922,-26.831250
37.312184,-0.987906,-1.584827,-1.071760,-1.574554,0.086191,-9.864111,0.081403,-0.031927,-0.014899,0.006385,66.574219,15.365625,-25.650000
37.414607,-0.911766,-1.586587,-1.052090,-1.570208,0.114922,-9.586383,-0.124498,0.068110,0.024477,0.036184,67.625391,16.064062,-25.650000
37.516049,-1.053102,-1.531130,-1.033787,-1.530005,-0.023942,-9.662998,-0.210690,-0.051083,0.000000,0.021284,67.625391,16.064062,-25.650000
37.617593,-0.678184,-1.578482,-1.032892,-1.575711,0.028730,-9.653421,-0.057461,0.078753,0.013835,0.020220,67.975781,14.667187,-24.975000
37.719744,-0.674743,-1.616960,-1.051323,-1.605825,0.162806,-9.768343,0.186748,0.014899,0.004257,0.042569,67.099805,14.492578,-25.143750
37.821778,-1.071425,-1.551583,-1.035683,-1.546760,-0.023942,-9.921572,-0.124498,-0.006385,0.002128,0.030863,67.625391,15.365625,-24.975000
37.923342,-0.921145,-1.574916,-1.020761,-1.559006,0.138864,-9.528923,-0.043096,0.000000,-0.012771,-0.007450,66.924609,15.016406,-24.300000
38.025390,-0.757258,-1.585432,-1.014430,-1.581097,0.071826,-9.744401,-0.038307,0.091523,0.019156,0.039376,66.924609,15.016406,-24.300000
38.127569,-0.891593,-1.601469,-1.015232,-1.596287,0.023942,-9.758766,0.320823,0.363965,0.054275,0.160698,67.099805,16.937109,-24.131250
38.229505,-0.979332,-1.648022,-0.906950,-1.664351,-0.201113,-9.969456,0.756568,0.511892,0.053211,0.042569,68.150977,15.540234,-19.743750
38.331388,-0.758818,-1.708933,-0.801339,-1.749446,-0.100556,-9.528923,1.345541,0.384185,0.047890,0.000000,68.150977,15.540234,-19.743750
38.432977,-0.862472,-1.702175,-0.698207,-1.751610,-0.110133,-9.548076,1.623269,0.159634,0.023413,-0.031927,66.399023,15.540234,-17.718750
38.535255,-0.919285,-1.695246,-0.609916,-1.747016,-0.023942,-9.667786,1.776498,0.039376,0.010642,0.022349,67.099805,16.238672,-17.381250
38.636248,-1.226703,-1.654239,-0.532942,-1.750340,-0.158017,-9.562441,1.738190,-0.003193,0.002128,0.026606,67.450195,15.191016,-16.706250
38.737980,-0.669351,-1.647516,-0.475276,-1.745851,-0.153229,-9.557653,1.742979,0.022349,0.004257,-0.011706,67.450195,15.889453,-17.718750
38.840123,-0.856870,-1.642329,-0.427159,-1.728124,-0.076614,-9.629479,1.522712,0.102166,0.003193,0.021284,66.749414,15.191016,-16.706250
38.941799,-1.006936,-1.634998,-0.364496,-1.741016,-0.009577,-9.753978,1.757344,0.011706,-0.014899,0.007450,66.399023,15.191016,-15.693750
39.043596,-1.015400,-1.640653,-0.311524,-1.769955,-0.004788,-9.591172,1.929727,0.030863,-0.002128,0.021284,66.399023,15.191016,-15.693750
39.145363,-0.948374,-1.612352,-0.268931,-1.754424,-0.100556,-9.639056,1.910573,0.155377,0.010642,0.089395,66.924609,16.413281,-15.525000
39.246526,-0.691452,-1.589979,-0.225535,-1.763464,-0.181959,-9.787496,2.063802,0.051083,-0.032991,0.051083,67.975781,14.317969,-15.525000
39.348998,-0.744924,-1.575343,-0.176080,-1.763571,-0.282516,-9.753978,2.111686,0.240515,0.015963,0.012771,66.574219,17.460938,-14.850000
39.451298,-0.867457,-1.569679,-0.124431,-1.793339,-0.287304,-9.514557,2.408567,0.185175,0.027670,0.032991,66.749414,15.889453,-15.356250
39.552655,-1.108481,-1.541201,-0.031640,-1.784112,-0.325611,-9.452308,2.432509,0.139413,0.018092,0.071303,66.399023,17.286328,-12.656250
39.654777,-0.823127,-1.515112,0.076805,-1.801377,-0.320823,-9.533711,2.585738,0.104294,0.012771,-0.014899,66.749414,16.238672,-11.643750
39.756046,-0.751315,-1.478681,0.172717,-1.835634,-0.354342,-9.423578,2.810793,0.116000,0.015963,0.027670,66.048633,17.286328,-10.631250
39.857304,-0.781824,-1.456919,0.264507,-1.839596,-0.287304,-9.342175,2.576161,0.089395,0.014899,0.050019,65.698242,15.889453,-10.968750
39.958961,-1.007955,-1.417024,0.338898,-1.878752,-0.383072,-9.222465,2.849100,0.111744,0.015963,0.047890,65.698242,15.889453,-10.968750
40.061079,-0.823474,-1.385223,0.403483,-1.904620,-0.373495,-9.260772,3.064578,0.034055,0.002128,0.014899,65.698242,15.889453,-10.968750
40.162485,-1.005117,-1.374323,0.444797,-1.906916,-0.368707,-9.442731,3.088520,0.054275,0.012771,0.022349,66.574219,17.810156,-9.450000
40.263706,-1.017471,-1.373245,0.469037,-1.916155,-0.359130,-9.222465,2.935291,0.076624,0.006385,0.036184,66.223828,18.159375,-9.112500
40.365677,-1.067534,-1.322362,0.522323,-1.946437,-0.416591,-9.370905,3.308787,0.062789,-0.002128,0.007450,66.399023,17.286328,-7.593750
40.466722,-1.023188,-1.309845,0.549026,-1.966975,-0.387861,-9.193734,3.332729,0.068110,-0.020220,-0.002128,66.399023,17.286328,-7.593750
40.568070,-0.746124,-1.285262,0.589673,-1.997521,-0.402226,-9.198523,3.323152,0.117065,-0.006385,0.005321,66.924609,16.762500,-7.425000
40.670451,-0.517332,-1.271785,0.608560,-2.021125,-0.311246,-9.222465,3.466804,0.122386,-0.018092,0.055340,65.698242,18.333984,-6.918750
40.771282,-0.998181,-1.256454,0.623132,-2.013497,-0.407014,-9.246407,3.404555,0.105358,-0.070239,0.055340,65.523047,18.508594,-6.750000
40.871939,-0.982021,-1.206642,0.648412,-2.070506,-0.407014,-9.184158,3.782839,0.181982,-0.064918,0.060661,64.997461,17.286328,-6.243750
40.973330,-0.833094,-1.164075,0.659091,-2.109422,-0.497994,-8.887277,4.108450,0.274570,-0.011706,0.027670,64.997461,17.286328,-6.243750
41.074724,-0.853732,-1.106780,0.724928,-2.157205,-0.277727,-9.016563,4.151546,0.217102,0.052147,-0.005321,65.523047,17.111719,-4.050000
41.176830,-0.881867,-1.025388,0.742269,-2.237609,-0.493206,-8.791508,4.434061,0.140478,-0.005321,0.063853,63.946289,17.286328,-3.543750
41.278496,-0.891342,-0.999775,0.769645,-2.254594,-0.474052,-8.796297,4.443638,0.175597,0.028734,0.017028,63.771094,16.413281,-3.037500
41.379631,-0.957663,-0.955488,0.779356,-2.297505,-0.531513,-8.547300,4.764461,0.175597,0.000000,0.021284,63.245508,16.937109,-2.531250
41.482026,-0.835341,-0.900449,0.785645,-2.362765,-0.296881,-8.456320,4.955997,0.242643,0.000000,0.006385,63.245508,16.937109,-2.531250
41.583389,-0.890563,-0.851264,0.797810,-2.400770,-0.464475,-8.451532,5.181052,0.245836,0.023413,0.003193,61.493555,17.635547,0.168750
41.685012,-1.104034,-0.806170,0.801954,-2.443651,-0.593762,-8.379706,5.382165,0.188368,-0.012771,0.014899,62.895117,16.587891,0.506250
41.786538,-0.984933,-0.754634,0.784506,-2.487516,-0.708684,-8.226477,5.568913,0.280955,0.031927,0.009578,59.916797,17.460938,2.700000
41.888571,-0.803327,-0.681071,0.789864,-2.579357,-0.248997,-7.876923,5.813122,0.333102,-0.022349,-0.035119,59.916797,16.762500,4.387500
41.990326,-0.912424,-0.600793,0.779962,-2.671869,-0.225055,-7.661445,6.248866,0.229872,-0.057468,-0.024477,59.916797,16.762500,4.387500
42.091583,-1.011389,-0.538123,0.790220,-2.713619,-0.196325,-7.690176,6.440402,0.294790,0.037248,-0.014899,59.391211,15.191016,5.906250
42.193115,-0.825615,-0.540222,0.734736,-2.722463,-0.387861,-7.407660,6.904878,0.241579,0.026606,-0.025541,56.588086,16.937109,7.593750
42.294160,-0.749697,-0.557224,0.747690,-2.716169,-0.177171,-7.316680,6.598420,0.030863,0.029798,-0.063853,55.011328,17.460938,7.762500
42.395434,-0.991749,-0.561856,0.733542,-2.714343,0.052672,-7.402872,6.392518,0.097909,-0.011706,0.017028,55.011328,17.460938,7.762500
42.497778,-0.999973,-0.539102,0.710795,-2.725018,-0.435745,-7.144298,6.852205,0.133028,0.040441,0.025541,53.434570,17.286328,8.943750
42.599242,-1.002188,-0.514158,0.698844,-2.745969,-0.435745,-7.072472,7.005434,0.114936,0.014899,-0.011706,55.712109,17.111719,10.125000
42.701133,-1.196030,-0.514771,0.709053,-2.761451,-0.239420,-7.134721,6.952762,0.204331,0.037248,-0.009578,52.558594,17.460938,11.137500
42.802468,-0.987024,-0.492767,0.670926,-2.794988,-0.248997,-6.871359,7.460332,0.155377,0.026606,-0.018092,52.558594,17.460938,11.137500
42.904500,-0.867852,-0.496666,0.675176,-2.777430,-0.119710,-6.938396,6.971915,0.159634,0.017028,-0.021284,52.558594,17.460938,11.137500
43.005907,-0.978341,-0.449519,0.649484,-2.818993,-0.632069,-6.569689,7.809886,0.143670,0.011706,-0.007450,52.558594,16.762500,12.150000
43.106726,-1.036044,-0.481224,0.629517,-2.800301,-0.071826,-6.598420,7.307103,0.153248,0.019156,-0.073431,50.806641,17.810156,12.150000
43.208770,-1.263617,-0.406639,0.641858,-2.869225,0.119710,-6.651092,7.335834,0.204331,0.006385,-0.070239,49.580273,15.540234,14.681250
43.310530,-0.892694,-0.414261,0.605111,-2.851173,-0.526724,-6.086061,7.762002,0.306497,0.057468,-0.050019,49.405078,16.413281,14.850000
43.411553,-1.069794,-0.419981,0.573747,-2.903512,-0.019154,-5.975927,8.374917,0.164955,0.022349,0.136221,48.353906,17.111719,13.837500
43.513960,-0.838467,-0.441580,0.590063,-2.849464,-0.287304,-6.071695,7.943961,0.084074,-0.089395,0.140478,46.426758,16.937109,15.356250
43.615517,-1.094429,-0.403596,0.520970,-2.886367,-0.474052,-5.497087,8.427590,0.487415,-0.002128,-0.103230,46.777148,16.587891,15.693750
43.717739,-1.195327,-0.371753,0.524986,-2.946929,-0.038307,-5.324704,8.571242,0.003193,0.002128,0.069175,44.674805,15.540234,17.718750
43.819068,-0.851847,-0.407894,0.497038,-2.904641,-0.339977,-4.999093,8.437167,-0.039376,-0.229872,0.205395,44.674805,17.286328,16.368750
43.920764,-0.886263,-0.358985,0.490738,-2.914925,-0.555455,-5.085284,8.499416,0.349066,-0.404405,-0.102166,46.426758,15.540234,16.706250
44.022235,-0.933752,-0.294689,0.492192,-3.021924,0.215478,-4.955997,8.930372,0.108551,-0.062789,0.060661,43.798828,12.571875,16.537500
44.124117,-0.978286,-0.351480,0.459157,-3.009179,0.220267,-4.649540,8.896853,0.237322,-0.044697,0.039376,42.747656,15.365625,15.525000
44.226273,-0.862092,-0.311434,0.432498,-3.007395,0.095768,-4.252102,8.786720,0.269249,-0.079817,-0.015963,42.222070,13.794141,17.718750
44.327235,-1.074584,-0.320266,0.458077,-3.092836,0.952892,-4.577714,9.260772,0.135156,0.027670,0.022349,40.995703,13.270312,18.562500
44.428890,-0.915869,-0.333819,0.407927,-3.066782,0.622492,-4.137180,9.409213,0.345873,0.053211,0.038312,40.294922,15.016406,18.225000
44.530418,-0.956418,-0.352894,0.357359,-3.023584,0.105345,-3.787627,9.476250,0.445910,0.306497,0.026606,40.294922,15.016406,18.225000
44.632677,-1.143671,-0.409129,0.344958,-3.035970,0.517148,-3.390190,9.414001,0.205395,0.155377,0.138349,36.265430,16.587891,21.093750
44.734493,-0.795118,-0.321177,0.264533,-3.022546,-0.828394,-2.480393,9.150639,0.128771,0.311818,0.233065,34.688672,12.571875,21.600000
44.836321,-0.943867,-0.367781,0.168202,-2.938174,-1.273715,-2.288857,9.394847,0.304368,0.077688,0.116000,36.090234,17.111719,22.275000
44.938122,-0.715230,-0.369506,0.195633,-2.942929,-1.268927,-2.940080,10.309432,0.607672,-0.025541,0.039376,34.863867,16.587891,23.118750
45.039530,-0.881494,-0.385967,0.074420,-2.985017,-1.039084,-0.723049,8.633491,0.698131,-0.088331,-0.303304,32.411133,17.635547,24.131250
45.141460,-0.974686,-0.499229,0.165298,-3.078238,0.387861,-2.116474,10.342951,-0.118129,-0.103230,-0.007450,27.155273,17.286328,25.481250
45.243852,-0.919431,-0.502724,0.130540,-3.032866,-0.229843,-1.886631,10.261548,-0.001064,-0.107487,-0.026606,26.980078,17.460938,25.312500
45.345050,-1.032442,-0.497259,0.093958,-3.090917,-0.090980,-1.134852,10.103531,0.063853,0.002128,-0.011706,26.629687,16.064062,23.287500
45.446837,-1.031381,-0.452965,0.072554,-3.071608,-0.363919,-0.991199,9.911995,-0.074496,-0.002128,-0.018092,27.155273,15.191016,23.118750
45.548410,-1.077425,-0.462919,0.112485,-3.042289,-0.292093,-1.479617,10.141838,-0.046826,0.011706,-0.077688,27.155273,15.191016,23.118750
45.650320,-0.837827,-0.448066,0.116471,-3.042461,-0.474052,-1.484405,9.988609,0.056404,0.007450,-0.096844,27.330469,15.714844,24.975000
