Time, Altitude, Yaw, Pitch, Roll, Ax, Ay, Az, Pitch_rate, Roll_rate,Yaw_rate, Magx, Magy, Magz0.843081,0.672415,-0.170023,0.023753,0.053984,0.009577,0.378284,9.624691,0.017028,0.026606,0.007450,37.350586,82.655859,24.633984
0.943215,0.389803,-0.357849,0.029977,0.106294,-0.019154,0.215478,9.720459,0.018092,0.028734,0.007450,37.350586,82.655859,24.633984
1.043449,0.176240,-0.539492,0.018980,0.142279,-0.047884,0.244209,9.452308,0.018092,0.028734,0.007450,37.350586,82.655859,24.633984
1.144121,0.206704,-0.713438,0.000176,0.153511,0.009577,0.277727,9.667786,0.013835,0.031927,0.008514,37.350586,82.655859,24.633984
1.245756,0.204982,-0.878742,-0.017889,0.135450,0.038307,0.196325,9.701305,0.018092,0.030863,0.007450,35.384766,82.835156,23.428125
1.347787,0.126251,-1.033320,-0.023527,0.087469,-0.071826,0.186748,9.777920,0.018092,0.028734,0.007450,36.814453,83.910938,24.461719
1.449057,0.034395,-1.170527,-0.018560,0.014366,-0.009577,0.191536,9.624691,0.017028,0.029798,0.007450,33.597656,81.400781,24.117188
1.550428,0.205778,-1.162404,-0.030455,0.003855,0.057461,0.292093,9.682152,0.015963,0.030863,0.007450,35.563477,82.655859,24.289453
1.652422,0.261696,-1.152423,-0.008879,0.012495,-0.114922,0.119710,9.682152,0.015963,0.028734,0.006385,36.099609,81.400781,25.150781
1.754323,0.115657,-1.145708,-0.006046,0.009773,-0.086191,0.162806,9.591172,0.017028,0.031927,0.007450,36.099609,81.400781,25.150781
1.855868,-0.126593,-1.165650,-0.019347,0.014206,-0.028730,0.196325,9.691728,0.015963,0.029798,0.006385,34.669922,82.835156,25.495313
1.957673,0.067190,-1.161325,-0.007009,0.011480,-0.043096,0.134075,9.672575,0.015963,0.023413,0.009578,35.206055,81.580078,24.978516
2.059101,-0.387339,-1.156814,-0.028736,0.038604,-0.411803,0.440533,9.706094,0.013835,0.027670,0.004257,35.384766,82.117969,24.806250
2.160677,0.067241,-1.147711,-0.057576,0.059382,-0.306458,1.268927,9.351752,-0.005321,-0.017028,-0.626828,36.993164,81.938672,26.012109
2.262164,-0.183806,-1.190398,0.007587,0.038881,0.014365,-0.699107,11.070788,0.019156,0.044697,-0.853508,35.384766,82.117969,24.461719
2.363577,0.061752,-1.156177,-0.004259,-0.038928,0.344765,-0.081403,9.777920,0.002128,0.004257,-0.289469,37.350586,78.352734,26.356641
2.465817,0.104562,-1.085903,-0.006124,-0.011487,0.421379,0.119710,9.921572,0.025541,0.041505,1.162133,38.780273,78.352734,27.045703
2.567566,0.035630,-0.988802,-0.012403,-0.004547,-2.643199,-0.047884,13.014880,-0.018092,0.041505,1.631456,35.206055,80.145703,23.944922
2.668951,-0.188070,-1.126113,-0.056724,0.046177,1.158794,1.177947,8.992621,0.022349,0.042569,-1.605914,30.380859,82.476562,24.806250
2.770733,-0.131028,-1.301290,-0.011430,-0.012635,1.369483,0.062249,12.837709,0.036184,-0.002128,-1.681474,36.278320,80.862891,25.323047
2.872240,-0.097441,-1.090736,-0.011129,-0.089290,0.651223,-1.106121,7.934384,-0.026606,-0.046826,2.931938,38.244141,77.097656,25.495313
2.973793,-0.252628,-1.046267,-0.044836,0.039918,0.928950,1.561019,9.816227,0.017028,0.026606,-0.471451,30.380859,82.476562,25.150781
3.075529,0.161550,-1.273366,-0.028334,0.022117,0.464475,0.129287,8.825027,0.022349,0.047890,-2.269990,35.384766,80.325000,26.873438
3.177736,-0.136514,-1.179726,0.005244,-0.039196,0.560243,-0.517148,9.471462,0.034055,0.017028,2.050760,38.601562,78.173437,25.839844
3.279240,0.022086,-0.998558,-0.023410,0.014309,-0.679953,0.890643,9.610325,0.010642,0.013835,0.962059,30.916992,82.297266,27.390234
3.381100,-0.021149,-1.243735,-0.047511,0.065100,-1.920150,0.890643,7.852981,0.020220,0.028734,-3.106471,34.848633,80.504297,27.045703
3.482763,-0.265418,-1.249783,0.013699,-0.031667,-0.009577,-1.790863,8.738836,0.039376,0.131964,2.404083,34.848633,80.504297,27.045703
3.584855,-0.298255,-0.983230,-0.012710,0.033586,-0.785298,2.082955,9.849746,0.018092,0.037248,0.481029,39.316406,77.456250,25.150781
3.686004,-0.126490,-1.269674,-0.011094,0.076182,-0.272939,1.738190,11.214441,0.029798,0.045762,-2.830837,31.095703,84.269531,24.117188
3.787752,-0.097910,-1.203972,0.006300,-0.026548,1.086968,-1.225831,9.279926,0.011706,0.085138,2.587129,37.708008,79.069922,26.356641
3.889603,0.150729,-1.008454,-0.013166,0.025372,-1.561019,0.646434,10.199299,0.010642,0.045762,1.389877,37.708008,79.069922,26.356641
3.991015,-0.147811,-1.188348,-0.051151,0.102617,-0.612916,0.531513,6.287174,0.014899,0.018092,-3.530032,37.708008,79.069922,26.356641
4.092643,-0.035804,-1.210530,-0.011851,-0.008440,0.861913,-0.837971,9.801862,0.005321,0.032991,0.495929,37.708008,79.069922,26.356641
4.194553,-0.125779,-1.022595,-0.018709,0.012283,-1.015142,1.024718,9.356540,0.021284,0.024477,1.129142,36.278320,80.862891,25.667578
4.296392,0.023267,-1.289962,-0.008426,0.055930,-0.742203,0.215478,10.323798,-0.022349,0.032991,-3.511940,30.738281,83.193750,26.528906
4.398432,0.210281,-1.171777,0.018156,-0.035255,0.033519,-0.852336,9.136274,0.027670,0.029798,2.668010,38.422852,77.994141,27.390234
4.499592,-0.145040,-1.043621,0.000201,0.044298,-0.684742,0.052672,8.978256,0.013835,0.021284,-0.648113,31.453125,83.552344,25.839844
4.601728,0.038505,-1.220017,-0.002339,0.005935,1.944092,-0.153229,9.883264,0.025541,0.035119,-0.118129,34.669922,82.476562,27.217969
4.703224,0.278358,-1.173098,-0.024511,-0.000554,0.124498,0.215478,9.768343,0.021284,0.040441,0.003193,34.491211,83.014453,25.323047
4.804425,0.292753,-1.151932,-0.032349,0.011567,-0.028730,0.225055,9.734824,0.028734,0.037248,0.007450,35.384766,80.325000,25.839844
4.907144,0.203081,-1.162795,-0.020801,0.007750,0.023942,0.172383,9.595960,0.011706,0.028734,0.006385,35.027344,80.683594,25.150781
5.009103,-0.069983,-1.157691,-0.003917,0.015431,-0.282516,0.129287,9.629479,0.027670,0.041505,0.359708,35.384766,82.117969,26.184375
5.110860,-0.024935,-1.165033,-0.005468,0.032219,-0.253785,0.177171,9.758766,0.025541,0.053211,0.540626,33.597656,81.042187,25.150781
5.212572,-0.104742,-1.209221,-0.065216,0.011996,1.728614,1.656788,9.270349,0.023413,-0.021284,-1.214280,32.525391,83.193750,26.528906
5.314751,0.206123,-1.287897,-0.016954,0.018988,0.919373,0.067038,9.145850,0.026606,0.041505,-0.558718,36.635742,80.145703,25.323047
5.416858,0.143483,-1.091854,0.039424,-0.038168,0.876278,-1.455675,7.498640,0.017028,0.031927,2.635019,37.171875,81.042187,26.528906
5.518056,0.073003,-1.157779,-0.012870,0.072676,-0.799663,0.277727,7.125144,0.024477,0.020220,-1.917732,32.525391,81.042187,25.495313
5.619688,0.058887,-1.250635,-0.024977,0.026969,-0.138864,0.196325,9.677363,0.021284,0.039376,0.100037,32.525391,81.042187,25.495313
5.721501,-0.138854,-1.041829,0.003520,-0.034106,-0.057461,1.288080,11.851298,0.014899,0.057468,2.558395,35.027344,81.042187,26.528906
5.823145,0.148151,-1.207500,0.001036,0.054804,-0.397437,-0.521936,12.406753,0.023413,-0.004257,-3.442765,31.989258,82.297266,26.356641
5.924663,-0.089097,-1.219059,-0.018577,-0.013542,-0.196325,0.392649,9.581595,0.012771,0.042569,0.354387,37.529297,78.890625,26.184375
6.026393,-0.103488,-0.979729,-0.008729,-0.051384,-2.715025,0.541090,8.734048,0.032991,0.036184,2.068852,37.529297,78.890625,26.184375
6.127933,-0.037421,-1.244626,-0.011687,0.030792,-0.416591,0.177171,9.806650,0.017028,0.035119,-3.576858,29.487305,83.014453,26.356641
6.229843,0.267714,-1.232690,-0.022410,-0.014015,0.057461,0.119710,9.466673,0.045762,0.069175,0.784333,34.669922,79.607812,25.495313
6.331473,0.117043,-0.986731,-0.036627,-0.009584,-2.748544,1.259350,8.772355,0.019156,0.024477,1.513327,36.993164,78.711328,24.978516
6.432844,0.081495,-1.235488,-0.010586,0.061975,-2.331952,-0.670376,7.053318,0.002128,-0.003193,-3.206508,30.380859,83.910938,25.495313
6.534008,0.122238,-1.203725,-0.012695,-0.001359,0.320823,0.244209,9.854534,0.012771,0.024477,0.958866,38.065430,79.069922,26.701172
6.636142,0.334872,-0.988539,-0.035764,-0.017864,-2.145205,0.550666,9.715670,0.013835,0.075560,1.810245,34.312500,81.759375,24.806250
6.738447,0.065197,-1.283354,-0.010321,0.026906,0.823605,-1.067814,9.830592,0.022349,-0.003193,-3.263976,28.772461,84.807422,26.012109
6.840456,-0.204512,-1.217016,-0.026030,-0.035679,0.263362,-0.339977,9.495404,0.042569,0.074496,1.333473,37.886719,79.607812,26.184375
6.942382,0.442483,-1.013118,-0.021585,0.009515,-2.782062,1.594538,10.457873,0.011706,0.030863,0.525727,32.167969,83.193750,26.184375
7.044520,0.357349,-1.305021,-0.001140,0.029756,0.253785,-0.660800,7.857770,0.032991,0.021284,-3.071351,30.380859,83.910938,25.839844
7.146377,0.282732,-1.235732,-0.012419,-0.042382,0.478840,0.248997,9.811438,0.019156,0.032991,0.527855,38.958984,79.966406,26.528906
7.248043,0.100390,-0.939879,-0.021725,-0.036603,-1.192312,0.411803,7.948750,-0.019156,0.010642,2.846800,32.704102,83.373047,26.356641
7.349308,0.103405,-1.172624,-0.000527,0.059047,-1.565808,0.885855,12.981361,0.040441,0.020220,-4.144089,32.704102,83.373047,26.356641
7.451184,0.599019,-1.208536,-0.004647,-0.053034,0.608127,-0.474052,9.524134,0.042569,0.070239,1.784704,32.704102,83.373047,26.356641
7.553404,0.090298,-1.017719,-0.037565,0.038438,-2.504335,2.044648,9.591172,0.002128,0.008514,0.727929,28.772461,84.807422,25.667578
7.654452,0.126519,-1.311353,-0.015919,0.039511,0.588974,-0.086191,10.998962,0.039376,0.097909,-3.226728,28.772461,84.807422,25.667578
7.756410,0.155379,-1.287793,-0.019039,-0.022991,0.584185,0.526724,9.792285,0.017028,0.025541,0.413983,35.563477,83.373047,26.012109
7.857687,0.357820,-1.016414,0.004697,-0.054709,-0.158017,-0.636858,9.615114,0.017028,0.038312,2.377477,38.065430,78.352734,26.356641
7.959667,0.057643,-1.310602,0.003518,-0.004032,0.320823,0.885855,9.097966,0.002128,0.011706,-3.338471,33.597656,82.476562,27.217969
8.060919,0.178215,-1.224966,0.000635,-0.044879,0.172383,-0.325611,9.193734,0.048954,0.069175,1.925182,38.780273,79.428516,26.012109
8.162842,0.282321,-0.993557,-0.034535,0.006325,-1.541866,1.192312,9.720459,-0.004257,-0.004257,1.024848,30.023438,83.193750,25.150781
8.264309,0.103106,-1.218635,-0.058019,0.043921,0.138864,0.847547,11.008539,0.007450,0.035119,-2.688230,30.023438,83.193750,25.150781
8.365331,0.310745,-1.235030,-0.028889,-0.006259,0.023942,0.335188,9.557653,0.005321,0.020220,0.093652,34.312500,83.910938,26.873438
8.467051,0.062817,-1.036453,0.009607,-0.025977,-0.794875,0.090980,10.141838,0.003193,-0.004257,2.546689,35.742188,80.325000,26.873438
8.568824,0.401569,-1.164658,-0.031519,0.076181,-2.547431,0.612916,8.944737,0.002128,0.042569,-2.756341,30.023438,83.910938,26.873438
8.670852,0.060692,-1.256530,-0.006584,-0.012159,-0.033519,-0.158017,9.643844,0.019156,0.028734,0.200074,33.597656,80.683594,26.184375
8.772552,0.205575,-1.125779,-0.018541,-0.002416,0.248997,0.047884,9.461885,0.011706,0.025541,0.300111,36.635742,79.787109,27.734766
8.873566,0.091120,-1.175840,-0.016076,0.018247,-0.110133,0.244209,9.576807,0.014899,0.028734,0.008514,33.955078,82.117969,26.528906
8.975937,0.094487,-1.173127,-0.010507,-0.004512,0.086191,0.047884,9.519346,0.005321,0.020220,0.321396,34.133789,81.580078,27.045703
9.077408,0.247344,-1.175657,-0.007600,0.020614,-0.043096,0.177171,9.686940,0.022349,0.026606,0.006385,34.133789,81.580078,27.045703
9.179385,0.232801,-1.190108,-0.016829,0.020602,-0.076614,0.239420,9.821015,0.015963,0.025541,0.004257,32.882812,82.476562,26.528906
9.280921,-0.155817,-1.185288,-0.014870,0.010133,-0.067038,0.205901,9.639056,0.007450,0.019156,0.006385,31.631836,81.938672,26.012109
9.382794,0.148774,-1.192313,-0.016911,0.005727,-0.062249,0.186748,9.615114,0.017028,0.028734,0.005321,31.631836,81.938672,26.701172
9.484785,0.292146,-1.177643,-0.023003,0.009451,-0.067038,0.229843,9.677363,0.015963,0.024477,0.006385,32.704102,81.938672,25.667578
9.585770,0.173890,-1.198985,-0.025263,0.014520,-0.014365,0.244209,9.639056,0.019156,0.031927,0.007450,32.167969,82.835156,27.562500
9.687488,-0.106805,-1.182319,-0.028195,0.017216,-0.067038,0.268151,9.777920,0.017028,0.029798,0.007450,33.061523,82.297266,27.734766
9.788609,0.349116,-1.193606,-0.027404,0.006448,0.000000,0.201113,9.706094,0.018092,0.031927,0.005321,32.346680,82.297266,25.667578
9.890211,0.321687,-1.181922,-0.015410,0.014661,-0.110133,0.205901,9.686940,0.013835,0.027670,0.003193,32.525391,81.042187,25.839844
9.992329,0.221373,-1.187589,-0.028772,0.012669,-0.009577,0.325611,9.777920,0.019156,0.031927,0.008514,32.525391,81.042187,25.839844
10.093830,0.169200,-1.185492,-0.011124,0.006640,-0.028730,0.186748,9.710882,0.018092,0.028734,0.003193,32.704102,81.938672,26.701172
10.195073,0.130262,-1.197176,-0.016128,0.012768,-0.100556,0.138864,9.605537,0.018092,0.031927,0.007450,31.274414,80.145703,26.701172
10.296708,0.179060,-1.195312,-0.028583,0.019276,-0.062249,0.301669,9.691728,0.013835,0.028734,0.003193,32.525391,82.835156,25.839844
10.398981,0.269422,-1.178884,-0.021961,0.011900,-0.047884,0.234632,9.782708,0.017028,0.029798,0.007450,33.776367,83.014453,27.734766
10.500916,0.605733,-1.198010,-0.014975,0.020274,-0.067038,0.258574,9.701305,0.011706,0.026606,0.007450,31.989258,81.938672,27.390234
10.602910,0.215566,-1.188674,-0.026738,0.008896,-0.052672,0.244209,9.710882,0.018092,0.027670,0.007450,31.989258,81.938672,27.390234
10.704684,0.257412,-1.191163,-0.042594,0.014750,-0.019154,0.378284,9.586383,0.019156,0.032991,0.007450,31.989258,81.938672,27.390234
10.806192,0.254515,-1.185727,-0.011827,0.020021,-0.047884,0.181959,9.686940,0.011706,0.024477,0.011706,33.240234,82.117969,25.839844
10.907813,0.496878,-1.188950,-0.006177,0.020842,-0.100556,0.090980,9.528923,0.021284,0.030863,0.008514,32.704102,81.221484,25.667578
11.009386,0.430900,-1.198872,-0.002964,0.006786,-0.047884,0.129287,9.677363,0.012771,0.024477,0.007450,32.346680,83.014453,24.978516
11.111501,0.470543,-1.194488,-0.010610,0.014033,-0.090980,0.158017,9.567230,0.020220,0.030863,0.006385,32.167969,81.759375,26.873438
11.213638,0.197697,-1.187465,-0.006357,0.012910,-0.028730,0.119710,9.662998,0.020220,0.030863,0.007450,33.776367,82.655859,25.667578
11.315121,0.471424,-1.193809,-0.011726,0.017630,-0.071826,0.172383,9.662998,0.014899,0.031927,0.008514,32.882812,83.193750,26.528906
11.416895,0.592466,-1.191099,-0.034535,0.011474,-0.033519,0.292093,9.758766,0.017028,0.025541,0.004257,32.704102,83.373047,27.045703
11.519180,0.090810,-1.173751,-0.012668,0.003498,-0.014365,0.177171,9.830592,0.019156,0.031927,0.010642,33.955078,82.835156,26.528906
11.621159,0.361166,-1.177843,-0.023879,0.002418,0.052672,0.220267,9.753978,0.018092,0.029798,0.008514,33.597656,82.117969,27.562500
11.722973,0.140874,-1.173915,-0.018590,0.010675,-0.076614,0.201113,9.576807,0.018092,0.028734,0.006385,33.597656,82.117969,27.562500
11.824548,-0.180094,-1.179640,-0.033454,0.007332,0.000000,0.272939,9.768343,0.015963,0.027670,0.004257,33.061523,81.580078,26.356641
11.926329,0.642033,-1.187306,-0.016111,0.011786,-0.028730,0.220267,9.572018,0.013835,0.029798,0.008514,32.167969,80.683594,25.839844
12.028235,0.303647,-1.181461,-0.009098,0.006091,-0.028730,0.143652,9.696517,0.019156,0.029798,0.007450,33.240234,82.117969,26.873438
12.129890,0.116173,-1.188945,-0.004537,0.009712,-0.090980,0.081403,9.797073,0.017028,0.034055,0.008514,32.525391,81.759375,26.184375
12.232641,0.403319,-1.181773,-0.010890,0.030640,-0.134075,0.201113,9.658209,0.014899,0.025541,0.008514,33.240234,81.400781,24.806250
12.333815,0.251113,-1.180478,-0.005811,0.006394,-0.014365,0.138864,9.753978,0.014899,0.026606,0.008514,33.240234,81.400781,24.806250
12.435214,0.541130,-1.180107,-0.031217,0.016367,-0.052672,0.234632,9.639056,0.017028,0.028734,0.006385,33.240234,81.400781,24.806250
12.536458,0.531868,-1.184696,-0.007660,-0.006310,0.043096,0.124498,9.634267,0.017028,0.029798,0.006385,33.240234,81.400781,24.806250
12.638869,0.257269,-1.181646,-0.026054,0.004520,-0.009577,0.229843,9.744401,0.013835,0.031927,0.007450,33.061523,82.655859,27.390234
12.740024,0.311199,-1.175494,-0.018011,0.009983,-0.023942,0.186748,9.725247,0.015963,0.031927,0.007450,33.955078,82.476562,26.528906
12.842061,0.518379,-1.207104,-0.022638,0.010860,0.000000,0.258574,9.662998,0.017028,0.028734,0.005321,32.167969,82.835156,25.839844
12.943375,0.385529,-1.199747,-0.029782,0.015835,-0.009577,0.239420,9.720459,0.015963,0.029798,0.008514,32.346680,83.014453,27.045703
13.045158,0.433746,-1.185823,-0.005320,0.020790,-0.081403,0.153229,9.730036,0.019156,0.027670,0.005321,33.776367,83.373047,26.356641
13.147131,0.481161,-1.179504,0.003950,0.023434,-0.134075,0.114922,9.667786,0.018092,0.027670,0.006385,33.418945,81.938672,25.667578
13.248234,0.472428,-1.189177,-0.021950,0.003980,0.000000,0.205901,9.643844,0.018092,0.030863,0.007450,32.167969,80.683594,26.528906
13.350202,0.502059,-1.185535,-0.025048,0.018272,-0.028730,0.244209,9.758766,0.019156,0.032991,0.008514,33.597656,82.835156,25.495313
13.451836,0.653546,-1.179529,-0.019108,0.004852,0.000000,0.196325,9.792285,0.017028,0.028734,0.008514,33.597656,82.835156,25.495313
13.553676,0.540397,-1.172142,-0.018492,0.007233,-0.047884,0.201113,9.691728,0.014899,0.030863,0.010642,33.418945,81.221484,25.667578
13.655439,0.654126,-1.197710,-0.019869,0.030041,-0.148441,0.263362,9.639056,0.018092,0.025541,0.007450,31.989258,82.655859,26.356641
13.757425,0.595743,-1.190380,-0.004851,0.024097,-0.100556,0.143652,9.667786,0.019156,0.030863,0.006385,33.061523,82.655859,26.356641
13.858924,0.525848,-1.183083,-0.028839,0.018173,-0.095768,0.253785,9.662998,0.013835,0.026606,0.008514,32.525391,81.759375,25.839844
13.960776,0.773643,-1.197711,-0.023389,0.001215,0.004788,0.186748,9.572018,0.014899,0.027670,0.006385,32.525391,82.476562,24.806250
14.063107,0.462570,-1.184260,-0.024469,0.010143,0.014365,0.196325,9.696517,0.014899,0.027670,0.005321,33.418945,81.938672,25.667578
14.164922,0.748435,-1.199310,-0.006730,0.013830,-0.052672,0.129287,9.706094,0.012771,0.021284,0.008514,31.274414,80.504297,27.390234
14.266145,0.838175,-1.173244,-0.015640,0.014864,-0.047884,0.196325,9.648633,0.015963,0.034055,0.009578,34.669922,83.193750,26.528906
14.367364,0.506087,-1.189951,-0.016136,0.006177,-0.019154,0.172383,9.648633,0.021284,0.029798,0.008514,32.525391,82.476562,26.873438
14.469440,0.401209,-1.180896,-0.030818,0.009831,-0.071826,0.268151,9.610325,0.013835,0.027670,0.007450,32.882812,81.400781,25.839844
14.570644,0.727498,-1.178755,-0.031983,0.020937,-0.100556,0.248997,9.710882,0.015963,0.030863,0.010642,32.882812,81.400781,25.839844
14.672583,0.624942,-1.180763,-0.018684,0.006110,-0.019154,0.215478,9.749189,0.017028,0.025541,0.009578,32.882812,81.400781,25.839844
14.773902,0.574832,-1.179804,-0.017491,0.003834,0.004788,0.181959,9.821015,0.019156,0.030863,0.006385,32.882812,81.400781,25.839844
14.875686,0.586173,-1.190765,-0.012557,0.013612,-0.076614,0.095768,9.753978,0.013835,0.032991,0.009578,31.453125,82.835156,27.907031
14.977845,0.776704,-1.179663,-0.011002,0.007416,-0.033519,0.191536,9.667786,0.019156,0.029798,0.004257,33.240234,82.835156,26.528906
15.079774,0.687468,-1.187664,-0.019025,0.022951,-0.153229,0.215478,9.591172,0.015963,0.028734,0.009578,32.704102,83.014453,26.701172
15.181486,0.435499,-1.188784,-0.026817,0.005153,0.004788,0.277727,9.739612,0.021284,0.024477,0.007450,32.704102,83.014453,26.701172
15.282216,0.503048,-1.184755,-0.024219,0.010793,-0.081403,0.220267,9.658209,0.015963,0.027670,0.007450,32.525391,82.835156,24.461719
15.384657,0.630424,-1.175738,-0.030155,0.019838,-0.047884,0.248997,9.586383,0.019156,0.032991,0.007450,33.955078,81.400781,26.184375
15.486156,0.514542,-1.186535,-0.011225,0.021203,-0.119710,0.167594,9.667786,0.017028,0.028734,0.028734,33.776367,84.090234,27.390234
15.587559,0.261151,-1.174415,-0.028368,0.024548,-0.076614,0.253785,9.821015,0.013835,0.027670,0.006385,33.955078,81.759375,27.217969
15.689637,0.571199,-1.188833,-0.024190,0.003873,0.052672,0.229843,9.591172,0.014899,0.029798,0.009578,32.167969,81.759375,27.907031
15.790566,0.878457,-1.191642,-0.025161,0.007894,0.000000,0.205901,9.782708,0.013835,0.028734,0.005321,32.882812,83.193750,26.528906
15.891921,0.441937,-1.194035,-0.020884,0.007485,0.000000,0.220267,9.720459,0.017028,0.028734,0.004257,32.882812,83.910938,26.528906
15.993686,0.568627,-1.187482,-0.018675,0.005008,0.004788,0.191536,9.706094,0.017028,0.032991,0.003193,32.525391,82.117969,26.184375
16.095403,0.626332,-1.185410,-0.013140,0.019167,-0.062249,0.191536,9.667786,0.015963,0.028734,0.005321,33.061523,81.580078,27.045703
16.197285,0.435613,-1.184370,-0.019934,0.007761,0.033519,0.215478,9.864111,0.017028,0.028734,0.008514,32.882812,82.476562,26.873438
16.298717,0.448768,-1.186353,-0.013310,0.011347,-0.057461,0.191536,9.586383,0.014899,0.034055,-0.235194,32.882812,82.117969,26.528906
16.400835,0.459079,-1.177210,-0.011631,0.026519,-0.129287,0.215478,9.758766,0.018092,0.031927,0.006385,34.312500,83.193750,26.528906
16.502779,0.734445,-1.167458,-0.019909,0.004135,-0.033519,0.220267,9.739612,0.014899,0.030863,0.005321,33.776367,81.221484,25.667578
16.604671,0.548156,-1.181977,-0.039906,0.010399,-0.028730,0.229843,9.624691,0.015963,0.030863,-0.038312,33.418945,82.297266,25.323047
16.706291,0.619029,-1.171383,-0.031078,0.022822,-0.138864,0.402226,9.600749,0.018092,0.031927,-0.193689,34.491211,81.221484,26.012109
16.807622,0.159858,-1.163374,-0.032003,0.020531,0.732626,0.090980,10.635044,0.019156,0.021284,-0.620443,34.491211,81.221484,26.012109
16.910082,0.387070,-1.162444,-0.017364,0.024170,-0.253785,0.349553,9.725247,0.017028,0.030863,-0.311818,35.384766,81.042187,26.184375
17.011612,0.445977,-1.138019,-0.016781,0.019202,-0.507571,0.263362,9.653421,0.010642,0.036184,-0.218166,37.529297,79.607812,27.907031
17.113443,0.616994,-1.120042,-0.019623,0.015448,-0.090980,0.225055,9.658209,0.019156,0.029798,0.007450,38.065430,78.711328,26.701172
17.215176,0.451467,-1.112381,-0.028575,0.019912,-0.086191,0.282516,9.739612,0.018092,0.024477,0.005321,38.244141,79.249219,26.528906
17.317282,0.565737,-1.124059,-0.009253,0.020829,-0.095768,0.181959,9.720459,0.018092,0.027670,0.005321,38.244141,80.325000,25.495313
17.419091,0.301707,-1.123268,-0.020974,0.025486,-0.067038,0.215478,9.706094,0.018092,0.029798,0.004257,38.244141,80.325000,25.495313
17.520583,0.549295,-1.139131,-0.013037,0.009803,-0.033519,0.234632,9.878476,0.010642,0.038312,0.389506,36.457031,78.532031,25.150781
17.623050,0.714429,-1.124077,-0.030244,0.012757,-0.052672,0.272939,9.624691,0.015963,0.030863,0.351194,36.457031,78.532031,25.150781
17.725251,0.668303,-1.125594,-0.044439,0.012725,0.057461,0.407014,9.792285,0.013835,0.042569,0.540626,36.457031,78.532031,25.150781
17.826995,0.372769,-1.097535,-0.025831,-0.022623,0.833182,0.612916,10.108319,-0.007450,0.018092,1.239821,36.457031,78.532031,25.150781
17.929398,0.520764,-1.182421,-0.012601,0.025647,-0.162806,0.158017,9.677363,0.019156,0.036184,0.202203,31.631836,81.938672,26.356641
18.030901,0.492172,-1.204113,-0.010647,0.027231,-0.110133,0.205901,9.615114,0.017028,0.024477,0.008514,31.810547,82.476562,25.839844
18.132367,0.541902,-1.202893,-0.016389,0.013742,-0.095768,0.186748,9.691728,0.015963,0.030863,0.009578,31.095703,83.910938,26.528906
18.234709,0.571244,-1.196281,-0.007647,0.015020,-0.009577,0.167594,9.615114,0.019156,0.027670,0.008514,32.167969,81.400781,26.184375
18.335858,0.874759,-1.195487,-0.020548,0.005314,-0.067038,0.177171,9.667786,0.018092,0.028734,0.007450,31.989258,83.373047,27.734766
18.437740,0.437246,-1.188409,-0.022369,0.006686,-0.014365,0.229843,9.643844,0.019156,0.023413,0.008514,32.346680,81.938672,26.701172
18.539494,0.722327,-1.209295,-0.026487,0.006558,-0.004788,0.191536,9.653421,0.013835,0.027670,0.009578,31.274414,83.014453,27.734766
18.641758,0.634748,-1.192607,-0.026994,0.010127,0.009577,0.220267,9.533711,0.018092,0.031927,0.004257,33.061523,83.014453,27.045703
18.743954,0.252087,-1.217330,-0.027986,0.020529,-0.052672,0.244209,9.749189,0.018092,0.035119,0.008514,30.380859,82.835156,26.184375
18.845915,0.729621,-1.200713,-0.024953,0.007682,-0.067038,0.248997,9.720459,0.010642,0.024477,0.005321,30.380859,81.400781,26.873438
18.947356,0.656491,-1.209515,-0.012260,0.017498,0.177171,0.057461,9.696517,-0.005321,-0.019156,0.013835,30.023438,81.759375,26.528906
19.048909,0.514891,-1.210224,-0.019076,0.026133,-0.158017,0.153229,9.744401,0.018092,0.038312,0.007450,30.738281,82.835156,27.217969
19.150703,0.465836,-1.201689,-0.005912,0.015089,-0.067038,0.110133,9.725247,0.004257,-0.131964,0.001064,31.810547,82.117969,27.907031
19.252860,0.664239,-1.213057,-0.027523,-0.031662,0.397437,0.172383,9.643844,0.011706,-0.661947,-0.018092,31.810547,82.117969,27.907031
19.354314,0.479605,-1.249147,-0.054571,-0.134215,1.403002,0.215478,9.710882,0.015963,-1.515455,-0.004257,31.810547,82.117969,27.907031
19.455515,0.608112,-1.305561,-0.041084,-0.302793,3.284845,0.148441,9.088390,-0.022349,-1.516520,-0.098973,31.810547,82.117969,27.907031
19.557480,0.882440,-1.377181,-0.051762,-0.463613,4.951209,0.201113,8.279149,0.012771,-0.885435,-0.004257,31.810547,82.117969,27.907031
19.659775,0.484650,-1.439099,-0.111865,-0.575578,5.272032,0.186748,8.068460,0.020220,0.233065,0.009578,33.061523,58.988672,33.247266
19.760984,0.173166,-1.426809,-0.130826,-0.491913,4.472369,0.263362,8.327033,0.017028,1.492042,0.022349,31.631836,57.912891,33.936328
19.862510,0.448158,-1.325648,-0.188014,-0.317341,2.312799,0.110133,9.720459,0.093652,1.448409,0.291597,32.346680,63.291797,31.524609
19.964503,0.591411,-1.263422,-0.117853,-0.169976,1.192312,0.129287,9.706094,0.027670,0.308625,0.056404,31.631836,70.822266,30.835547
20.066420,0.573355,-1.257623,-0.063070,-0.172292,1.762132,0.134075,9.662998,0.027670,-0.897141,0.054275,30.023438,74.587500,30.318750
20.167490,0.462602,-1.307016,-0.054215,-0.319541,3.414132,0.119710,9.088390,-0.023413,-1.881548,-0.106422,30.916992,71.180859,32.213672
20.269590,0.494203,-1.375237,-0.031004,-0.500579,5.573701,0.138864,7.733271,-0.050019,-0.877985,-0.107487,31.095703,61.678125,32.730469
20.371055,0.328151,-1.472543,-0.106493,-0.604279,5.640739,0.244209,7.814674,0.018092,0.519341,0.004257,31.989258,55.402734,32.902734
20.473258,0.500298,-1.418742,-0.125944,-0.488825,4.505888,0.196325,8.418013,0.076624,1.523969,0.135156,31.095703,58.450781,32.730469
20.574826,0.679067,-1.347345,-0.176919,-0.312532,2.499547,0.320823,9.414001,0.098973,1.625070,0.289469,30.380859,66.339844,33.419531
20.676514,0.472766,-1.287232,-0.134005,-0.160674,1.120486,0.234632,10.007763,0.029798,0.558718,0.094716,30.380859,75.663281,31.007812
20.778794,0.231850,-1.254732,-0.040693,-0.119138,1.283292,0.033519,9.744401,0.008514,-0.703452,-0.002128,29.308594,77.097656,30.663281
20.880160,0.329207,-1.298525,-0.054693,-0.264767,2.806004,0.234632,9.337386,-0.051083,-1.587823,-0.214973,30.559570,70.463672,32.902734
20.982177,0.497814,-1.362912,-0.050517,-0.438615,4.673482,0.148441,8.346187,-0.043633,-1.067417,-0.118129,31.631836,62.574609,33.247266
21.084121,0.451693,-1.427583,-0.112811,-0.576252,5.272032,0.143652,8.173804,0.018092,0.114936,0.009578,33.061523,57.912891,32.558203
21.185155,0.867840,-1.391135,-0.143525,-0.486923,4.505888,0.272939,8.212112,0.051083,1.310060,0.084074,31.453125,61.319531,32.730469
21.286764,0.686978,-1.321272,-0.182153,-0.307156,2.552219,0.167594,9.232042,0.051083,1.540997,0.143670,31.453125,61.319531,32.730469
21.389365,0.482464,-1.263937,-0.141518,-0.150637,0.981623,0.148441,9.897630,0.026606,0.645984,0.078753,30.916992,70.822266,31.869141
21.491087,0.665379,-1.244990,-0.057353,-0.139596,1.465251,0.191536,9.653421,0.008514,-1.207895,-0.017028,30.559570,76.559766,30.491016
21.592492,0.827587,-1.291417,-0.050879,-0.311323,3.514688,0.220267,9.054871,-0.012771,-1.587823,-0.089395,31.989258,72.973828,31.180078
21.694646,0.948888,-1.350818,-0.059713,-0.475856,5.013458,0.162806,8.145074,0.015963,-0.904591,-0.006385,32.525391,65.622656,31.352344
21.795879,0.484045,-1.454194,-0.097584,-0.585875,5.401319,0.143652,7.963115,0.019156,0.290533,0.012771,32.525391,65.622656,31.352344
21.897643,0.520689,-1.418218,-0.141844,-0.490643,4.204218,0.162806,8.887277,0.020220,1.750649,0.030863,32.525391,65.622656,31.352344
21.999633,0.595025,-1.339510,-0.189866,-0.307296,2.250550,0.172383,9.380482,0.058532,1.372849,0.167083,31.631836,66.877734,31.524609
22.101295,0.738515,-1.274181,-0.104535,-0.170458,1.436521,0.215478,9.691728,0.017028,-0.037248,0.004257,31.274414,74.049609,29.801953
22.203331,0.567639,-1.263752,-0.068808,-0.165997,1.781286,0.196325,9.624691,-0.025541,-0.928004,-0.171340,30.202148,72.615234,31.524609
22.305503,0.639871,-1.298720,-0.033077,-0.353805,4.070143,0.033519,8.547300,-0.092588,-1.920925,-0.243707,32.346680,66.160547,31.869141
22.406365,0.718871,-1.361648,-0.032535,-0.522569,5.746084,0.124498,7.867347,0.017028,-0.714094,-0.003193,32.704102,58.988672,32.902734
22.508085,0.593755,-1.472550,-0.108013,-0.587152,5.487510,0.234632,7.757213,0.026606,1.079123,0.028734,29.308594,55.582031,32.730469
22.610153,0.552812,-1.398029,-0.171664,-0.408543,3.299210,0.191536,9.294291,0.105358,1.693181,0.261799,31.631836,63.650391,32.558203
22.711952,0.844515,-1.318498,-0.136167,-0.248172,2.130839,0.220267,9.600749,0.030863,0.207524,0.072367,30.023438,70.642969,32.730469
22.813668,0.855880,-1.288900,-0.071835,-0.256263,2.566584,0.043096,9.332598,0.002128,-0.669397,-0.053211,31.095703,70.284375,32.730469
22.914925,0.583134,-1.361088,-0.094699,-0.383650,3.701436,0.158017,9.016563,-0.044697,-1.324959,-0.140478,31.095703,70.284375,32.730469
23.016807,1.032628,-1.445752,-0.065264,-0.552039,5.367800,0.158017,8.054094,-0.025541,-0.921618,-0.071303,31.095703,70.284375,32.730469
23.119763,0.860697,-1.503442,-0.076410,-0.605154,5.473145,0.143652,7.991845,0.023413,0.609800,0.017028,31.095703,70.284375,32.730469
23.221425,1.009218,-1.407835,-0.147394,-0.480724,4.299986,0.258574,8.518570,0.079817,1.643162,0.151120,32.167969,55.582031,33.419531
23.322962,1.208691,-1.323058,-0.189628,-0.305803,2.250550,0.239420,9.375694,0.072367,1.517584,0.221359,31.989258,62.933203,31.869141
23.424057,0.648294,-1.267398,-0.124114,-0.155142,1.063026,0.201113,9.940725,0.014899,0.169212,0.020220,31.631836,73.332422,31.180078
23.526194,0.771238,-1.246884,-0.062884,-0.180751,1.833958,0.110133,9.658209,-0.021284,-1.446281,-0.144734,31.274414,73.691016,29.112891
23.627905,0.878825,-1.313027,-0.016499,-0.374081,4.592079,0.153229,8.327033,-0.101101,-1.798539,-0.258606,31.810547,70.284375,32.385938
23.729025,0.905839,-1.375797,-0.062191,-0.532403,5.540183,0.248997,7.953538,0.014899,-0.256478,0.001064,34.133789,58.630078,33.936328
23.830722,0.794103,-1.417629,-0.124317,-0.550175,5.152322,0.181959,8.183381,0.018092,1.075931,0.021284,32.525391,56.299219,30.663281
23.932530,0.760096,-1.355335,-0.150629,-0.385194,3.538630,0.181959,8.887277,0.022349,1.360079,0.026606,32.525391,62.395312,34.453125
24.034500,0.623237,-1.283398,-0.135772,-0.236725,2.183512,0.162806,9.289502,0.026606,1.244078,0.052147,31.274414,68.670703,31.524609
24.136512,0.896287,-1.226808,-0.091944,-0.093952,1.120486,0.450110,8.939949,0.017028,1.247271,0.126643,31.095703,76.021875,29.974219
24.238527,0.953317,-1.218822,-0.141582,-0.028826,-0.478840,0.320823,10.189722,0.138349,0.743893,0.085138,31.631836,78.711328,27.734766
24.339770,0.706000,-1.178409,-0.024002,0.006466,0.014365,0.234632,9.749189,0.031927,0.039376,0.006385,33.597656,82.835156,26.528906
24.441426,0.841357,-1.184380,-0.016431,0.023220,-0.119710,0.225055,9.557653,0.024477,0.031927,-0.089395,32.882812,81.400781,26.873438
24.543698,0.710740,-1.190387,-0.007752,0.053410,-0.397437,0.234632,9.749189,0.019156,0.034055,-0.409726,32.346680,81.938672,26.012109
24.645336,0.953163,-1.191389,-0.009843,0.024947,-0.138864,0.172383,9.576807,0.018092,0.034055,0.006385,32.346680,81.938672,26.012109
24.747063,0.916674,-1.158109,-0.015562,0.000885,0.004788,0.191536,9.787496,0.023413,0.037248,0.005321,34.848633,81.221484,26.701172
24.849151,0.891090,-1.156913,-0.049160,0.032934,-0.234632,0.651223,9.461885,0.020220,0.018092,0.003193,34.848633,81.221484,26.701172
24.950474,0.894777,-1.158637,-0.002264,0.009379,-0.071826,0.014365,9.902418,0.013835,0.046826,0.173469,34.848633,81.221484,26.701172
25.052368,0.688920,-1.173795,0.005385,0.019900,-0.560243,0.244209,10.874464,0.020220,0.005321,0.626828,33.061523,80.862891,26.701172
25.153734,0.977991,-1.187400,-0.015473,0.050208,-0.335188,0.344765,9.734824,-0.005321,-0.006385,-0.232001,32.167969,82.835156,26.873438
25.256328,0.592990,-1.212709,-0.025382,-0.025007,0.296881,0.129287,9.686940,0.021284,0.031927,-0.140478,31.274414,82.297266,26.012109
25.357289,0.869196,-1.187843,0.019347,0.008871,0.306458,-0.105345,9.351752,0.039376,0.090459,0.089395,32.346680,82.655859,24.978516
25.459897,1.178431,-1.194022,-0.017217,0.002728,-0.052672,0.177171,9.595960,-0.020220,-0.006385,0.009578,31.989258,83.014453,26.356641
25.562480,1.142546,-1.183890,-0.012785,0.006303,-0.033519,0.181959,9.825804,-0.125578,-0.038312,0.009578,32.704102,80.145703,25.323047
25.663795,1.008774,-1.161313,0.032543,0.001237,-0.148441,-0.272939,9.442731,-0.443782,0.035119,-0.075560,35.563477,81.221484,26.012109
25.765613,1.134053,-1.165043,0.049008,-0.048576,0.014365,-1.264138,9.514557,-0.722608,0.004257,0.205395,35.384766,81.759375,24.806250
25.867643,1.012384,-1.150746,0.149611,-0.138817,0.560243,-1.934515,9.677363,-0.787526,-0.523598,0.157505,36.993164,80.862891,23.255859
25.968908,0.939253,-1.119169,0.256483,-0.188104,0.488417,-2.882619,8.456320,-0.180918,-0.051083,0.051083,39.137695,80.504297,20.844141
26.070059,0.835647,-1.113226,0.240589,-0.125799,0.014365,-2.279280,8.432378,0.797104,0.167083,-0.023413,40.209961,79.428516,22.911328
26.171978,0.781320,-1.113590,0.149811,-0.039176,0.143652,-1.221043,9.844957,0.802425,0.087266,-0.133028,40.209961,79.428516,22.911328
26.274253,1.030580,-1.160575,0.031313,0.027575,-0.574608,-0.124498,10.002975,0.205395,0.027670,0.117065,35.206055,82.297266,24.978516
26.375780,1.332221,-1.181315,0.031549,-0.002409,-0.426168,-0.359130,9.715670,-0.779012,0.040441,0.021284,33.418945,81.580078,23.255859
26.477732,1.097099,-1.167003,0.107572,-0.098265,0.062249,-1.556231,10.218453,-0.704516,-0.137285,0.183047,37.171875,80.325000,24.461719
26.579696,0.665447,-1.121707,0.253349,-0.103056,-0.363919,-2.791639,9.710882,-0.488479,0.015963,0.106422,38.422852,79.787109,21.877734
26.682290,0.785679,-1.114789,0.282108,-0.085042,-0.287304,-2.509123,8.269573,0.339488,0.075560,-0.205395,39.852539,80.145703,21.877734
26.783735,0.964158,-1.124929,0.202102,-0.061334,-1.891419,0.220267,12.186486,1.823016,-0.095780,0.150056,39.852539,80.145703,21.877734
26.885621,0.992446,-1.156273,0.071447,-0.044104,0.311246,-0.124498,9.964667,0.338423,0.003193,0.122386,36.635742,80.862891,24.289453
26.987778,0.925113,-1.180666,0.011027,0.031299,-0.861913,0.248997,10.457873,-0.007450,0.021284,0.174533,32.882812,80.683594,25.150781
27.090017,1.161296,-1.205707,0.056839,-0.067766,0.086191,-1.733402,10.156203,-1.053582,0.027670,-0.061725,32.346680,82.655859,25.667578
27.191203,0.984005,-1.144801,0.203317,-0.172097,0.603339,-2.868254,9.126697,-0.883306,0.072367,0.119193,36.993164,81.221484,22.566797
27.293295,1.094209,-1.078990,0.282612,-0.180872,-0.004788,-2.767697,8.470685,0.680039,-0.217102,0.071303,41.460938,78.890625,20.327344
27.394996,1.019149,-1.110128,0.201306,-0.115534,0.253785,-1.915361,9.514557,0.835416,-0.341616,0.084074,40.209961,79.428516,21.188672
27.496244,1.142083,-1.134990,0.144176,-0.054259,-0.622492,-1.498770,11.185710,0.988664,0.019156,0.515085,36.457031,81.400781,22.739062
27.597782,1.053001,-1.149859,0.019896,-0.012015,0.114922,-0.220267,9.864111,0.432075,0.031927,-0.010642,36.457031,81.400781,22.739062
27.699579,1.109663,-1.142727,0.017068,0.010244,-0.229843,-0.009577,10.328586,-0.484222,-0.062789,-0.080881,36.457031,81.400781,22.739062
27.801076,1.138709,-1.156219,0.073313,-0.054233,0.100556,-0.909797,10.122685,-0.604479,0.121322,-0.189432,36.457031,81.400781,22.739062
27.902420,0.883116,-1.142630,0.172387,-0.127606,0.287304,-2.470816,9.821015,-0.909912,0.210716,0.158569,37.529297,80.325000,23.428125
28.003949,0.991024,-1.121673,0.248849,-0.124837,-0.134075,-2.461239,8.293515,-0.589580,0.027670,-0.111744,39.137695,80.504297,19.810547
28.105733,0.770186,-1.107412,0.247268,-0.135913,0.277727,-2.446874,8.882488,0.700260,-0.127707,-0.025541,41.282227,80.504297,19.810547
28.208043,1.115621,-1.092331,0.168176,-0.054538,-0.129287,-1.441309,9.390059,0.653434,0.097909,-0.060661,41.282227,78.352734,19.466016
28.309573,1.046484,-1.117007,0.108896,-0.013736,-0.047884,-0.948104,9.682152,0.575745,0.042569,0.062789,38.422852,78.711328,21.533203
28.411143,1.091556,-1.146692,0.054938,-0.029435,0.033519,-0.651223,10.323798,-0.185175,0.018092,0.006385,36.635742,80.145703,23.600391
28.513528,0.986967,-1.191096,0.058809,-0.093851,0.038307,0.081403,7.857770,-0.950352,0.267120,0.103230,33.776367,82.297266,23.600391
28.615338,1.052205,-1.127052,0.151152,-0.163160,-0.248997,-2.082955,8.202535,-1.595272,0.085138,0.088331,39.495117,81.580078,23.600391
28.716706,1.175374,-1.064522,0.266389,-0.194018,-0.186748,-2.628833,6.971915,-0.334166,0.313946,-0.191560,42.533203,78.532031,18.949219
28.818176,1.216619,-1.065434,0.355802,-0.160276,1.288080,-3.299210,7.536947,0.749214,0.125578,-0.349066,41.997070,79.069922,15.331641
28.919926,1.142567,-1.087491,0.276188,-0.088518,1.259350,-2.858677,9.797073,1.417547,0.325653,0.038312,41.639648,76.918359,18.432422
29.021812,1.004050,-1.123113,0.156112,-0.062882,0.354342,-1.412579,9.648633,0.358644,-0.002128,0.183047,37.529297,81.400781,21.705469
29.124599,1.257170,-1.156951,0.132912,-0.061719,0.201113,-1.618480,9.418789,-0.451231,-0.011706,-0.104294,36.635742,82.655859,22.566797
29.226347,1.627300,-1.106818,0.202223,-0.135623,0.033519,-2.475605,9.720459,-1.148298,-0.213909,-0.029798,39.673828,77.814844,21.360938
29.328041,1.268076,-1.047059,0.275324,-0.261212,-0.052672,-3.026271,7.311892,-0.837544,0.083009,-0.028734,42.711914,76.559766,18.432422
29.429709,1.354920,-1.017952,0.378535,-0.225216,-0.450110,-3.208230,7.359776,0.515085,-0.065982,-0.136221,42.354492,77.635547,13.953516
29.531605,1.296680,-1.071216,0.316259,-0.076001,-0.737414,-1.513135,8.408436,1.150426,0.525727,-0.398020,41.103516,78.532031,17.226562
29.633553,1.508502,-1.103433,0.272603,-0.085878,1.292869,-1.651999,10.122685,1.234500,-0.515085,-0.205395,38.958984,81.400781,21.360938
29.734823,1.416540,-1.129441,0.119639,-0.124370,1.297657,-2.001553,9.131485,0.469323,0.593837,0.201138,37.529297,80.325000,22.050000
29.836561,1.540181,-1.136332,0.101371,-0.038567,-0.253785,-0.804452,9.232042,-0.473580,-0.112808,0.148991,37.529297,80.325000,22.050000
29.938688,1.236716,-1.159259,0.178378,-0.088978,0.928950,-2.557007,8.791508,-0.644920,0.133028,-0.373543,36.099609,81.042187,20.671875
30.040092,1.376069,-1.108098,0.241279,-0.193126,0.794875,-2.849100,8.944737,-0.258606,0.090459,-0.038312,39.316406,79.607812,18.949219
30.141718,1.416688,-1.099777,0.271336,-0.143672,-0.181959,-2.576161,8.360552,-0.208588,0.045762,0.005321,39.316406,79.607812,18.949219
30.243726,1.621295,-1.133116,0.241021,-0.060635,0.775721,-1.695095,8.724471,1.847493,-0.208588,0.255414,39.316406,79.607812,18.949219
30.345320,1.593305,-1.153382,0.197547,0.056603,0.052672,-0.263362,9.653421,0.743893,-0.316075,0.735379,39.316406,79.607812,18.949219
30.447522,1.368383,-1.110477,0.027810,0.037651,0.143652,0.090980,9.749189,0.051083,0.120257,-0.118129,39.316406,79.607812,18.949219
30.548350,1.256655,-1.111755,0.001545,0.000482,0.000000,-0.014365,9.787496,0.000000,0.036184,-0.019156,39.316406,79.607812,18.949219
30.650319,1.280133,-1.106338,-0.034839,0.012427,0.349553,-0.148441,9.830592,0.195817,-0.055340,-0.087266,39.316406,79.607812,18.949219
30.751899,1.254931,-1.163016,-0.059836,0.043055,-0.129287,0.675165,8.250419,0.260735,-0.114936,0.032991,33.061523,80.504297,26.356641
30.853539,1.069279,-1.174055,0.000333,0.005789,0.411803,-0.746991,9.615114,0.034055,0.045762,-0.079817,33.240234,82.476562,26.873438
30.955571,1.071627,-1.206820,-0.018609,-0.005141,0.196325,0.090980,9.715670,0.029798,0.035119,-0.095780,30.380859,80.325000,26.528906
31.057563,1.255951,-1.208034,-0.019713,0.019326,0.043096,0.579397,9.610325,0.026606,0.027670,-0.041505,30.738281,82.476562,24.806250
31.159245,1.333840,-1.189808,0.001946,-0.010585,0.014365,-0.028730,9.600749,0.012771,0.028734,0.030863,31.453125,79.607812,25.495313
31.261091,1.062279,-1.194511,-0.016840,-0.006161,0.105345,0.129287,9.639056,0.008514,0.025541,0.114936,31.810547,81.759375,26.528906
31.363020,1.176787,-1.213495,-0.009243,0.020803,-0.062249,0.191536,9.691728,0.018092,0.029798,0.010642,31.095703,82.476562,26.184375
31.464467,0.888691,-1.209995,-0.001175,-0.013463,0.067038,0.023942,9.739612,0.004257,0.020220,0.047890,30.559570,81.580078,27.045703
31.566401,1.068824,-1.216715,-0.002257,0.003751,-0.019154,0.043096,9.753978,0.012771,0.027670,0.009578,29.487305,80.862891,27.045703
31.668794,1.156024,-1.210942,-0.012691,0.004478,0.023942,0.095768,9.677363,0.027670,0.031927,0.006385,30.916992,81.580078,26.356641
31.770670,1.354829,-1.240009,-0.031213,0.141559,-1.426944,1.345541,8.695740,0.013835,-0.003193,-2.007127,30.916992,81.580078,26.356641
31.872808,1.043087,-1.337871,-0.003525,-0.005027,3.131616,-1.355118,9.950302,0.042569,0.062789,-0.689617,33.418945,80.862891,24.978516
31.974572,1.059879,-1.147812,-0.002217,-0.062400,0.608127,-0.421379,9.974244,0.079817,0.047890,1.521841,37.171875,76.380469,24.806250
32.076581,0.723770,-0.994876,-0.021822,-0.010183,-2.063802,0.713472,10.371682,0.052147,0.036184,1.462244,35.920898,78.352734,27.390234
32.178220,0.936780,-1.179270,-0.004380,0.084305,-0.062249,-1.297657,12.186486,0.001064,0.058532,-2.694616,28.057617,82.655859,25.667578
32.280232,1.094193,-1.302757,-0.034182,-0.044088,0.928950,0.038307,9.519346,0.030863,0.022349,1.329216,32.167969,79.607812,24.461719
32.381458,0.704593,-1.098941,-0.014381,-0.014750,-0.287304,0.545878,10.855310,0.024477,0.026606,2.172082,33.955078,80.325000,26.873438
32.483117,1.058442,-1.185554,-0.016859,0.120619,-1.709460,0.684742,11.405977,0.059597,0.060661,-2.052889,27.878906,82.835156,26.528906
32.585277,0.896229,-1.372222,-0.043662,0.044037,-0.095768,0.153229,9.787496,0.008514,0.024477,0.031927,35.206055,80.504297,24.978516
32.687045,0.921362,-1.124561,-0.038126,-0.010967,0.727837,0.129287,8.623914,-0.078753,-0.042569,2.048632,33.418945,77.635547,26.356641
32.789526,0.924595,-1.151078,-0.022544,0.117903,-2.284068,0.119710,10.462661,-0.012771,0.020220,-2.145476,28.951172,82.476562,25.839844
32.891011,1.116253,-1.340361,-0.034544,0.004709,3.418920,-1.110910,9.715670,0.013835,0.008514,0.310753,38.065430,78.711328,26.356641
32.992309,0.956073,-1.077167,-0.035057,0.062789,-0.909797,0.354342,9.236830,-0.004257,0.013835,0.925875,30.380859,81.042187,25.150781
33.094077,1.047714,-1.238245,-0.028587,0.158758,-0.991199,0.866701,9.485827,0.038312,0.080881,-3.312930,32.525391,79.966406,26.528906
33.196288,1.255227,-1.240227,-0.015038,0.005440,1.810016,-1.345541,9.701305,0.038312,0.045762,3.254398,36.278320,76.918359,26.012109
33.298598,1.221814,-1.065244,-0.018079,0.116851,-0.665588,0.411803,9.605537,-0.014899,0.007450,-0.244772,36.278320,76.918359,26.012109
33.400232,0.751407,-1.342957,-0.065699,0.098851,2.925714,-2.073379,9.988609,-0.074496,-0.057468,-3.434252,29.666016,80.683594,25.839844
33.502336,0.662841,-1.048718,-0.054609,0.009754,1.106121,1.268927,10.898406,0.054275,0.023413,3.560894,38.065430,76.201172,25.667578
33.603990,0.974961,-1.046072,-0.024260,0.072911,0.105345,0.253785,9.782708,0.101101,0.012771,-0.478901,38.065430,76.201172,25.667578
33.705400,0.837326,-1.109208,-0.002403,0.019824,-0.090980,0.095768,9.624691,0.021284,0.019156,0.008514,38.065430,76.201172,25.667578
33.807161,0.703024,-1.220812,-0.012423,0.030686,-0.129287,0.172383,9.514557,0.028734,0.059597,-0.032991,26.985352,81.938672,26.701172
33.909162,0.700169,-1.208508,-0.029130,0.015962,-0.071826,0.229843,9.706094,-0.008514,0.009578,0.007450,30.023438,81.400781,25.150781
34.011040,0.804975,-1.233254,-0.018953,0.042496,-0.421379,0.330400,9.514557,0.038312,0.072367,-0.057468,28.593750,82.476562,25.839844
34.113343,0.577378,-1.203473,-0.004225,0.018299,-0.134075,0.172383,9.615114,0.015963,0.035119,0.006385,30.738281,82.117969,27.217969
34.214768,1.048115,-1.223956,-0.023217,0.031281,-0.138864,0.253785,9.715670,0.017028,0.035119,0.007450,29.666016,82.117969,24.806250
34.315657,0.725609,-1.222930,-0.025405,0.024584,-0.119710,0.301669,9.662998,0.017028,0.030863,0.007450,28.951172,80.683594,25.150781
34.417634,0.746063,-1.227819,-0.017415,0.025673,-0.153229,0.229843,9.691728,0.018092,0.027670,0.006385,28.951172,81.759375,26.873438
34.519487,0.867952,-1.202291,-0.011072,0.015153,-0.124498,0.086191,9.691728,0.018092,0.029798,0.005321,31.095703,81.759375,25.839844
34.620934,0.756286,-1.222575,-0.014709,0.023345,-0.119710,0.191536,9.792285,0.019156,0.029798,0.005321,29.487305,81.580078,26.701172
34.722106,1.038750,-1.217122,-0.009679,0.016402,-0.124498,0.148441,9.600749,0.012771,0.028734,0.007450,29.129883,80.862891,25.667578
34.824249,0.974530,-1.200786,-0.005978,0.020181,-0.124498,0.186748,9.586383,0.014899,0.028734,0.012771,31.095703,81.400781,25.839844
34.926169,0.790799,-1.234786,-0.034258,0.008665,-0.033519,0.263362,9.682152,0.017028,0.030863,0.009578,28.772461,81.938672,26.356641
35.028336,0.922920,-1.210107,-0.018179,0.015796,-0.100556,0.225055,9.696517,0.013835,0.027670,0.007450,29.844727,81.221484,24.289453
35.130290,0.872518,-1.234149,-0.023059,0.007381,0.000000,0.225055,9.749189,0.017028,0.029798,0.006385,27.878906,80.683594,25.839844
35.232081,0.757486,-1.218167,-0.007312,0.006876,-0.057461,0.158017,9.696517,0.014899,0.028734,0.008514,30.202148,81.938672,26.356641
35.333937,1.120855,-1.216892,-0.021345,0.009874,-0.076614,0.234632,9.715670,0.019156,0.029798,0.007450,29.308594,81.759375,26.184375
35.435479,0.759011,-1.219214,-0.021452,0.027254,-0.110133,0.205901,9.744401,0.019156,0.028734,0.004257,29.844727,81.580078,24.978516
35.536626,0.806264,-1.216783,-0.007425,0.017170,-0.086191,0.167594,9.768343,0.014899,0.031927,0.007450,30.023438,81.759375,25.495313
35.637943,0.762333,-1.216795,-0.018232,0.028653,-0.134075,0.234632,9.734824,0.015963,0.030863,0.006385,30.023438,81.759375,25.495313
35.740172,0.717103,-1.217397,-0.009011,0.031114,-0.129287,0.167594,9.758766,0.018092,0.028734,0.004257,30.023438,81.759375,25.495313
35.842327,1.041411,-1.214663,-0.016228,0.002444,-0.019154,0.134075,9.639056,0.015963,0.029798,0.006385,30.023438,81.759375,25.495313
35.943335,0.992697,-1.212793,-0.012367,0.008006,-0.067038,0.158017,9.653421,0.018092,0.034055,0.003193,29.487305,80.862891,26.012109
36.045685,1.246503,-1.226414,-0.014495,0.013849,-0.095768,0.191536,9.667786,0.015963,0.026606,0.007450,28.593750,80.325000,24.806250
36.147803,1.018526,-1.227607,-0.021301,0.022831,-0.100556,0.229843,9.672575,0.015963,0.026606,0.008514,28.772461,80.862891,24.289453
36.249625,0.939701,-1.197191,-0.026159,0.016993,-0.052672,0.263362,9.706094,0.020220,0.029798,0.008514,31.274414,80.862891,25.323047
36.350993,0.664893,-1.212979,-0.014637,0.007391,0.000000,0.162806,9.686940,0.015963,0.028734,0.006385,30.559570,81.938672,25.323047
36.453837,0.685368,-1.209601,-0.027159,0.018041,-0.057461,0.229843,9.725247,0.014899,0.028734,0.009578,30.559570,81.221484,25.667578
36.554851,1.004187,-1.224984,-0.029135,0.011715,-0.047884,0.239420,9.605537,0.015963,0.032991,0.004257,29.308594,82.476562,24.461719
36.656047,0.845060,-1.215802,-0.021596,0.011195,-0.067038,0.229843,9.605537,0.014899,0.028734,0.006385,29.844727,82.655859,26.356641
36.758710,0.678541,-1.200579,-0.018803,0.018151,-0.124498,0.282516,9.720459,0.017028,0.028734,0.008514,30.559570,81.221484,24.978516
36.860436,0.591641,-1.221160,-0.017011,0.004997,-0.019154,0.177171,9.720459,0.015963,0.027670,0.008514,28.951172,81.042187,25.150781
36.962407,0.793526,-1.216840,-0.008938,0.005839,-0.067038,0.124498,9.758766,0.017028,0.030863,0.009578,29.487305,81.580078,24.978516
37.063787,0.802199,-1.217644,-0.015961,0.011852,-0.047884,0.186748,9.701305,0.017028,0.028734,0.008514,29.844727,82.655859,25.667578
37.165417,0.566979,-1.198024,-0.011943,0.008056,-0.057461,0.181959,9.710882,0.019156,0.027670,0.006385,30.380859,80.325000,24.806250
