Time, Altitude, Yaw, Pitch, Roll, Ax, Ay, Az, Pitch_rate, Roll_rate,Yaw_rate, Magx, Magy, Magz
0.720649,0.105582,-0.044208,0.061147,0.148637,1.608904,0.445322,9.907206,-0.015963,0.013835,0.001064,-7.734375,12.345703,48.597656
0.820723,-0.014706,-0.173641,0.048851,0.142319,1.661576,0.368707,9.873688,-0.017028,0.015963,-0.002128,-7.734375,12.345703,48.597656
0.920863,-0.371114,-0.316588,0.022467,0.124106,1.632846,0.407014,9.773131,-0.020220,0.009578,-0.002128,-7.031250,11.287500,49.277344
1.022495,-0.468175,-0.471034,0.001172,0.109594,1.680730,0.402226,9.993398,-0.015963,0.013835,0.000000,-7.031250,11.287500,49.277344
1.124623,-0.251088,-0.648257,-0.006035,0.091995,1.742979,0.402226,9.878476,-0.019156,0.010642,0.001064,-7.910156,10.758398,50.466797
1.225727,-0.065836,-0.820833,-0.013218,0.081616,1.584961,0.378284,9.849746,-0.019156,0.017028,-0.002128,-7.031250,11.287500,49.617188
1.327534,-0.092165,-0.989595,-0.019293,0.061915,1.604115,0.378284,9.825804,-0.017028,0.012771,0.001064,-7.031250,11.287500,49.617188
1.428832,-0.553190,-1.158530,-0.022670,0.038844,1.647211,0.359130,9.844957,-0.017028,0.011706,-0.002128,-6.855469,12.522070,51.146484
1.530795,-0.451192,-1.319307,0.003984,0.038420,1.680730,0.397437,9.840169,-0.018092,0.012771,-0.003193,-9.140625,10.229297,47.917969
1.632254,-0.660203,-1.479928,-0.005395,0.003747,1.637634,0.493206,9.816227,-0.015963,0.011706,0.000000,-7.558594,11.463867,49.447266
1.734147,-0.295796,-1.637839,0.005117,-0.029828,1.642422,0.426168,9.787496,-0.017028,0.009578,-0.002128,-6.328125,10.934766,49.277344
1.835919,-0.238580,-1.793559,0.030655,-0.035081,1.695095,0.349553,9.849746,-0.011706,0.008514,0.001064,-10.019531,11.111133,50.466797
1.938133,-0.362268,-1.956675,0.048098,-0.036138,1.647211,0.416591,9.888053,-0.017028,0.012771,-0.001064,-10.019531,11.111133,50.466797
2.039803,-0.555180,-2.102921,0.061065,-0.083182,1.714248,0.440533,9.835380,-0.014899,0.008514,-0.002128,-7.382812,11.640234,49.957031
2.141803,-0.532227,-2.261850,0.081470,-0.092088,1.666364,0.354342,10.055647,-0.017028,0.009578,0.000000,-7.382812,11.640234,49.957031
2.243750,-0.692170,-2.414456,0.101893,-0.100282,1.647211,0.359130,9.854534,-0.018092,0.012771,-0.001064,-8.437500,11.992969,48.597656
2.345288,-0.595274,-2.491870,0.113355,-0.132703,1.675941,0.373495,9.888053,-0.019156,0.014899,0.002128,-7.734375,12.698437,49.617188
2.446770,-0.689995,-2.530684,0.109775,-0.117481,1.666364,0.440533,9.888053,-0.018092,0.012771,0.000000,-7.734375,12.698437,49.617188
2.548555,-0.322242,-2.553779,0.120505,-0.107358,1.685518,0.378284,9.816227,-0.015963,0.009578,-0.001064,-6.328125,10.934766,49.617188
2.650352,-0.334742,-2.593409,0.125153,-0.111792,1.642422,0.392649,9.945514,-0.019156,0.010642,-0.001064,-6.855469,10.758398,50.806641
2.751784,-0.451232,-2.607789,0.125257,-0.113546,1.742979,0.402226,10.089166,-0.018092,0.011706,-0.001064,-8.261719,10.758398,49.447266
2.853328,-0.639428,-2.632824,0.133049,-0.103445,1.719037,0.392649,9.902418,-0.014899,0.013835,-0.002128,-8.261719,10.758398,49.447266
2.954694,-0.308429,-2.602785,0.117706,-0.131564,1.594538,0.541090,9.907206,-0.009578,0.010642,-0.003193,-7.558594,11.816602,49.447266
3.055829,-0.507921,-2.601292,0.123451,-0.132923,1.695095,0.474052,9.730036,-0.012771,0.009578,-0.003193,-7.031250,10.934766,49.617188
3.157508,-0.858280,-2.605846,0.123981,-0.126721,1.647211,0.483629,9.792285,-0.013835,0.012771,-0.001064,-8.964844,12.169336,51.146484
3.259096,-0.412303,-2.612216,0.124599,-0.126969,1.680730,0.426168,9.787496,-0.017028,0.013835,-0.001064,-7.734375,11.287500,50.296875
3.360529,-0.470890,-2.612744,0.129742,-0.124032,1.661576,0.459687,9.801862,-0.019156,0.011706,-0.001064,-7.734375,11.287500,50.296875
3.462708,-0.577035,-2.607075,0.126300,-0.132235,1.690306,0.354342,9.825804,-0.015963,0.012771,0.001064,-6.152344,10.758398,49.787109
3.564071,-0.508152,-2.616219,0.112079,-0.107549,1.666364,0.368707,9.892841,-0.021284,0.012771,-0.003193,-8.964844,11.463867,50.126953
3.665684,-0.288388,-2.612972,0.118502,-0.142357,1.608904,0.426168,9.787496,-0.019156,0.009578,-0.003193,-6.503906,12.169336,50.126953
3.767237,-0.456225,-2.574621,0.108307,-0.134376,1.661576,0.426168,9.844957,-0.020220,0.011706,0.000000,-7.207031,11.463867,49.787109
3.868885,-0.848768,-2.581609,0.124633,-0.113220,1.680730,0.359130,9.801862,-0.017028,0.012771,-0.002128,-7.207031,11.463867,49.787109
3.970387,-0.742751,-2.618552,0.123621,-0.121045,1.656788,0.359130,9.816227,-0.015963,0.011706,-0.001064,-7.558594,10.052930,49.107422
4.072330,-0.243339,-2.594903,0.109608,-0.114349,1.599327,0.474052,9.926360,-0.015963,0.013835,-0.001064,-8.261719,12.522070,49.107422
4.173634,-0.843637,-2.617793,0.127305,-0.120186,1.680730,0.421379,9.720459,-0.018092,0.011706,-0.002128,-7.382812,9.876563,49.957031
4.275587,-0.370025,-2.618692,0.124557,-0.109364,1.680730,0.440533,9.892841,-0.018092,0.011706,-0.002128,-7.207031,11.463867,50.466797
4.377021,-0.521794,-2.604201,0.115396,-0.128539,1.628057,0.354342,9.864111,-0.019156,0.010642,-0.002128,-7.734375,11.287500,49.277344
4.478200,-0.441565,-2.601071,0.127284,-0.129550,1.685518,0.354342,9.854534,-0.018092,0.011706,-0.003193,-7.207031,11.111133,49.447266
4.579593,-0.489403,-2.599762,0.117045,-0.128527,1.604115,0.387861,9.897630,-0.020220,0.012771,-0.004257,-8.613281,11.816602,48.767578
4.681866,-0.618135,-2.605415,0.116080,-0.121969,1.671153,0.502782,9.940725,-0.017028,0.009578,0.000000,-9.140625,10.934766,50.296875
4.783209,-0.485295,-2.637673,0.132112,-0.121201,1.742979,0.440533,9.907206,-0.015963,0.011706,0.000000,-9.140625,10.934766,50.296875
4.884893,-0.217476,-2.611851,0.121118,-0.112640,1.642422,0.426168,9.902418,-0.017028,0.011706,0.002128,-8.085938,11.640234,49.617188
4.986591,-0.308710,-2.637281,0.135171,-0.121623,1.747767,0.440533,9.825804,-0.018092,0.013835,0.000000,-7.558594,10.052930,49.107422
5.088112,-0.396812,-2.659197,0.112489,-0.114961,1.551443,0.387861,9.811438,-0.019156,0.011706,-0.001064,-8.964844,10.405664,49.447266
5.189935,-0.440510,-2.658987,0.131347,-0.126124,1.623269,0.397437,9.835380,-0.017028,0.012771,0.000000,-8.261719,10.758398,50.466797
5.291046,-0.791292,-2.626638,0.131771,-0.118920,1.704672,0.368707,9.883264,-0.015963,0.010642,-0.002128,-8.789062,12.698437,50.976562
5.392171,-0.642944,-2.606840,0.120160,-0.113408,1.628057,0.407014,9.744401,-0.018092,0.013835,0.001064,-7.207031,11.111133,50.126953
5.492874,-0.363001,-2.598577,0.124555,-0.125085,1.738190,0.392649,9.835380,-0.018092,0.011706,-0.003193,-7.207031,11.111133,50.126953
5.594322,-0.484338,-2.562112,0.122890,-0.119075,1.656788,0.402226,9.763554,-0.019156,0.011706,-0.003193,-7.910156,12.874805,49.787109
5.696302,-0.650087,-2.614446,0.130964,-0.111378,1.742979,0.426168,9.897630,-0.017028,0.013835,-0.001064,-9.140625,11.287500,47.917969
5.797581,-0.284032,-2.623553,0.133887,-0.106468,1.709460,0.407014,9.830592,-0.017028,0.013835,-0.004257,-9.140625,11.287500,47.917969
5.899423,-0.656552,-2.600608,0.131959,-0.114598,1.642422,0.440533,9.873688,-0.019156,0.010642,0.002128,-7.207031,11.463867,49.787109
6.000613,-0.661025,-2.593018,0.116523,-0.112477,1.580173,0.407014,9.725247,-0.017028,0.009578,0.000000,-7.558594,11.816602,50.806641
6.102045,-0.376048,-2.595937,0.120297,-0.109095,1.637634,0.397437,9.868899,-0.017028,0.012771,-0.003193,-8.085938,11.640234,49.957031
6.203783,-0.766895,-2.605551,0.120234,-0.107632,1.642422,0.440533,9.835380,-0.015963,0.014899,0.002128,-7.382812,10.934766,50.636719
6.304827,-0.667132,-2.613543,0.132740,-0.111312,1.757344,0.402226,9.926360,-0.019156,0.012771,-0.001064,-7.382812,10.934766,50.636719
6.405874,-0.678715,-2.621751,0.120811,-0.108282,1.580173,0.383072,9.888053,-0.018092,0.011706,-0.001064,-7.382812,10.934766,50.636719
6.507341,-0.428352,-2.663846,0.128269,-0.119849,1.647211,0.397437,9.916783,-0.015963,0.015963,-0.002128,-8.261719,9.700195,49.787109
6.608801,-0.417374,-2.654368,0.129445,-0.109884,1.685518,0.383072,10.017340,-0.015963,0.013835,0.000000,-7.734375,10.582031,48.597656
6.710109,-0.715611,-2.618387,0.134583,-0.134684,1.690306,0.363919,9.945514,-0.017028,0.012771,-0.003193,-7.734375,11.992969,49.277344
6.811414,-0.587302,-2.618947,0.119295,-0.105812,1.680730,0.450110,9.940725,-0.019156,0.013835,-0.001064,-8.085938,10.934766,49.617188
6.913057,-0.652615,-2.623013,0.131060,-0.112590,1.719037,0.392649,9.811438,-0.014899,0.015963,-0.001064,-8.085938,10.934766,49.617188
7.014461,-0.497532,-2.628399,0.136893,-0.108904,1.766921,0.339977,9.873688,-0.013835,0.012771,-0.001064,-8.085938,10.934766,49.617188
7.116130,-0.693435,-2.589663,0.135504,-0.118645,1.757344,0.450110,9.777920,-0.017028,0.013835,-0.002128,-8.261719,12.522070,49.787109
7.217785,-0.729568,-2.621932,0.120909,-0.117370,1.594538,0.430956,9.801862,-0.018092,0.011706,0.002128,-6.152344,9.347461,48.767578
7.319480,-0.722928,-2.635560,0.119992,-0.113924,1.632846,0.507571,9.821015,-0.019156,0.009578,-0.002128,-7.031250,10.582031,50.636719
7.421163,-0.538402,-2.599449,0.120966,-0.143152,1.647211,0.450110,9.725247,-0.013835,0.015963,-0.002128,-5.625000,11.640234,50.636719
7.523140,-0.709059,-2.600573,0.118577,-0.103490,1.637634,0.421379,9.777920,-0.020220,0.013835,-0.001064,-7.910156,10.758398,50.126953
7.624398,-0.850421,-2.618242,0.124876,-0.131460,1.733402,0.421379,9.935937,-0.019156,0.013835,-0.003193,-7.031250,10.582031,50.296875
7.725534,-0.727103,-2.625253,0.123560,-0.127834,1.647211,0.435745,9.821015,-0.019156,0.011706,0.000000,-7.031250,10.582031,50.296875
7.826469,-0.331984,-2.623996,0.135138,-0.126315,1.738190,0.344765,9.864111,-0.017028,0.012771,-0.002128,-7.031250,10.582031,50.296875
7.928172,-0.463003,-2.605130,0.123691,-0.130231,1.671153,0.416591,9.888053,-0.018092,0.014899,0.000000,-7.734375,11.640234,49.957031
8.029526,-0.992879,-2.608448,0.123565,-0.121686,1.699883,0.450110,9.859322,-0.019156,0.008514,-0.005321,-8.261719,11.463867,51.486328
8.131370,-0.890682,-2.584435,0.123616,-0.122531,1.699883,0.402226,9.902418,-0.019156,0.010642,-0.001064,-6.328125,11.992969,49.617188
8.232408,-0.594784,-2.577430,0.116916,-0.128155,1.632846,0.426168,9.816227,-0.015963,0.013835,-0.002128,-7.558594,11.463867,49.787109
8.333725,-0.559437,-2.598560,0.120072,-0.132535,1.637634,0.426168,9.821015,-0.017028,0.010642,-0.002128,-8.613281,11.463867,49.107422
8.434601,-0.622074,-2.622617,0.119188,-0.097519,1.656788,0.368707,9.931148,-0.018092,0.011706,0.000000,-8.613281,10.758398,50.126953
8.536055,-0.444017,-2.641632,0.127597,-0.101884,1.642422,0.378284,9.844957,-0.017028,0.012771,-0.003193,-8.613281,10.758398,50.126953
8.637778,-0.499493,-2.651005,0.133913,-0.103035,1.714248,0.387861,9.888053,-0.014899,0.014899,-0.002128,-8.613281,10.758398,50.126953
8.739296,-0.922683,-2.658825,0.128272,-0.105826,1.685518,0.411803,9.950302,-0.019156,0.010642,-0.001064,-8.085938,10.229297,49.277344
8.841317,-0.561771,-2.663017,0.132426,-0.104666,1.699883,0.440533,9.854534,-0.014899,0.011706,-0.001064,-9.316406,11.111133,50.806641
8.942025,-0.281826,-2.690810,0.133935,-0.099562,1.714248,0.454898,9.859322,-0.013835,0.011706,0.002128,-9.140625,9.876563,49.957031
9.044188,-0.651560,-2.695058,0.130047,-0.097319,1.685518,0.454898,9.792285,-0.015963,0.013835,0.001064,-8.964844,10.405664,49.447266
9.145982,-0.681625,-2.683120,0.134337,-0.097714,1.656788,0.335188,9.897630,-0.018092,0.010642,-0.001064,-8.964844,10.405664,49.447266
9.247586,-0.314052,-2.668895,0.131735,-0.128560,1.623269,0.359130,9.935937,-0.015963,0.010642,0.000000,-7.382812,10.934766,49.617188
9.352432,-0.410530,-2.638217,0.127291,-0.127118,1.661576,0.426168,9.782708,-0.015963,0.012771,0.000000,-7.382812,10.934766,49.617188
9.452143,-0.718082,-2.635483,0.129158,-0.129513,1.685518,0.421379,9.835380,-0.018092,0.012771,-0.003193,-8.261719,11.111133,49.107422
9.553175,-0.610974,-2.617016,0.125835,-0.129087,1.661576,0.392649,9.897630,-0.019156,0.012771,-0.001064,-7.207031,11.463867,51.826172
9.654332,-0.511045,-2.615932,0.123320,-0.125709,1.647211,0.402226,9.873688,-0.018092,0.009578,-0.001064,-7.031250,10.582031,50.296875
9.755539,-0.498290,-2.610981,0.125305,-0.120907,1.695095,0.454898,9.773131,-0.017028,0.014899,-0.001064,-7.031250,11.640234,49.617188
9.856886,-0.322209,-2.595077,0.121925,-0.115698,1.632846,0.368707,9.892841,-0.019156,0.013835,0.000000,-5.625000,10.934766,50.636719
9.958637,-0.649804,-2.588206,0.119215,-0.116060,1.685518,0.426168,10.002975,-0.013835,0.012771,-0.002128,-8.261719,11.463867,51.486328
10.060463,-0.206013,-2.613049,0.130835,-0.123532,1.647211,0.349553,9.864111,-0.017028,0.012771,-0.002128,-8.261719,11.463867,51.486328
10.161403,-0.105626,-2.620614,0.123019,-0.125969,1.647211,0.430956,9.840169,-0.021284,0.010642,-0.001064,-7.031250,10.582031,49.957031
10.264067,0.028316,-2.614576,0.127103,-0.126968,1.637634,0.335188,9.787496,-0.018092,0.009578,0.000000,-8.613281,11.816602,50.466797
10.366536,-0.341602,-2.615838,0.118484,-0.126150,1.608904,0.440533,9.844957,-0.015963,0.014899,0.000000,-6.679688,10.582031,50.296875
10.469499,-0.467131,-2.647868,0.128217,-0.120440,1.699883,0.493206,9.835380,-0.018092,0.011706,-0.001064,-7.558594,9.700195,51.146484
10.570899,-0.618491,-2.666337,0.131736,-0.119482,1.647211,0.383072,9.758766,-0.015963,0.011706,-0.001064,-7.558594,9.700195,51.146484
10.671911,-0.676460,-2.667567,0.130052,-0.113546,1.647211,0.363919,9.758766,-0.018092,0.014899,0.000000,-7.031250,10.934766,50.976562
10.773731,-0.295465,-2.637730,0.134143,-0.133856,1.699883,0.354342,9.811438,-0.015963,0.013835,-0.001064,-8.261719,12.169336,49.787109
10.876659,-0.438199,-2.599267,0.123614,-0.131333,1.671153,0.407014,9.945514,-0.018092,0.015963,-0.002128,-8.261719,12.169336,49.787109
10.978641,-0.496051,-2.622602,0.130516,-0.126728,1.728614,0.426168,9.801862,-0.014899,0.010642,-0.001064,-8.613281,11.463867,51.826172
11.078769,-0.414229,-2.623083,0.130463,-0.122715,1.723825,0.383072,9.720459,-0.015963,0.012771,0.000000,-8.085938,10.934766,48.937500
11.181139,-0.467894,-2.643530,0.130923,-0.101075,1.661576,0.349553,9.797073,-0.018092,0.013835,-0.003193,-9.140625,10.934766,50.296875
11.282401,-0.513350,-2.629773,0.126906,-0.136212,1.704672,0.445322,9.969456,-0.017028,0.012771,0.002128,-7.734375,11.640234,49.277344
11.384319,-0.420889,-2.608351,0.128707,-0.132917,1.685518,0.359130,9.859322,-0.020220,0.013835,-0.001064,-7.558594,11.463867,50.126953
11.487060,-0.325850,-2.603943,0.125237,-0.131729,1.680730,0.407014,9.816227,-0.013835,0.012771,-0.001064,-7.558594,11.463867,50.126953
11.588038,-0.958331,-2.604405,0.118280,-0.126831,1.661576,0.502782,9.868899,-0.015963,0.013835,-0.002128,-7.734375,10.582031,49.277344
11.688452,-0.601915,-2.620203,0.132825,-0.124580,1.738190,0.407014,9.878476,-0.017028,0.012771,-0.001064,-8.613281,10.758398,49.447266
11.790410,-0.693759,-2.636896,0.134104,-0.124235,1.728614,0.387861,9.844957,-0.018092,0.010642,-0.002128,-8.613281,10.758398,49.447266
11.891907,-0.408219,-2.601698,0.125132,-0.137152,1.642422,0.383072,9.787496,-0.014899,0.011706,-0.001064,-7.207031,11.463867,50.126953
11.994231,-0.496226,-2.607995,0.117268,-0.129117,1.594538,0.445322,9.734824,-0.019156,0.010642,0.000000,-9.492188,12.345703,50.636719
12.095812,-0.670493,-2.613164,0.116450,-0.128965,1.618480,0.402226,9.892841,-0.017028,0.013835,-0.001064,-7.382812,10.934766,49.957031
12.197992,-0.203259,-2.627946,0.119954,-0.122630,1.608904,0.454898,9.864111,-0.018092,0.010642,-0.002128,-8.085938,10.934766,50.636719
12.298940,-0.342552,-2.640328,0.133687,-0.125559,1.733402,0.397437,9.888053,-0.020220,0.015963,-0.004257,-8.613281,11.111133,50.806641
12.400723,-0.205261,-2.662721,0.132384,-0.124311,1.647211,0.469264,9.840169,-0.017028,0.011706,0.000000,-7.207031,9.347461,48.767578
12.506861,-0.360074,-2.675446,0.133318,-0.124550,1.695095,0.426168,9.797073,-0.017028,0.013835,-0.003193,-7.207031,9.347461,48.767578
12.608657,-0.445453,-2.652162,0.125742,-0.114797,1.637634,0.416591,9.883264,-0.019156,0.010642,0.000000,-7.558594,11.463867,49.787109
12.708571,-0.379783,-2.650681,0.125609,-0.113470,1.695095,0.445322,9.825804,-0.014899,0.011706,-0.004257,-7.558594,9.347461,48.767578
12.810313,-0.282526,-2.649917,0.135527,-0.123470,1.695095,0.378284,9.892841,-0.018092,0.011706,-0.002128,-7.910156,11.111133,48.767578
12.912815,-0.352881,-2.637892,0.130912,-0.128307,1.699883,0.435745,9.801862,-0.014899,0.009578,0.001064,-7.910156,10.405664,49.787109
13.014707,-0.183576,-2.644354,0.118121,-0.125169,1.613692,0.416591,9.979033,-0.017028,0.011706,0.002128,-7.910156,10.405664,49.787109
13.116887,-0.560261,-2.651712,0.130688,-0.103219,1.695095,0.421379,9.921572,-0.019156,0.019156,-0.002128,-7.910156,10.405664,49.787109
13.218634,-0.301015,-2.668875,0.128981,-0.100630,1.656788,0.426168,9.868899,-0.012771,0.010642,-0.001064,-7.910156,10.052930,51.146484
13.321091,-0.522070,-2.635712,0.133531,-0.131535,1.742979,0.454898,9.734824,-0.014899,0.012771,0.000000,-8.261719,11.463867,49.447266
13.423097,-0.309876,-2.625276,0.125074,-0.125825,1.680730,0.416591,9.806650,-0.014899,0.013835,-0.003193,-8.261719,11.463867,49.447266
13.525265,-0.631740,-2.602647,0.117902,-0.131823,1.666364,0.459687,9.849746,-0.020220,0.012771,0.000000,-7.382812,11.640234,49.617188
13.626815,-0.598285,-2.601322,0.124301,-0.130478,1.685518,0.359130,9.945514,-0.017028,0.010642,-0.002128,-9.140625,11.992969,51.656250
13.729030,-0.592483,-2.615458,0.123983,-0.129104,1.699883,0.464475,9.797073,-0.014899,0.011706,0.000000,-7.910156,11.463867,51.146484
13.831262,-0.636673,-2.618124,0.128801,-0.127679,1.747767,0.426168,9.830592,-0.018092,0.013835,-0.005321,-7.207031,10.758398,49.107422
13.932683,-0.485993,-2.618573,0.117389,-0.127347,1.570596,0.387861,9.854534,-0.014899,0.011706,0.000000,-7.207031,10.758398,49.107422
14.034441,-0.454789,-2.620173,0.129698,-0.131419,1.723825,0.426168,9.854534,-0.014899,0.014899,-0.003193,-7.207031,10.758398,49.107422
14.135703,-0.698293,-2.643173,0.131019,-0.120434,1.656788,0.354342,9.763554,-0.015963,0.007450,-0.003193,-8.613281,10.758398,51.146484
14.237706,-0.251850,-2.653105,0.134872,-0.113103,1.680730,0.330400,9.821015,-0.025541,0.021284,0.002128,-7.734375,10.229297,48.597656
14.339481,-0.588559,-2.655901,0.129184,-0.102674,1.637634,0.387861,9.691728,-0.012771,0.008514,0.002128,-7.734375,10.229297,48.597656
14.439961,-0.617113,-2.619016,0.123594,-0.140819,1.642422,0.454898,9.710882,-0.014899,0.009578,-0.004257,-6.679688,11.287500,48.597656
14.542272,-0.098627,-2.618517,0.113232,-0.114852,1.618480,0.421379,9.720459,-0.015963,0.010642,0.000000,-8.261719,11.111133,49.447266
14.642952,-0.529616,-2.630923,0.133723,-0.104761,1.680730,0.368707,9.801862,-0.017028,0.009578,0.001064,-8.261719,11.111133,49.447266
14.744614,-0.449602,-2.625262,0.128900,-0.107663,1.675941,0.474052,9.921572,-0.017028,0.012771,-0.001064,-6.503906,10.758398,50.126953
14.846368,-0.518989,-2.632113,0.129246,-0.120515,1.675941,0.397437,9.768343,-0.013835,0.008514,0.000000,-7.910156,10.052930,49.447266
14.947956,-0.284354,-2.648104,0.134039,-0.122252,1.685518,0.387861,9.979033,-0.019156,0.013835,-0.001064,-7.207031,12.169336,50.806641
15.049592,-0.379921,-2.601184,0.120508,-0.119326,1.704672,0.497994,9.725247,-0.015963,0.010642,-0.002128,-7.207031,12.169336,50.806641
15.151333,-0.611404,-2.635672,0.133134,-0.094575,1.637634,0.282516,9.768343,-0.018092,0.012771,-0.001064,-8.964844,10.758398,50.126953
15.253117,-0.723692,-2.656375,0.123995,-0.121882,1.628057,0.378284,9.830592,-0.013835,0.010642,-0.001064,-8.261719,10.405664,51.146484
15.355219,-0.364167,-2.675981,0.126962,-0.116790,1.628057,0.445322,9.983821,-0.013835,0.009578,-0.004257,-8.789062,10.229297,49.617188
15.457559,-0.590332,-2.666937,0.128462,-0.102921,1.632846,0.407014,9.749189,-0.018092,0.009578,0.000000,-7.558594,10.052930,48.767578
15.560345,-0.336584,-2.642649,0.135127,-0.103955,1.685518,0.426168,9.935937,-0.014899,0.011706,0.000000,-8.261719,11.111133,49.447266
15.661410,-0.182162,-2.603859,0.131309,-0.117657,1.719037,0.349553,9.835380,-0.014899,0.010642,0.000000,-7.382812,11.992969,49.957031
15.763299,-0.531817,-2.599587,0.119677,-0.114214,1.632846,0.430956,9.902418,-0.017028,0.012771,0.000000,-8.261719,11.816602,50.466797
15.864685,-0.471871,-2.604484,0.128860,-0.113998,1.728614,0.421379,9.806650,-0.018092,0.012771,-0.001064,-8.261719,11.816602,50.466797
15.966196,-0.313724,-2.616560,0.123614,-0.115589,1.762132,0.450110,9.907206,-0.017028,0.010642,-0.002128,-8.261719,10.405664,50.126953
16.067722,-0.411080,-2.647615,0.130037,-0.102422,1.671153,0.383072,9.835380,-0.017028,0.014899,-0.003193,-10.195312,11.287500,49.277344
16.169798,-0.753654,-2.661558,0.134961,-0.102881,1.690306,0.359130,9.797073,-0.015963,0.009578,-0.005321,-10.195312,11.287500,49.277344
16.271332,-0.534682,-2.562846,0.127958,-0.141569,1.742979,0.349553,9.830592,-0.018092,0.012771,-0.001064,-7.734375,13.051172,48.257812
16.373393,-0.466975,-2.598980,0.126339,-0.103387,1.685518,0.392649,9.787496,-0.017028,0.011706,-0.003193,-7.734375,10.582031,50.296875
16.475081,-0.507834,-2.628179,0.122480,-0.100862,1.604115,0.397437,9.753978,-0.021284,0.013835,-0.003193,-7.558594,10.052930,49.107422
16.577037,-0.562652,-2.642920,0.138697,-0.103930,1.742979,0.421379,9.816227,-0.017028,0.012771,0.000000,-7.558594,10.052930,49.107422
16.678207,-0.556469,-2.650759,0.128069,-0.108077,1.675941,0.387861,9.911995,-0.014899,0.011706,-0.002128,-8.613281,11.111133,50.806641
16.780481,-0.388972,-2.641739,0.111444,-0.119148,1.637634,0.469264,9.892841,-0.018092,0.013835,0.000000,-9.667969,12.169336,48.767578
16.881900,-0.377952,-2.624028,0.126919,-0.133071,1.704672,0.440533,9.868899,-0.018092,0.013835,0.002128,-9.667969,12.169336,48.767578
16.983343,-0.237701,-2.617384,0.127477,-0.130583,1.695095,0.402226,9.979033,-0.019156,0.010642,-0.002128,-9.667969,12.169336,48.767578
17.085392,-0.451178,-2.613419,0.125317,-0.125575,1.699883,0.426168,9.892841,-0.014899,0.011706,0.002128,-7.910156,11.463867,50.126953
17.187497,-0.405012,-2.609390,0.123403,-0.114705,1.699883,0.493206,9.873688,-0.015963,0.013835,-0.002128,-7.382812,11.287500,49.277344
17.288842,-0.354521,-2.619981,0.129417,-0.105340,1.680730,0.392649,9.825804,-0.015963,0.011706,-0.002128,-8.964844,11.463867,49.787109
17.390233,-0.436005,-2.616582,0.124249,-0.126466,1.637634,0.407014,9.921572,-0.020220,0.011706,0.001064,-7.031250,11.287500,51.316406
17.492039,-0.401054,-2.621030,0.117905,-0.122848,1.618480,0.435745,9.931148,-0.017028,0.012771,0.002128,-8.085938,10.582031,49.957031
17.593484,-0.696526,-2.628079,0.122531,-0.115715,1.623269,0.435745,9.935937,-0.020220,0.013835,0.000000,-8.613281,11.816602,50.806641
17.695124,-0.747991,-2.610603,0.118389,-0.115133,1.642422,0.426168,9.897630,-0.012771,0.013835,-0.002128,-6.679688,10.934766,49.277344
17.796529,-0.615593,-2.601253,0.120424,-0.112064,1.719037,0.517148,9.935937,-0.013835,0.011706,-0.002128,-6.679688,10.934766,49.277344
17.898325,-0.469133,-2.604516,0.126320,-0.108992,1.719037,0.421379,9.821015,-0.017028,0.009578,-0.004257,-8.964844,12.169336,49.447266
18.000601,-0.348939,-2.607200,0.124613,-0.109261,1.671153,0.435745,9.787496,-0.017028,0.010642,-0.001064,-8.964844,12.169336,49.447266
18.102419,-0.442824,-2.601231,0.121350,-0.105920,1.671153,0.426168,9.916783,-0.014899,0.012771,0.001064,-7.734375,11.640234,50.296875
18.204021,-0.253857,-2.596846,0.099465,-0.117646,1.608904,0.483629,9.787496,-0.015963,0.015963,0.000000,-7.558594,11.816602,50.466797
18.305385,-0.475394,-2.593410,0.126302,-0.111498,1.680730,0.378284,9.816227,-0.013835,0.012771,-0.004257,-7.558594,11.816602,50.466797
18.406837,-0.504220,-2.610852,0.131371,-0.103449,1.714248,0.387861,9.763554,-0.015963,0.012771,0.000000,-8.261719,10.758398,49.787109
18.507810,-0.442788,-2.631376,0.114843,-0.113513,1.623269,0.435745,9.959879,-0.017028,0.011706,-0.002128,-6.855469,10.758398,51.146484
18.609216,-0.748102,-2.628130,0.124444,-0.100845,1.656788,0.354342,9.964667,-0.020220,0.012771,0.003193,-6.855469,10.758398,51.146484
18.710787,-0.632951,-2.622469,0.120585,-0.128545,1.618480,0.402226,9.792285,-0.017028,0.012771,-0.001064,-8.085938,11.287500,50.636719
18.812432,-0.279658,-2.624063,0.122521,-0.129139,1.604115,0.383072,9.950302,-0.018092,0.012771,-0.003193,-8.085938,11.287500,50.636719
18.913751,-0.410177,-2.635262,0.132609,-0.126788,1.752556,0.454898,9.854534,-0.020220,0.010642,-0.001064,-8.437500,10.934766,51.316406
19.014954,-0.475636,-2.605641,0.130557,-0.116579,1.738190,0.430956,9.835380,-0.015963,0.013835,-0.001064,-6.503906,11.463867,50.466797
19.117196,-0.463843,-2.614092,0.120226,-0.102968,1.613692,0.397437,9.883264,-0.014899,0.011706,0.000000,-9.316406,11.111133,49.107422
19.218269,-0.527635,-2.649759,0.136810,-0.094479,1.762132,0.359130,9.979033,-0.017028,0.011706,-0.001064,-8.085938,9.876563,50.976562
19.319804,-0.761924,-2.677600,0.133404,-0.119461,1.680730,0.426168,9.859322,-0.020220,0.012771,0.001064,-6.328125,10.229297,48.937500
19.421179,-0.601484,-2.646638,0.133950,-0.112551,1.709460,0.373495,9.835380,-0.020220,0.013835,-0.003193,-6.328125,10.229297,48.937500
19.523103,-0.599939,-2.633805,0.129164,-0.108730,1.685518,0.407014,9.821015,-0.018092,0.014899,-0.002128,-6.328125,10.229297,48.937500
19.625581,-0.796698,-2.596002,0.123799,-0.138348,1.699883,0.469264,9.816227,-0.018092,0.014899,-0.001064,-6.855469,12.169336,50.806641
19.726800,-0.292189,-2.615930,0.120199,-0.097672,1.589750,0.373495,9.844957,-0.017028,0.012771,-0.002128,-7.207031,9.700195,51.146484
19.828327,-0.732643,-2.609025,0.125329,-0.124198,1.618480,0.335188,9.777920,-0.018092,0.012771,0.001064,-6.503906,12.169336,50.126953
19.930587,-0.558844,-2.595517,0.121139,-0.123609,1.623269,0.387861,9.849746,-0.014899,0.013835,-0.002128,-8.789062,11.287500,51.316406
20.031784,-0.591028,-2.612688,0.126264,-0.130475,1.671153,0.407014,9.792285,-0.018092,0.011706,-0.002128,-8.789062,11.992969,48.597656
20.133194,-0.512690,-2.600230,0.128738,-0.127936,1.723825,0.402226,9.916783,-0.017028,0.013835,0.001064,-8.789062,11.992969,48.597656
20.234823,-0.577745,-2.620443,0.122957,-0.133492,1.671153,0.445322,9.959879,-0.015963,0.012771,-0.001064,-8.261719,11.463867,50.126953
20.336809,-0.540046,-2.620431,0.131568,-0.128651,1.762132,0.416591,9.849746,-0.019156,0.014899,-0.002128,-6.855469,10.758398,50.806641
20.438719,-0.465332,-2.628197,0.128997,-0.127514,1.719037,0.430956,9.916783,-0.014899,0.013835,0.001064,-7.910156,10.758398,49.447266
20.540418,-0.165640,-2.619616,0.126865,-0.111455,1.685518,0.397437,9.883264,-0.014899,0.011706,-0.001064,-7.382812,11.287500,49.957031
20.642547,-0.303814,-2.614651,0.128526,-0.105021,1.690306,0.383072,9.916783,-0.013835,0.013835,-0.002128,-7.382812,10.582031,47.917969
20.743827,-0.363737,-2.619966,0.120542,-0.107611,1.599327,0.397437,9.840169,-0.014899,0.014899,0.000000,-7.382812,10.582031,47.917969
20.845319,-0.145352,-2.625241,0.138366,-0.113636,1.800440,0.464475,9.773131,-0.014899,0.010642,-0.002128,-8.085938,10.934766,48.937500
20.945957,-0.345331,-2.632066,0.118275,-0.108397,1.599327,0.469264,9.787496,-0.019156,0.011706,-0.001064,-8.085938,10.934766,48.937500
21.047396,-0.025470,-2.642274,0.127714,-0.104364,1.671153,0.397437,9.931148,-0.015963,0.014899,0.002128,-7.734375,10.582031,51.316406
21.148855,-0.057667,-2.646073,0.130558,-0.104908,1.704672,0.421379,9.878476,-0.017028,0.011706,-0.004257,-7.734375,10.582031,51.316406
21.250782,-0.221047,-2.637310,0.122586,-0.107597,1.661576,0.483629,9.844957,-0.017028,0.012771,-0.003193,-8.085938,11.287500,49.957031
21.352696,-0.450474,-2.657740,0.127640,-0.091495,1.632846,0.397437,9.816227,-0.011706,0.007450,-0.001064,-7.031250,8.818359,50.636719
21.454090,-0.188291,-2.671812,0.134309,-0.101722,1.728614,0.397437,9.758766,-0.018092,0.013835,-0.002128,-7.910156,10.758398,51.486328
21.555936,-0.348425,-2.652258,0.128583,-0.147138,1.752556,0.545878,10.002975,-0.013835,0.008514,-0.001064,-7.382812,11.640234,48.257812
21.660189,-0.008772,-2.605425,0.126015,-0.135324,1.719037,0.440533,9.916783,-0.017028,0.012771,-0.001064,-7.382812,11.640234,51.316406
21.760036,-0.282681,-2.605832,0.126308,-0.133325,1.695095,0.407014,9.844957,-0.013835,0.009578,0.001064,-7.382812,11.640234,51.316406
21.862797,-0.354619,-2.649237,0.135513,-0.100124,1.723825,0.411803,9.844957,-0.017028,0.011706,-0.003193,-8.085938,10.229297,48.937500
21.962989,-0.222712,-2.636620,0.131434,-0.108893,1.675941,0.397437,9.768343,-0.019156,0.017028,-0.004257,-7.558594,11.111133,50.806641
22.064670,-0.010682,-2.632970,0.128285,-0.110684,1.675941,0.411803,9.768343,-0.015963,0.009578,-0.003193,-7.910156,11.111133,50.466797
22.166471,-0.389907,-2.644922,0.125392,-0.105609,1.628057,0.402226,9.801862,-0.017028,0.014899,0.001064,-9.140625,11.287500,50.636719
22.268094,-0.321944,-2.649550,0.136571,-0.107676,1.728614,0.450110,9.787496,-0.017028,0.012771,-0.002128,-7.031250,10.582031,51.316406
22.369299,-0.105086,-2.645490,0.126012,-0.108020,1.656788,0.411803,10.002975,-0.018092,0.009578,-0.004257,-7.031250,10.582031,51.316406
22.470595,-0.150726,-2.639407,0.130016,-0.105365,1.661576,0.354342,9.801862,-0.015963,0.013835,0.001064,-7.558594,10.405664,50.126953
22.572327,-0.138101,-2.643458,0.126463,-0.103870,1.628057,0.373495,9.921572,-0.017028,0.009578,0.000000,-7.558594,10.405664,50.126953
22.673757,-0.335128,-2.598942,0.134532,-0.134483,1.671153,0.363919,9.734824,-0.012771,0.010642,-0.001064,-7.207031,11.463867,49.107422
22.775681,-0.124744,-2.595746,0.130047,-0.132702,1.714248,0.373495,9.816227,-0.017028,0.012771,-0.001064,-8.085938,11.640234,49.617188
22.877628,-0.355652,-2.586485,0.114919,-0.121321,1.656788,0.483629,9.955091,-0.018092,0.009578,-0.002128,-7.207031,12.169336,49.787109
22.979694,-0.042136,-2.598436,0.127856,-0.113763,1.719037,0.402226,9.844957,-0.020220,0.015963,0.000000,-8.613281,11.816602,51.486328
23.081365,-0.176043,-2.606246,0.143235,-0.124264,1.752556,0.454898,9.873688,-0.013835,0.012771,0.000000,-7.207031,11.111133,48.767578
23.183181,-0.410368,-2.620759,0.128164,-0.100735,1.685518,0.454898,9.983821,-0.019156,0.013835,0.000000,-8.437500,10.582031,50.976562
23.284825,-0.310421,-2.651008,0.122135,-0.104133,1.661576,0.488417,9.787496,-0.017028,0.008514,0.001064,-8.437500,10.582031,50.976562
23.385724,-0.291541,-2.683091,0.129134,-0.100080,1.628057,0.435745,9.806650,-0.017028,0.011706,0.000000,-8.964844,10.052930,49.787109
23.488028,-0.303748,-2.654775,0.130126,-0.134565,1.685518,0.450110,9.859322,-0.017028,0.011706,-0.004257,-7.382812,10.582031,49.277344
23.589422,-0.183495,-2.641520,0.130276,-0.127032,1.675941,0.402226,9.768343,-0.017028,0.009578,-0.002128,-9.140625,11.640234,50.976562
23.691245,-0.085974,-2.639309,0.129036,-0.125071,1.680730,0.435745,9.821015,-0.019156,0.009578,-0.001064,-9.140625,11.640234,50.976562
23.792277,-0.111589,-2.629128,0.125273,-0.131442,1.719037,0.517148,9.835380,-0.018092,0.017028,0.002128,-7.558594,11.111133,48.427734
23.894934,-0.301487,-2.620822,0.110523,-0.129165,1.556231,0.416591,9.998186,-0.018092,0.014899,-0.002128,-7.558594,11.463867,50.466797
23.996799,-0.492066,-2.612579,0.119919,-0.126054,1.604115,0.469264,9.873688,-0.019156,0.012771,-0.003193,-7.558594,11.463867,50.466797
24.098788,-0.253375,-2.606605,0.118146,-0.127798,1.642422,0.493206,9.792285,-0.018092,0.013835,-0.001064,-7.558594,11.463867,50.466797
24.200031,-0.345319,-2.620891,0.130748,-0.124884,1.723825,0.383072,9.955091,-0.017028,0.015963,0.000000,-8.964844,11.463867,49.787109
24.301843,-0.127418,-2.628868,0.135745,-0.124625,1.671153,0.378284,9.787496,-0.020220,0.022349,0.000000,-6.855469,10.405664,50.126953
24.403900,-0.366504,-2.630062,0.120117,-0.123857,1.584961,0.440533,9.758766,-0.013835,0.013835,0.000000,-6.855469,10.405664,50.126953
24.504897,-0.026949,-2.619905,0.128871,-0.119890,1.618480,0.397437,9.959879,-0.014899,0.013835,0.002128,-7.207031,11.111133,49.787109
24.607051,-0.300879,-2.602268,0.125663,-0.131125,1.704672,0.430956,9.787496,-0.019156,0.014899,-0.001064,-8.085938,11.992969,49.957031
24.708852,-0.416627,-2.610633,0.131217,-0.128265,1.666364,0.359130,9.844957,-0.018092,0.013835,0.000000,-8.085938,10.934766,50.296875
24.810381,-0.151370,-2.624921,0.131574,-0.127152,1.690306,0.320823,9.945514,-0.015963,0.013835,-0.001064,-8.437500,11.992969,50.636719
24.913175,-0.478142,-2.608726,0.131147,-0.129246,1.719037,0.363919,9.792285,-0.019156,0.012771,0.003193,-8.437500,11.992969,50.636719
25.014200,-0.658447,-2.609100,0.118333,-0.128463,1.647211,0.474052,9.878476,-0.014899,0.010642,-0.002128,-8.613281,11.816602,49.447266
25.115689,-0.405012,-2.607322,0.124826,-0.130799,1.680730,0.426168,9.821015,-0.019156,0.012771,-0.002128,-8.613281,11.816602,49.447266
25.217105,-0.408157,-2.644471,0.131634,-0.103607,1.699883,0.426168,9.763554,-0.017028,0.011706,-0.003193,-7.734375,9.876563,49.277344
25.319072,-0.153904,-2.624721,0.126122,-0.133792,1.661576,0.464475,9.734824,-0.019156,0.012771,-0.002128,-7.910156,11.816602,50.126953
25.420957,-0.495447,-2.608968,0.122712,-0.122408,1.699883,0.430956,9.806650,-0.018092,0.012771,0.000000,-7.910156,11.816602,50.126953
25.522959,-0.470340,-2.600731,0.126603,-0.114435,1.714248,0.407014,9.902418,-0.017028,0.011706,0.000000,-7.382812,11.640234,50.636719
25.624335,-0.071618,-2.598505,0.123163,-0.114644,1.733402,0.421379,9.873688,-0.015963,0.010642,0.000000,-7.910156,10.758398,49.787109
25.725530,-0.451723,-2.623736,0.126468,-0.107017,1.632846,0.339977,9.859322,-0.017028,0.012771,0.001064,-7.910156,10.758398,49.787109
25.827865,-0.132432,-2.647325,0.123722,-0.101445,1.632846,0.440533,9.821015,-0.017028,0.009578,-0.002128,-6.855469,9.700195,48.767578
25.929943,-0.224945,-2.623070,0.118861,-0.135118,1.632846,0.445322,10.017340,-0.023413,0.014899,0.003193,-6.855469,11.463867,51.146484
26.030775,-0.315520,-2.606107,0.121618,-0.130624,1.666364,0.536301,9.825804,-0.022349,0.014899,0.000000,-8.437500,11.640234,49.277344
26.133292,-0.359037,-2.609764,0.124169,-0.127589,1.752556,0.469264,9.955091,-0.018092,0.014899,-0.003193,-8.437500,11.640234,49.277344
26.235308,-0.421734,-2.628467,0.130980,-0.113700,1.647211,0.430956,9.907206,-0.012771,0.009578,-0.001064,-7.558594,10.405664,49.787109
26.337205,-0.393397,-2.635418,0.125076,-0.124743,1.632846,0.402226,9.787496,-0.019156,0.013835,-0.003193,-7.734375,10.934766,49.957031
26.438903,-0.217611,-2.632376,0.128783,-0.124890,1.690306,0.387861,9.955091,-0.019156,0.010642,-0.001064,-7.910156,10.758398,49.447266
26.541871,-0.390144,-2.635603,0.129938,-0.128809,1.695095,0.383072,9.816227,-0.017028,0.009578,-0.002128,-7.031250,11.640234,49.277344
26.642114,-0.403438,-2.604557,0.121698,-0.117261,1.642422,0.392649,9.964667,-0.017028,0.013835,0.000000,-7.031250,11.640234,49.277344
26.743768,-0.520951,-2.585263,0.126535,-0.117007,1.690306,0.363919,9.744401,-0.017028,0.013835,-0.001064,-7.031250,11.640234,49.277344
26.845352,-0.674685,-2.610075,0.121560,-0.124651,1.671153,0.459687,9.897630,-0.015963,0.010642,-0.005321,-7.734375,10.582031,49.957031
26.946669,-0.431085,-2.630833,0.123372,-0.118215,1.608904,0.402226,9.911995,-0.014899,0.010642,-0.002128,-7.558594,10.758398,51.486328
27.049034,-0.285024,-2.645767,0.124273,-0.114701,1.580173,0.426168,9.911995,-0.026606,0.018092,-0.004257,-7.558594,10.758398,51.486328
27.150908,-0.804996,-2.611307,0.128634,-0.137950,1.695095,0.363919,9.816227,-0.010642,0.007450,-0.001064,-6.152344,11.463867,48.087891
27.252589,-0.529411,-2.563104,0.120504,-0.144870,1.709460,0.450110,9.844957,-0.018092,0.014899,0.001064,-6.328125,12.345703,49.617188
27.354772,-0.685902,-2.542476,0.117771,-0.142666,1.695095,0.416591,9.878476,-0.017028,0.012771,0.000000,-6.328125,12.345703,49.617188
27.455678,-0.187111,-2.545465,0.121723,-0.106737,1.733402,0.421379,9.835380,-0.013835,0.011706,0.000000,-7.382812,10.582031,49.617188
27.557091,-0.261320,-2.583632,0.129878,-0.138033,1.733402,0.435745,9.864111,-0.014899,0.009578,0.001064,-7.734375,11.992969,49.277344
27.658831,-0.706282,-2.578638,0.126823,-0.137952,1.690306,0.368707,9.773131,-0.018092,0.012771,0.001064,-7.734375,11.992969,49.277344
27.761314,-0.611799,-2.562997,0.115663,-0.140444,1.695095,0.493206,9.816227,-0.017028,0.013835,0.002128,-7.031250,12.345703,49.957031
27.862940,-0.357479,-2.548948,0.124743,-0.138598,1.714248,0.354342,9.777920,-0.018092,0.012771,-0.003193,-7.031250,12.345703,49.957031
27.965000,-0.163197,-2.590722,0.121580,-0.107841,1.661576,0.373495,9.945514,-0.014899,0.012771,0.000000,-7.382812,10.934766,49.617188
28.065636,-0.407773,-2.596671,0.127126,-0.112835,1.728614,0.426168,9.816227,-0.014899,0.014899,-0.004257,-7.558594,11.816602,50.806641
28.167519,-0.270969,-2.602730,0.126918,-0.109338,1.685518,0.344765,9.830592,-0.014899,0.009578,0.002128,-8.437500,11.287500,49.617188
28.269533,-0.461511,-2.629118,0.121211,-0.115079,1.628057,0.483629,9.859322,-0.018092,0.011706,0.000000,-7.734375,9.876563,50.636719
28.370798,-0.311912,-2.652911,0.121740,-0.118268,1.594538,0.474052,9.892841,-0.017028,0.009578,0.000000,-6.679688,10.934766,50.296875
28.472340,-0.733938,-2.629220,0.121473,-0.113798,1.671153,0.450110,9.940725,-0.013835,0.012771,0.001064,-6.679688,10.934766,50.296875
28.573885,-0.166139,-2.597217,0.123048,-0.112312,1.680730,0.430956,9.868899,-0.017028,0.009578,0.001064,-6.503906,11.463867,50.126953
28.675438,-0.544771,-2.542527,0.114257,-0.128866,1.675941,0.426168,9.969456,-0.017028,0.009578,-0.003193,-6.679688,13.051172,48.937500
28.777180,-0.592793,-2.566748,0.117982,-0.123201,1.690306,0.435745,9.792285,-0.019156,0.012771,0.001064,-7.910156,11.111133,49.787109
28.878346,-0.514037,-2.594788,0.121577,-0.127645,1.685518,0.450110,9.974244,-0.017028,0.013835,-0.003193,-7.382812,11.287500,50.296875
28.979872,-0.306255,-2.604739,0.128771,-0.127915,1.719037,0.383072,9.830592,-0.018092,0.010642,0.000000,-7.382812,10.934766,48.597656
29.081850,-0.644820,-2.608194,0.124683,-0.129444,1.714248,0.488417,9.859322,-0.015963,0.011706,-0.005321,-7.382812,10.934766,48.597656
29.183614,-0.555029,-2.621151,0.137929,-0.102636,1.795651,0.459687,9.907206,-0.018092,0.014899,-0.001064,-8.261719,9.347461,49.107422
29.284822,-0.430712,-2.672746,0.128813,-0.093637,1.628057,0.392649,9.859322,-0.018092,0.018092,-0.001064,-8.261719,9.347461,49.107422
29.387179,-0.211176,-2.642881,0.134148,-0.125725,1.857900,0.454898,9.797073,-0.014899,0.010642,-0.001064,-8.437500,11.640234,50.636719
29.489269,-0.499557,-2.675043,0.128177,-0.091855,1.642422,0.411803,9.844957,-0.012771,0.009578,-0.003193,-8.789062,9.523828,49.617188
29.589849,-0.421783,-2.655673,0.128874,-0.122516,1.618480,0.464475,9.859322,-0.018092,0.012771,0.000000,-7.734375,10.934766,50.636719
29.691233,-0.368560,-2.656813,0.128014,-0.125740,1.685518,0.440533,9.897630,-0.013835,0.010642,-0.004257,-8.789062,10.582031,50.976562
29.793169,-0.663628,-2.651912,0.124337,-0.122293,1.642422,0.440533,9.983821,-0.013835,0.010642,0.001064,-7.207031,11.816602,49.447266
29.894393,-0.663414,-2.609411,0.128690,-0.116630,1.714248,0.349553,9.974244,-0.018092,0.015963,-0.002128,-7.382812,11.287500,49.277344
29.996184,-0.772102,-2.602298,0.131090,-0.112770,1.742979,0.363919,9.916783,-0.018092,0.009578,-0.004257,-7.382812,11.287500,49.277344
30.097792,-0.462797,-2.601000,0.125951,-0.112441,1.675941,0.378284,9.792285,-0.017028,0.012771,-0.003193,-7.382812,11.287500,49.277344
30.199583,-0.316557,-2.597925,0.123448,-0.110951,1.656788,0.402226,9.854534,-0.019156,0.011706,-0.001064,-6.152344,10.758398,50.466797
30.301234,-0.628008,-2.605079,0.129321,-0.104721,1.699883,0.339977,9.844957,-0.015963,0.013835,-0.002128,-7.207031,11.111133,50.466797
30.402682,-0.530567,-2.622247,0.123135,-0.108547,1.690306,0.459687,9.883264,-0.018092,0.009578,-0.002128,-7.382812,10.582031,47.917969
30.504513,-0.201513,-2.614820,0.127413,-0.108675,1.675941,0.421379,9.749189,-0.017028,0.010642,0.000000,-6.855469,11.111133,50.466797
30.606117,-0.592986,-2.613826,0.129536,-0.107235,1.723825,0.411803,9.868899,-0.017028,0.014899,-0.001064,-7.910156,10.758398,50.466797
30.708307,-0.171624,-2.626771,0.122614,-0.122876,1.623269,0.440533,9.854534,-0.018092,0.012771,0.000000,-7.558594,12.169336,50.126953
30.809867,-0.580332,-2.596760,0.117144,-0.118864,1.628057,0.426168,9.888053,-0.014899,0.011706,-0.002128,-7.558594,12.169336,50.126953
30.911706,-0.447962,-2.620632,0.125261,-0.121632,1.661576,0.392649,9.945514,-0.013835,0.013835,-0.005321,-8.437500,10.934766,48.257812
31.013923,-0.505931,-2.640600,0.119019,-0.122396,1.580173,0.435745,9.821015,-0.019156,0.014899,0.001064,-7.031250,9.876563,49.957031
31.116127,-0.249840,-2.661358,0.119632,-0.121425,1.604115,0.469264,9.854534,-0.014899,0.013835,-0.001064,-7.910156,10.052930,51.146484
31.218142,-0.571418,-2.630890,0.120171,-0.140221,1.757344,0.512359,9.753978,-0.013835,0.012771,-0.002128,-7.207031,12.169336,49.787109
31.319781,-0.390209,-2.588525,0.122979,-0.137076,1.714248,0.474052,9.902418,-0.020220,0.012771,0.000000,-7.207031,12.169336,49.787109
31.421433,-0.411665,-2.590060,0.113623,-0.099097,1.632846,0.359130,9.897630,-0.013835,0.010642,-0.002128,-8.085938,11.287500,49.617188
31.522758,-0.179475,-2.609841,0.119782,-0.112464,1.656788,0.474052,9.849746,-0.017028,0.012771,-0.001064,-8.085938,11.287500,49.617188
31.626082,-0.448766,-2.572021,0.121804,-0.136524,1.685518,0.397437,9.806650,-0.017028,0.012771,-0.002128,-6.503906,11.816602,49.787109
31.725983,-0.158408,-2.561216,0.112596,-0.131597,1.632846,0.474052,9.859322,-0.017028,0.011706,-0.003193,-6.503906,11.816602,49.787109
31.830080,-0.590212,-2.580598,0.111629,-0.133701,1.594538,0.416591,9.964667,-0.018092,0.014899,0.000000,-8.789062,11.992969,49.617188
31.930342,-0.458318,-2.589783,0.126802,-0.134572,1.723825,0.397437,9.897630,-0.019156,0.010642,-0.002128,-7.031250,11.287500,49.617188
32.032505,-0.403392,-2.606677,0.122918,-0.107758,1.719037,0.440533,9.773131,-0.019156,0.015963,-0.004257,-7.910156,11.111133,48.767578
32.134341,-0.677811,-2.640537,0.141307,-0.111772,1.704672,0.402226,9.763554,-0.014899,0.008514,-0.001064,-8.789062,10.229297,50.636719
32.236890,-0.467766,-2.665075,0.132453,-0.138801,1.695095,0.435745,9.945514,-0.019156,0.014899,-0.003193,-8.085938,11.640234,48.937500
32.338762,-0.659783,-2.622372,0.124621,-0.112342,1.671153,0.421379,9.916783,-0.018092,0.011706,-0.001064,-8.085938,11.640234,48.937500
32.439331,-0.442058,-2.575340,0.114744,-0.135084,1.599327,0.445322,9.840169,-0.018092,0.011706,-0.001064,-7.031250,11.992969,48.937500
32.541390,-0.288923,-2.566301,0.111022,-0.137818,1.632846,0.454898,9.964667,-0.017028,0.010642,0.000000,-6.855469,11.816602,49.447266
32.642293,-0.624048,-2.591769,0.119445,-0.134044,1.671153,0.459687,9.801862,-0.018092,0.011706,-0.001064,-6.679688,10.582031,49.617188
32.744418,-0.609586,-2.628394,0.127771,-0.101077,1.685518,0.407014,9.902418,-0.017028,0.009578,-0.001064,-8.261719,10.405664,50.126953
32.845471,-0.361164,-2.673526,0.133688,-0.095683,1.685518,0.407014,9.907206,-0.017028,0.014899,-0.004257,-8.789062,9.523828,49.617188
32.950365,-0.796908,-2.672370,0.127130,-0.132492,1.632846,0.445322,9.849746,-0.013835,0.008514,-0.002128,-5.976562,10.229297,50.636719
33.050637,-0.664026,-2.655092,0.118412,-0.120151,1.628057,0.435745,9.892841,-0.017028,0.013835,-0.001064,-8.964844,11.111133,50.466797
33.152398,-0.381833,-2.651874,0.137989,-0.121774,1.656788,0.339977,9.859322,-0.012771,0.007450,-0.003193,-8.964844,11.111133,50.466797
33.253676,-0.536669,-2.597995,0.112324,-0.121914,1.671153,0.407014,9.902418,-0.019156,0.012771,-0.003193,-6.503906,11.463867,49.107422
33.357001,-0.417878,-2.627159,0.124357,-0.113117,1.656788,0.459687,9.873688,-0.019156,0.015963,-0.005321,-7.558594,10.405664,50.466797
33.457637,-0.454104,-2.640501,0.130417,-0.108535,1.699883,0.359130,9.859322,-0.020220,0.018092,-0.003193,-8.261719,10.758398,48.767578
33.559083,-0.387377,-2.639963,0.123744,-0.107804,1.628057,0.430956,9.873688,-0.014899,0.007450,-0.003193,-8.261719,10.758398,48.767578
33.661454,-0.490629,-2.641334,0.120166,-0.126919,1.584961,0.421379,9.883264,-0.018092,0.015963,-0.002128,-6.503906,10.405664,49.787109
33.763171,-0.474493,-2.609053,0.128792,-0.128093,1.632846,0.435745,9.935937,-0.015963,0.009578,0.001064,-6.855469,12.169336,51.146484
33.864745,-0.484537,-2.580840,0.122874,-0.119199,1.704672,0.435745,9.950302,-0.017028,0.013835,-0.001064,-6.855469,12.169336,51.146484
33.966509,-0.385325,-2.574004,0.106410,-0.125608,1.704672,0.497994,9.782708,-0.019156,0.013835,-0.004257,-6.855469,12.169336,51.146484
34.067716,-0.455499,-2.616621,0.124582,-0.119437,1.695095,0.450110,9.907206,-0.014899,0.011706,-0.001064,-8.613281,10.405664,50.126953
34.169146,-0.663075,-2.635534,0.132284,-0.119932,1.584961,0.330400,9.897630,-0.018092,0.013835,-0.005321,-8.085938,10.582031,49.957031
34.272653,-0.296737,-2.662573,0.127060,-0.115246,1.671153,0.402226,9.892841,-0.017028,0.013835,0.002128,-7.910156,10.052930,49.787109
34.374310,-0.562980,-2.651045,0.121659,-0.114886,1.584961,0.392649,9.940725,-0.018092,0.013835,-0.002128,-7.558594,11.463867,48.767578
34.476378,-0.383549,-2.617470,0.119678,-0.111709,1.642422,0.435745,9.969456,-0.012771,0.013835,-0.003193,-7.382812,11.640234,49.957031
34.578108,-0.891402,-2.595694,0.138596,-0.125308,1.795651,0.421379,9.763554,-0.012771,0.014899,-0.001064,-7.382812,11.640234,49.957031
34.679868,-0.510301,-2.594296,0.135885,-0.113601,1.738190,0.378284,9.873688,-0.017028,0.011706,-0.001064,-7.558594,10.758398,50.806641
34.781552,-0.242078,-2.622181,0.129262,-0.104062,1.728614,0.416591,9.916783,-0.013835,0.009578,-0.001064,-7.558594,10.758398,50.806641
34.883198,-0.400738,-2.601059,0.126600,-0.134276,1.695095,0.411803,9.777920,-0.017028,0.014899,-0.001064,-7.207031,11.463867,50.466797
34.985261,-0.594932,-2.589648,0.129678,-0.125613,1.594538,0.378284,9.883264,-0.018092,0.013835,-0.001064,-7.207031,11.463867,50.466797
35.086264,-0.602315,-2.641265,0.125644,-0.091594,1.632846,0.402226,9.964667,-0.018092,0.011706,0.000000,-9.316406,9.700195,50.126953
35.187725,-0.642261,-2.633284,0.122513,-0.126667,1.685518,0.450110,9.935937,-0.017028,0.012771,-0.003193,-7.382812,11.640234,50.296875
35.289183,-0.171211,-2.607219,0.126093,-0.113564,1.666364,0.407014,9.849746,-0.018092,0.011706,-0.002128,-7.382812,11.640234,50.296875
35.390666,-0.610969,-2.596490,0.115982,-0.110081,1.642422,0.378284,9.888053,-0.014899,0.009578,-0.004257,-7.910156,11.463867,49.447266
35.491435,-0.640306,-2.596938,0.134698,-0.113063,1.762132,0.387861,9.763554,-0.015963,0.012771,0.001064,-7.910156,11.463867,49.447266
35.592814,-0.380335,-2.638544,0.130840,-0.117780,1.680730,0.378284,9.864111,-0.017028,0.012771,-0.002128,-9.140625,10.934766,51.316406
35.695059,-0.345488,-2.662230,0.128616,-0.101340,1.714248,0.416591,9.811438,-0.017028,0.013835,-0.002128,-9.140625,10.934766,51.316406
35.796892,-0.356897,-2.652472,0.146571,-0.122334,1.776498,0.464475,9.787496,-0.017028,0.012771,0.001064,-8.261719,10.758398,49.447266
35.898518,-0.507200,-2.648640,0.130095,-0.123165,1.690306,0.402226,9.969456,-0.015963,0.012771,0.001064,-8.789062,10.934766,49.277344
36.000870,-0.633970,-2.646461,0.130639,-0.125472,1.666364,0.368707,9.864111,-0.014899,0.009578,-0.002128,-8.789062,10.934766,49.277344
36.101851,-0.601494,-2.650290,0.129463,-0.124559,1.656788,0.387861,9.892841,-0.017028,0.009578,0.000000,-9.492188,10.934766,50.296875
36.205239,-0.255524,-2.660218,0.130516,-0.122818,1.656788,0.387861,9.806650,-0.014899,0.013835,0.000000,-7.734375,11.287500,50.636719
36.307444,-0.239784,-2.637101,0.123581,-0.107864,1.608904,0.411803,9.787496,-0.015963,0.013835,-0.005321,-7.734375,11.287500,50.636719
36.408255,-0.658694,-2.625212,0.119720,-0.110251,1.656788,0.464475,9.825804,-0.018092,0.012771,-0.001064,-7.734375,11.287500,50.636719
36.511434,-0.277114,-2.610818,0.137670,-0.115149,1.733402,0.450110,9.811438,-0.015963,0.011706,0.001064,-7.910156,11.463867,48.767578
36.613064,-0.479358,-2.646187,0.126123,-0.118593,1.632846,0.387861,9.878476,-0.013835,0.009578,-0.002128,-8.437500,10.229297,49.957031
36.715371,-0.331548,-2.660585,0.128098,-0.116972,1.656788,0.407014,9.892841,-0.017028,0.013835,-0.002128,-8.437500,10.229297,49.957031
36.817106,-0.285594,-2.662312,0.128349,-0.129023,1.675941,0.488417,9.801862,-0.017028,0.013835,-0.001064,-7.910156,10.405664,49.447266
36.918613,-0.590620,-2.656707,0.131385,-0.126257,1.666364,0.383072,9.835380,-0.020220,0.013835,-0.002128,-7.910156,10.758398,50.126953
37.020801,-0.506640,-2.639062,0.130915,-0.128657,1.699883,0.402226,9.950302,-0.018092,0.009578,-0.001064,-7.207031,11.111133,51.146484
37.122559,-0.423559,-2.627174,0.128373,-0.130563,1.728614,0.464475,9.916783,-0.015963,0.009578,0.003193,-7.207031,10.758398,49.447266
37.223730,-0.281028,-2.626041,0.126292,-0.130074,1.675941,0.416591,9.840169,-0.017028,0.012771,0.001064,-7.207031,10.758398,49.447266
37.325596,-0.178328,-2.621651,0.126414,-0.124595,1.661576,0.363919,9.935937,-0.017028,0.012771,0.000000,-7.734375,10.934766,49.617188
37.427603,-0.433845,-2.615010,0.122953,-0.126051,1.632846,0.378284,9.868899,-0.017028,0.013835,-0.002128,-7.558594,11.111133,49.787109
37.530047,-0.383019,-2.653558,0.129149,-0.098635,1.671153,0.435745,9.888053,-0.017028,0.011706,-0.001064,-7.382812,9.523828,50.636719
37.631491,-0.350404,-2.625376,0.130249,-0.136724,1.728614,0.411803,9.921572,-0.017028,0.012771,-0.001064,-7.031250,11.640234,48.937500
37.733177,-0.300697,-2.592779,0.125138,-0.138107,1.647211,0.368707,9.835380,-0.018092,0.012771,0.001064,-7.031250,11.640234,48.937500
37.834098,-0.562288,-2.603421,0.135894,-0.108911,1.709460,0.383072,9.758766,-0.015963,0.012771,-0.001064,-7.558594,10.758398,50.126953
37.935710,-0.552822,-2.620364,0.113097,-0.108156,1.637634,0.450110,9.883264,-0.015963,0.011706,-0.002128,-7.558594,11.463867,51.486328
38.037529,-0.608397,-2.617458,0.113962,-0.119182,1.642422,0.450110,9.993398,-0.017028,0.013835,-0.003193,-7.558594,11.463867,51.486328
38.141534,-0.791821,-2.602261,0.123487,-0.124635,1.771709,0.402226,9.830592,-0.017028,0.012771,-0.001064,-7.207031,11.111133,49.447266
38.241407,-0.367623,-2.553082,0.111289,-0.146443,1.599327,0.459687,9.701305,-0.015963,0.012771,-0.001064,-6.855469,13.227539,50.126953
38.343142,-0.715366,-2.567320,0.123220,-0.113024,1.695095,0.397437,9.763554,-0.017028,0.013835,0.001064,-6.328125,11.287500,50.636719
38.444464,-0.654727,-2.565696,0.111939,-0.116296,1.628057,0.426168,10.012551,-0.018092,0.012771,-0.002128,-7.207031,12.169336,50.466797
38.546729,-0.731365,-2.583434,0.125570,-0.124035,1.671153,0.316035,9.868899,-0.015963,0.009578,0.000000,-6.328125,9.876563,49.277344
38.648612,-0.355200,-2.594820,0.121895,-0.126804,1.695095,0.421379,9.868899,-0.018092,0.011706,0.000000,-7.558594,11.816602,50.466797
38.750055,-0.615227,-2.600077,0.119912,-0.119457,1.719037,0.488417,9.753978,-0.017028,0.011706,-0.001064,-7.558594,10.052930,49.787109
38.851793,-0.122425,-2.633961,0.127613,-0.121836,1.671153,0.411803,9.801862,-0.018092,0.012771,-0.003193,-7.558594,10.052930,49.787109
38.953390,-0.642066,-2.651926,0.128459,-0.122814,1.685518,0.445322,9.844957,-0.018092,0.012771,0.001064,-7.558594,10.052930,49.787109
39.055188,-0.277523,-2.620267,0.126818,-0.126253,1.642422,0.359130,9.816227,-0.017028,0.012771,-0.001064,-8.437500,11.640234,49.957031
39.156796,-0.944339,-2.665655,0.131542,-0.121780,1.637634,0.411803,9.835380,-0.020220,0.014899,-0.001064,-9.316406,10.405664,49.787109
39.258077,-0.411205,-2.676440,0.134018,-0.116557,1.685518,0.387861,9.859322,-0.014899,0.012771,-0.003193,-9.316406,10.405664,49.787109
39.359734,-0.633338,-2.664035,0.122289,-0.114384,1.580173,0.474052,9.892841,-0.019156,0.011706,-0.002128,-6.855469,10.405664,49.787109
39.460890,-0.732304,-2.630724,0.133605,-0.110139,1.719037,0.402226,9.935937,-0.017028,0.014899,-0.001064,-6.855469,11.111133,50.806641
39.562768,-0.280778,-2.629183,0.126596,-0.114257,1.704672,0.450110,9.945514,-0.014899,0.009578,-0.002128,-7.207031,9.347461,49.787109
39.665183,-0.562275,-2.647164,0.124178,-0.114886,1.613692,0.454898,9.935937,-0.020220,0.012771,-0.001064,-8.085938,11.287500,50.636719
39.769022,-0.458697,-2.635567,0.129923,-0.110044,1.704672,0.507571,9.835380,-0.014899,0.013835,-0.001064,-8.085938,11.287500,50.636719
39.868470,-0.697994,-2.601156,0.132639,-0.117434,1.733402,0.445322,9.844957,-0.015963,0.010642,-0.004257,-7.207031,11.816602,50.466797
39.970048,-0.635759,-2.603510,0.128395,-0.112896,1.709460,0.368707,9.811438,-0.017028,0.014899,-0.002128,-7.382812,11.287500,51.316406
40.071678,-0.793907,-2.603129,0.121348,-0.111829,1.704672,0.493206,9.787496,-0.015963,0.012771,-0.001064,-7.558594,11.816602,50.806641
40.174004,-0.528055,-2.634172,0.125558,-0.115876,1.637634,0.339977,9.892841,-0.015963,0.014899,0.000000,-8.613281,10.052930,48.767578
40.275034,-0.560959,-2.661708,0.129208,-0.115887,1.642422,0.493206,9.864111,-0.020220,0.011706,-0.001064,-8.613281,10.052930,48.767578
40.376538,-0.462994,-2.668705,0.138449,-0.104695,1.719037,0.363919,9.825804,-0.019156,0.013835,-0.003193,-9.316406,11.111133,48.767578
40.478046,-0.505321,-2.645077,0.117469,-0.130997,1.613692,0.402226,9.830592,-0.017028,0.014899,-0.001064,-7.734375,11.640234,49.957031
40.580113,-0.114229,-2.615446,0.119179,-0.132868,1.618480,0.430956,9.749189,-0.017028,0.012771,-0.002128,-7.734375,11.640234,49.957031
40.681662,-0.516807,-2.654819,0.127891,-0.097100,1.656788,0.435745,9.873688,-0.012771,0.013835,-0.004257,-8.085938,9.876563,49.957031
40.783207,-0.354175,-2.611358,0.122914,-0.120688,1.671153,0.440533,9.931148,-0.017028,0.012771,-0.003193,-6.503906,11.816602,49.787109
40.884653,-0.494174,-2.629979,0.128377,-0.102169,1.680730,0.387861,9.806650,-0.014899,0.011706,-0.004257,-6.855469,10.052930,49.107422
40.986191,-0.836462,-2.611241,0.131073,-0.134160,1.695095,0.363919,9.811438,-0.020220,0.011706,-0.002128,-7.558594,11.463867,49.447266
41.088070,-0.421349,-2.617993,0.124437,-0.099842,1.637634,0.368707,9.888053,-0.018092,0.013835,0.001064,-8.437500,10.582031,48.937500
41.189091,-0.567875,-2.621911,0.123975,-0.105434,1.642422,0.402226,9.892841,-0.019156,0.012771,0.002128,-7.910156,11.463867,50.466797
41.291996,-0.296683,-2.610916,0.115710,-0.111751,1.656788,0.407014,9.979033,-0.018092,0.013835,-0.001064,-7.910156,11.816602,48.767578
41.394964,-0.367307,-2.592832,0.117417,-0.111464,1.637634,0.411803,9.801862,-0.013835,0.010642,0.002128,-7.910156,11.816602,48.767578
41.496740,-0.564260,-2.598399,0.124691,-0.109926,1.647211,0.359130,9.816227,-0.012771,0.008514,-0.002128,-7.734375,11.287500,48.937500
41.598388,-0.370651,-2.608065,0.131037,-0.110887,1.757344,0.363919,9.998186,-0.017028,0.012771,-0.001064,-7.910156,11.111133,49.447266
41.700348,-0.881150,-2.582700,0.122340,-0.143974,1.757344,0.512359,9.878476,-0.017028,0.013835,-0.002128,-5.976562,11.640234,49.957031
41.805091,-0.926581,-2.566586,0.119672,-0.143888,1.680730,0.430956,9.873688,-0.015963,0.009578,0.000000,-5.976562,11.640234,49.957031
41.904969,-0.405594,-2.595811,0.122219,-0.096323,1.685518,0.421379,9.945514,-0.017028,0.012771,-0.002128,-8.964844,10.405664,50.466797
42.005989,-0.924022,-2.633799,0.118700,-0.115908,1.647211,0.512359,9.955091,-0.017028,0.013835,-0.001064,-9.140625,11.992969,49.617188
42.107562,-0.548304,-2.622910,0.126835,-0.114197,1.656788,0.402226,9.777920,-0.018092,0.013835,-0.001064,-9.140625,11.992969,49.617188
42.209094,-0.503601,-2.617104,0.123166,-0.109994,1.671153,0.440533,9.907206,-0.017028,0.010642,0.001064,-9.140625,11.992969,49.617188
42.310717,-0.365267,-2.662141,0.130308,-0.119649,1.723825,0.497994,9.787496,-0.017028,0.010642,0.001064,-6.855469,8.994727,50.126953
42.412452,-0.594356,-2.639210,0.127613,-0.110530,1.637634,0.354342,9.897630,-0.018092,0.012771,-0.001064,-8.613281,11.816602,49.787109
42.513505,-0.278459,-2.634698,0.126630,-0.109730,1.637634,0.368707,9.773131,-0.015963,0.011706,-0.002128,-7.207031,10.405664,48.767578
42.614981,-0.548553,-2.617954,0.135725,-0.131606,1.733402,0.373495,9.830592,-0.015963,0.011706,-0.003193,-7.558594,11.463867,48.427734
42.716449,-0.434569,-2.604515,0.127304,-0.131099,1.704672,0.397437,9.859322,-0.014899,0.012771,0.001064,-7.558594,11.111133,49.787109
42.817998,-0.193669,-2.622155,0.137951,-0.109665,1.728614,0.430956,9.859322,-0.011706,0.014899,-0.001064,-8.085938,10.229297,51.996094
42.922387,-0.357519,-2.649342,0.127244,-0.118945,1.671153,0.502782,9.816227,-0.014899,0.014899,0.000000,-8.085938,10.229297,51.996094
43.024206,-0.773489,-2.656338,0.122743,-0.122023,1.623269,0.344765,9.907206,-0.015963,0.013835,-0.002128,-7.910156,10.405664,50.466797
43.125907,-0.332378,-2.626815,0.122970,-0.121431,1.671153,0.435745,10.026917,-0.013835,0.009578,-0.003193,-7.734375,11.992969,50.976562
43.232290,-0.466299,-2.601418,0.119363,-0.112603,1.675941,0.407014,9.921572,-0.017028,0.011706,-0.005321,-7.734375,11.992969,50.976562
43.332770,-0.697564,-2.616265,0.129217,-0.109425,1.738190,0.450110,9.921572,-0.017028,0.012771,0.000000,-8.085938,10.934766,49.957031
43.434259,-0.422211,-2.618361,0.122701,-0.106329,1.671153,0.435745,9.950302,-0.019156,0.009578,-0.005321,-8.613281,11.816602,51.146484
43.535888,-0.421310,-2.616202,0.126307,-0.107845,1.675941,0.430956,9.883264,-0.018092,0.011706,-0.001064,-8.261719,11.816602,50.806641
43.637617,-0.297410,-2.617566,0.124044,-0.112934,1.613692,0.445322,9.811438,-0.018092,0.009578,-0.001064,-8.613281,11.111133,50.466797
43.739519,-0.391688,-2.640090,0.129002,-0.109455,1.680730,0.397437,10.007763,-0.014899,0.013835,-0.003193,-8.613281,11.111133,50.466797
43.844063,-0.414742,-2.632309,0.126581,-0.112694,1.656788,0.383072,9.878476,-0.015963,0.012771,-0.003193,-7.558594,10.758398,48.767578
43.943910,-0.641003,-2.603969,0.128998,-0.112509,1.714248,0.397437,9.964667,-0.018092,0.011706,0.002128,-7.910156,12.169336,50.466797
44.045020,-0.629287,-2.626501,0.128374,-0.120875,1.704672,0.416591,9.902418,-0.018092,0.013835,-0.001064,-8.085938,10.229297,49.617188
44.146882,-0.419360,-2.641456,0.128809,-0.118202,1.690306,0.411803,9.921572,-0.019156,0.009578,-0.001064,-8.085938,10.229297,49.617188
44.251565,-0.822493,-2.632292,0.123891,-0.132968,1.642422,0.464475,9.806650,-0.017028,0.013835,0.001064,-6.855469,10.758398,48.087891
44.350960,-0.532361,-2.602985,0.125858,-0.118209,1.709460,0.402226,9.916783,-0.015963,0.007450,-0.002128,-5.800781,11.463867,50.126953
44.451964,-0.883075,-2.585669,0.122744,-0.121012,1.752556,0.459687,9.888053,-0.014899,0.012771,-0.001064,-9.140625,10.934766,49.277344
44.554036,-0.364807,-2.628907,0.121055,-0.121379,1.647211,0.426168,9.950302,-0.014899,0.011706,-0.003193,-9.140625,10.934766,49.277344
44.655757,-0.356928,-2.647386,0.135107,-0.109131,1.675941,0.296881,9.902418,-0.018092,0.012771,-0.001064,-8.085938,10.582031,50.636719
44.757344,-0.586104,-2.669923,0.121337,-0.118904,1.556231,0.450110,9.701305,-0.017028,0.011706,-0.002128,-8.789062,10.229297,48.597656
44.859102,-0.373726,-2.638389,0.132088,-0.115639,1.704672,0.402226,9.864111,-0.015963,0.013835,-0.004257,-8.261719,12.169336,50.126953
44.961286,-0.525475,-2.652747,0.127347,-0.126927,1.723825,0.507571,9.844957,-0.018092,0.012771,-0.003193,-8.964844,10.405664,49.447266
45.063395,-0.696104,-2.668292,0.131800,-0.121394,1.661576,0.387861,9.859322,-0.017028,0.010642,-0.003193,-8.964844,10.405664,49.447266
45.164944,-0.414874,-2.679182,0.125541,-0.116215,1.589750,0.416591,9.811438,-0.014899,0.012771,0.000000,-8.964844,10.052930,49.447266
45.266512,-0.463888,-2.690045,0.134409,-0.114013,1.752556,0.411803,9.959879,-0.017028,0.010642,-0.005321,-8.964844,10.052930,49.447266
45.368423,-0.519008,-2.613193,0.127244,-0.138775,1.671153,0.426168,9.859322,-0.015963,0.013835,-0.001064,-7.734375,11.640234,48.937500
45.471166,-0.581933,-2.620158,0.129115,-0.124348,1.723825,0.383072,9.782708,-0.015963,0.012771,-0.002128,-7.382812,10.934766,50.296875
45.573629,-0.646575,-2.619770,0.127966,-0.114150,1.695095,0.416591,9.878476,-0.015963,0.012771,-0.002128,-7.031250,10.934766,50.636719
45.675805,-0.539809,-2.622389,0.132554,-0.111265,1.747767,0.378284,9.878476,-0.019156,0.011706,0.001064,-8.261719,11.463867,51.826172
45.776712,-0.434722,-2.600547,0.120828,-0.140205,1.680730,0.483629,9.883264,-0.013835,0.012771,-0.003193,-7.207031,11.816602,48.087891
45.879012,-0.513939,-2.577575,0.109294,-0.137462,1.599327,0.454898,9.816227,-0.014899,0.015963,-0.001064,-8.085938,12.345703,48.597656
