Time, Altitude, Yaw, Pitch, Roll, Ax, Ay, Az, Pitch_rate, Roll_rate,Yaw_rate, Magx, Magy, Magz0.834074,0.446134,-0.161536,0.004987,0.012530,0.124498,-0.253785,9.964667,-0.096844,-0.019156,0.301175,25.578516,82.764844,5.062500
0.934131,0.804922,-0.334776,0.007894,0.021961,0.478840,-0.392649,9.677363,0.027670,0.017028,0.143670,26.454492,83.637891,4.893750
1.034302,0.083336,-0.516882,0.001284,0.032443,0.368707,0.110133,10.180145,0.024477,0.006385,0.071303,25.578516,84.510937,6.075000
1.134507,0.023621,-0.666271,0.000219,0.042821,-0.067038,0.143652,10.031705,-0.065982,-0.021284,0.229872,25.578516,84.510937,6.075000
1.236068,0.383044,-0.773620,-0.006228,0.061139,1.470040,0.014365,10.931925,-0.044697,0.044697,0.409726,21.023438,85.558594,6.075000
1.338014,0.135213,-0.922044,-0.015367,0.044860,0.550666,-0.220267,10.137050,0.052147,-0.038312,-0.013835,20.497852,85.034766,7.256250
1.439590,0.139938,-1.080992,-0.019006,0.034277,0.162806,-0.043096,10.208876,0.003193,0.002128,0.032991,22.600195,86.082422,5.906250
1.541623,0.176732,-1.228133,-0.006948,0.012362,0.148441,-0.119710,10.208876,0.012771,-0.004257,0.011706,22.249805,85.034766,5.906250
1.643395,-0.027067,-1.319742,-0.004256,-0.008835,0.052672,0.062249,10.256760,0.013835,0.056404,-0.274570,22.600195,86.431641,5.906250
1.745135,0.086592,-1.308995,-0.012680,0.011061,-0.196325,0.248997,10.189722,-0.008514,-0.050019,-0.089395,24.001758,86.082422,5.568750
1.846484,-0.141297,-1.288377,-0.016372,-0.036745,0.411803,0.076614,10.137050,0.012771,-0.063853,-0.095780,25.928906,84.860156,6.075000
1.948082,0.141411,-1.290760,-0.024697,-0.016640,-0.062249,0.038307,9.701305,-0.040441,0.210716,-0.663012,25.928906,84.860156,6.075000
2.049575,-0.073117,-1.273100,-0.016578,-0.025072,0.172383,-0.095768,10.017340,-0.008514,-0.028734,0.012771,26.454492,85.034766,6.243750
2.150545,0.164289,-1.268862,-0.016042,-0.007153,0.114922,0.114922,10.146627,0.019156,0.015963,0.109615,26.454492,85.034766,6.243750
2.252565,-0.122958,-1.303473,-0.002259,-0.010349,0.086191,0.004788,10.266337,0.019156,0.006385,0.011706,23.300977,85.383984,5.906250
2.353022,0.038803,-1.282594,0.001372,-0.008572,0.076614,-0.019154,10.180145,0.012771,0.010642,0.012771,25.228125,85.209375,6.075000
2.454344,-0.225946,-1.294963,0.005931,-0.013625,0.110133,-0.081403,10.141838,0.013835,0.007450,-0.040441,24.001758,84.685547,7.931250
2.556428,-0.269669,-1.282196,0.004087,0.012452,-0.134075,-0.004788,9.849746,0.014899,0.009578,0.013835,25.228125,84.860156,5.737500
2.657757,-0.100451,-1.285372,0.003247,-0.018522,0.019154,-0.215478,10.084377,0.018092,0.009578,0.012771,25.228125,84.860156,5.737500
2.758970,0.110568,-1.277628,-0.001572,0.036060,-2.121263,-0.263362,9.787496,0.030863,0.008514,0.034055,25.228125,84.161719,6.075000
2.860563,-0.102129,-1.298374,-0.007264,-0.014075,0.229843,0.023942,9.471462,0.017028,-0.010642,0.009578,23.476172,84.510937,7.425000
2.961791,-0.065683,-1.308729,0.001613,-0.006402,0.330400,-0.114922,10.165780,0.003193,0.011706,-0.097909,22.950586,85.034766,7.256250
3.062823,-0.339060,-1.282339,-0.004595,-0.017935,0.196325,0.009577,10.122685,-0.017028,0.046826,-0.022349,25.228125,85.209375,7.087500
3.164271,0.103662,-1.281154,-0.012305,-0.013225,0.095768,0.009577,10.084377,0.014899,0.013835,0.012771,25.228125,85.209375,7.087500
3.265979,-0.450723,-1.289774,-0.005404,-0.019324,0.148441,0.033519,10.108319,0.014899,0.023413,0.009578,25.052930,84.685547,7.256250
3.367773,0.178277,-1.292524,0.004354,-0.015348,0.114922,-0.023942,10.275914,0.009578,0.035119,0.004257,24.352148,85.383984,6.243750
3.468990,-0.096241,-1.296290,-0.002092,-0.025084,0.205901,-0.023942,10.002975,0.013835,0.006385,0.006385,24.176953,85.558594,7.425000
3.570271,0.174286,-1.299217,0.011108,0.001743,-0.033519,0.033519,10.170569,0.015963,0.000000,0.015963,23.651367,86.082422,5.568750
3.671704,0.090704,-1.308951,-0.008816,-0.026974,0.148441,-0.004788,10.285490,0.018092,0.003193,0.014899,23.300977,85.383984,6.581250
3.773325,0.067566,-1.292410,-0.000099,-0.008773,0.086191,-0.033519,10.113108,0.014899,0.000000,0.009578,24.877734,86.955469,6.075000
3.874600,0.085232,-1.299040,0.002251,-0.002708,0.047884,-0.033519,10.132261,0.013835,0.004257,0.013835,24.176953,86.257031,7.087500
3.976089,-0.053464,-1.283827,0.001908,-0.012103,0.086191,0.023942,10.218453,0.011706,0.006385,0.010642,25.228125,85.558594,6.075000
4.077294,0.153417,-1.284727,-0.004664,-0.010748,0.119710,0.004788,10.242395,0.009578,0.013835,0.011706,24.877734,84.510937,7.425000
4.178753,-0.066937,-1.297793,-0.007238,0.000913,0.019154,0.067038,10.146627,0.017028,0.003193,0.014899,24.527344,87.653906,6.412500
4.280474,0.050501,-1.290410,-0.008960,-0.005597,0.090980,0.090980,10.333374,0.010642,0.003193,0.013835,24.702539,85.034766,5.568750
4.381822,-0.451353,-1.287272,0.009688,-0.003925,0.009577,-0.105345,10.079589,0.013835,0.004257,0.010642,24.702539,85.034766,5.568750
4.482710,0.185295,-1.292295,-0.004719,-0.003002,0.047884,0.014365,10.386047,0.017028,0.006385,0.012771,24.702539,86.082422,5.906250
4.584930,-0.192919,-1.293474,0.001088,0.002972,0.004788,-0.019154,10.256760,0.012771,0.001064,0.009578,24.877734,86.955469,5.737500
4.686195,-0.332655,-1.292921,-0.006242,-0.003832,0.038307,-0.009577,10.093954,0.013835,-0.004257,0.004257,24.877734,86.955469,5.737500
4.787578,-0.397542,-1.279483,-0.001482,-0.000823,0.086191,-0.009577,10.050859,0.023413,0.001064,0.015963,25.578516,84.510937,6.075000
4.890402,-0.083998,-1.287255,-0.003355,-0.013430,0.110133,-0.023942,10.170569,0.013835,0.001064,0.012771,24.702539,85.034766,6.581250
4.992909,0.047266,-1.274250,0.006272,-0.002263,0.038307,-0.009577,10.160992,0.011706,0.006385,0.008514,25.753711,83.637891,5.906250
5.094222,-0.015579,-1.284700,0.000640,-0.003554,0.114922,0.067038,10.146627,0.015963,0.008514,0.015963,25.052930,86.082422,6.243750
5.196272,-0.022352,-1.286424,0.005572,-0.028654,0.301669,-0.129287,10.611102,0.014899,0.005321,0.010642,25.228125,85.558594,6.075000
5.297686,-0.076887,-1.294085,-0.002526,-0.009628,0.162806,-0.033519,10.165780,0.017028,0.002128,0.013835,24.176953,85.209375,7.087500
5.399561,-0.061383,-1.298011,-0.012283,-0.006811,0.095768,0.004788,10.122685,0.017028,0.005321,0.015963,24.001758,85.383984,6.581250
5.501014,-0.568282,-1.290019,-0.000029,-0.013443,0.191536,-0.047884,10.242395,0.013835,-0.001064,0.009578,25.052930,86.780859,6.243750
5.603183,-0.277896,-1.301140,0.009377,-0.007367,0.095768,-0.067038,10.285490,0.015963,0.002128,0.013835,24.001758,86.431641,6.243750
5.705366,-0.034579,-1.296478,0.001889,0.001832,0.014365,0.028730,10.084377,0.015963,0.005321,0.015963,24.176953,85.209375,5.400000
5.807716,0.004520,-1.285565,-0.008934,0.005510,0.033519,0.067038,10.218453,0.012771,0.004257,0.015963,25.228125,84.860156,6.750000
5.909879,-0.299497,-1.306882,-0.005179,-0.003609,0.067038,0.038307,10.194511,0.012771,0.007450,0.011706,23.476172,86.257031,6.075000
6.011425,-0.013371,-1.291347,-0.002072,-0.012942,0.047884,-0.052672,10.213664,0.022349,-0.001064,0.019156,25.403320,85.034766,6.243750
6.113359,-0.369938,-1.281641,0.013856,-0.017791,0.153229,-0.129287,10.247183,-0.012771,-0.018092,-0.044697,25.403320,85.034766,6.243750
6.214784,-0.009919,-1.279243,0.004249,0.003207,-0.071826,-0.004788,10.103531,-0.023413,0.004257,0.027670,25.052930,83.288672,5.568750
6.317202,0.078769,-1.275582,0.011173,-0.019447,-0.033519,-0.311246,10.117896,0.017028,-0.018092,-0.039376,26.104102,85.383984,4.893750
6.418783,-0.055179,-1.277296,0.005574,-0.012309,0.090980,-0.124498,10.314221,0.023413,0.009578,-0.007450,25.753711,85.034766,5.568750
6.520355,-0.408343,-1.286472,-0.002845,-0.013318,0.158017,0.000000,10.026917,0.021284,0.011706,0.012771,25.052930,85.733203,3.881250
6.622324,0.016293,-1.280016,-0.009007,-0.019069,0.134075,0.004788,10.137050,0.021284,0.021284,0.011706,25.403320,85.034766,4.218750
6.724176,-0.274244,-1.280505,0.009298,-0.014751,0.110133,-0.114922,10.065224,-0.002128,-0.003193,0.008514,25.403320,85.034766,4.218750
6.826049,-0.359881,-1.281436,0.006859,-0.014850,0.205901,-0.225055,9.959879,0.025541,-0.001064,0.011706,25.403320,85.383984,5.568750
6.927985,-0.167820,-1.295237,0.017146,0.000836,-0.014365,-0.148441,10.117896,0.005321,0.007450,0.011706,24.527344,86.606250,5.737500
7.029229,-0.130608,-1.280850,0.016059,-0.003513,0.105345,-0.038307,10.127473,0.031927,0.021284,-0.041505,26.279297,86.606250,5.737500
7.130176,-0.458116,-1.288474,0.016877,0.014186,-0.306458,-0.081403,10.247183,-0.041505,-0.027670,0.015963,24.527344,85.209375,6.412500
7.232122,-0.161378,-1.277388,-0.011214,0.001524,0.134075,0.043096,9.983821,0.001064,-0.015963,0.010642,25.753711,86.431641,4.218750
7.333676,-0.225783,-1.282761,-0.003202,-0.026841,0.330400,-0.081403,10.175357,-0.014899,-0.032991,-0.072367,25.753711,85.383984,5.568750
7.435457,0.340323,-1.278351,0.025063,-0.021453,0.134075,-0.268151,10.242395,0.011706,-0.007450,0.012771,25.753711,85.383984,5.568750
7.536690,-0.361935,-1.258844,0.000965,-0.031784,0.416591,-0.086191,10.635044,-0.009578,-0.040441,0.091523,27.856055,86.431641,5.231250
7.637822,-0.249592,-1.272548,0.006749,0.003086,-0.234632,0.095768,10.041282,-0.024477,-0.012771,0.031927,26.279297,85.209375,4.725000
7.739764,-0.271774,-1.272192,-0.004834,-0.026891,0.349553,-0.071826,10.175357,0.098973,-0.100037,0.070239,26.279297,85.209375,4.725000
7.841438,-0.138214,-1.275612,0.005244,-0.023267,0.239420,-0.124498,10.165780,0.029798,0.010642,0.009578,26.279297,85.558594,6.075000
7.943378,-0.213848,-1.268541,-0.018787,-0.004281,-0.067038,0.138864,10.376470,0.095780,-0.056404,0.007450,26.454492,84.336328,6.243750
8.044580,-0.292020,-1.270366,-0.010965,-0.026542,0.488417,0.114922,10.290279,0.005321,-0.006385,-0.012771,26.104102,83.637891,7.256250
8.145843,-0.184276,-1.290300,-0.011171,-0.009464,0.201113,0.028730,10.232818,0.043633,0.024477,0.000000,25.052930,86.431641,8.268750
8.247200,-0.782754,-1.279149,0.049068,-0.027181,-0.023942,-0.560243,10.371682,0.028734,0.025541,0.184111,25.052930,83.987109,4.556250
8.348693,-0.118218,-1.285410,0.006188,-0.033584,0.316035,-0.426168,10.093954,0.008514,0.012771,0.060661,24.527344,83.812500,6.750000
8.450611,-0.332075,-1.297766,-0.009944,-0.018617,0.205901,0.086191,10.314221,-0.053211,-0.032991,0.009578,24.001758,85.034766,6.581250
8.552051,-0.342599,-1.305103,0.013719,-0.026036,0.272939,-0.124498,9.792285,-0.043633,-0.012771,0.023413,23.300977,85.034766,6.581250
8.653924,-0.240407,-1.280783,0.045022,-0.050376,0.363919,-0.526724,10.333374,-0.636406,-0.013835,0.138349,25.228125,84.161719,7.762500
8.755419,-0.540833,-1.263117,0.135564,-0.065190,0.071826,-1.513135,10.208876,-0.550204,-0.014899,0.113872,27.856055,85.034766,6.581250
8.857435,-0.414486,-1.245792,0.187759,-0.070340,0.057461,-2.394202,7.632715,-0.371414,0.144734,0.015963,27.856055,85.034766,6.581250
8.958788,-0.521712,-1.221380,0.197094,-0.104491,0.330400,-2.207454,9.844957,-0.253285,0.014899,0.027670,29.783203,85.907812,6.075000
9.060141,-0.201191,-1.208678,0.213591,-0.117781,0.330400,-2.351106,10.122685,-0.161762,0.057468,0.012771,31.359961,85.733203,5.231250
9.162228,-0.140073,-1.200175,0.233787,-0.107789,0.138864,-2.619257,9.892841,-0.096844,-0.044697,0.078753,31.184766,85.209375,3.712500
9.263705,-0.401395,-1.189512,0.250156,-0.133293,0.268151,-2.810793,10.137050,-0.425690,-0.189432,0.012771,31.184766,85.209375,3.712500
9.365949,-0.595883,-1.124429,0.280197,-0.235236,0.928950,-3.471592,9.572018,-0.484222,-0.173469,0.013835,35.214258,85.733203,2.868750
9.467779,-0.515936,-1.087326,0.341536,-0.247969,0.660800,-4.036624,9.078813,-0.580002,0.018092,0.209652,36.440625,85.209375,2.362500
9.569577,-0.320613,-1.048885,0.427295,-0.272927,0.435745,-4.783615,8.734048,-0.528919,0.065982,0.092588,38.542969,86.257031,1.012500
9.671710,-0.299957,-1.026312,0.439010,-0.322631,0.857124,-5.118803,8.628703,-0.349066,-0.420369,-0.032991,38.017383,85.733203,-0.843750
9.773480,-0.186952,-0.970945,0.465040,-0.370119,0.229843,-5.228936,7.642292,-0.282019,-0.095780,-0.055340,38.893359,85.907812,-2.025000
9.874958,-0.104880,-0.924496,0.447545,-0.430502,0.967257,-5.597643,8.183381,-0.429947,0.058532,0.075560,40.470117,85.034766,-2.531250
9.975625,-0.227630,-0.879079,0.487214,-0.475229,0.962469,-6.100426,7.915231,-0.424625,0.101101,0.117065,40.995703,84.860156,-2.700000
10.077322,-0.309816,-0.831749,0.526808,-0.492646,0.593762,-6.449979,7.388506,-0.420369,0.062789,0.039376,42.046875,84.510937,-5.062500
10.178710,-0.349622,-0.740432,0.539893,-0.581736,0.665588,-6.962338,7.067683,-0.351194,0.075560,0.001064,44.499609,84.161719,-6.412500
10.280683,-0.317838,-0.702167,0.541394,-0.603933,0.478840,-7.134721,6.991069,-0.284148,0.055340,0.148991,42.922852,83.637891,-8.268750
10.382619,-0.568937,-0.634418,0.584343,-0.652200,0.191536,-7.350199,6.378153,-0.428882,-0.006385,0.005321,46.076367,83.288672,-8.943750
10.484373,-0.364269,-0.540516,0.548390,-0.776040,0.440533,-7.728483,5.889736,-0.357579,-0.071303,-0.124514,46.076367,83.288672,-8.943750
10.586060,-0.634290,-0.498102,0.484843,-0.835794,0.761356,-8.020576,6.057330,-0.275634,-0.046826,-0.001064,46.601953,84.510937,-9.787500
10.687668,-0.226442,-0.450989,0.513250,-0.857672,0.478840,-8.145074,5.607220,-0.313946,0.029798,0.048954,46.601953,84.510937,-9.787500
10.789881,-0.464715,-0.399061,0.469323,-0.908635,0.689530,-8.499416,5.645528,-0.294790,-0.012771,-0.012771,48.879492,82.241016,-12.656250
10.891977,-0.426236,-0.311855,0.370630,-1.008993,0.799663,-8.528146,4.797980,-0.252221,-0.071303,0.017028,49.229883,83.288672,-15.693750
10.993666,0.081358,-0.258004,0.366992,-1.042453,0.493206,-8.690952,4.764461,-0.129835,0.014899,0.061725,50.806641,81.717187,-14.850000
11.095903,-0.779893,-0.247277,0.344097,-1.059345,0.474052,-8.619126,4.458003,-0.181982,0.018092,0.021284,49.580273,82.939453,-16.368750
11.197515,0.177444,-0.228365,0.301969,-1.105656,0.751779,-8.844181,4.108450,-0.170276,0.019156,-0.035119,49.580273,82.939453,-16.368750
11.298657,-0.305713,-0.179810,0.268922,-1.146704,0.536301,-8.868123,3.830723,-0.111744,-0.060661,0.059597,50.456250,82.415625,-17.212500
11.400756,0.029029,-0.207628,0.272559,-1.125502,0.579397,-8.896853,4.118027,-0.130900,0.009578,0.019156,48.178711,82.939453,-18.056250
11.502178,-0.270565,-0.181822,0.233794,-1.149109,0.742203,-9.050082,3.840299,-0.183047,0.011706,0.006385,49.930664,81.891797,-17.718750
11.604348,-0.309729,-0.152677,0.184529,-1.188007,0.746991,-9.165004,3.509900,-0.134092,-0.013835,0.011706,50.281055,83.637891,-19.406250
11.706782,-0.150460,-0.120227,0.163744,-1.212878,0.579397,-9.198523,3.385401,-0.118129,-0.046826,0.010642,50.631445,82.241016,-19.743750
11.807227,-0.234427,-0.136918,0.147324,-1.189585,0.775721,-9.452308,3.658340,-0.258606,0.154313,0.040441,49.755469,82.066406,-21.600000
11.909921,0.021831,-0.101072,0.089674,-1.268058,0.636858,-9.332598,2.724601,-0.367157,0.097909,0.001064,51.682617,82.939453,-21.431250
12.011564,-0.379734,-0.065197,-0.015891,-1.303277,0.632069,-9.299079,2.284068,-0.193689,0.048954,-0.009578,50.105859,81.018750,-24.637500
12.113452,-0.206590,-0.045510,-0.074556,-1.297379,0.593762,-9.366117,2.892196,-0.060661,0.028734,0.021284,52.033008,82.241016,-24.131250
12.215485,-0.156050,-0.040482,-0.071565,-1.336135,0.627281,-9.414001,2.288857,-0.073431,0.003193,0.002128,52.033008,82.241016,-24.131250
12.317782,0.199089,-0.067712,-0.103577,-1.355600,0.876278,-9.351752,1.996764,-0.163891,-0.012771,0.031927,50.631445,79.447266,-24.131250
12.419651,-0.008016,-0.037786,-0.158414,-1.391792,0.584185,-9.615114,1.537077,-0.324588,-0.023413,0.064918,50.806641,81.018750,-25.987500
12.521701,-0.028235,-0.009706,-0.223373,-1.387288,0.450110,-9.533711,1.833958,-0.055340,0.017028,0.054275,48.529102,81.542578,-26.831250
12.623239,-0.090271,-0.026164,-0.266543,-1.401310,0.660800,-9.423578,1.661576,-0.021284,0.009578,0.064918,49.405078,82.066406,-27.337500
12.725128,-0.341393,-0.007395,-0.264130,-1.411278,0.517148,-9.849746,1.642422,-0.041505,-0.058532,0.025541,49.405078,82.066406,-27.337500
12.826977,-0.080574,-0.009518,-0.268356,-1.410296,0.703895,-9.840169,1.968034,-0.008514,-0.109615,-0.041505,50.806641,81.717187,-26.662500
12.928608,-0.190214,-0.040615,-0.275175,-1.421076,0.737414,-9.643844,1.331176,-0.060661,0.001064,-0.022349,50.631445,81.542578,-28.181250
13.029620,-0.421133,-0.010814,-0.288648,-1.418304,0.521936,-9.624691,1.493982,0.046826,0.018092,0.023413,50.981836,82.590234,-27.168750
13.132231,0.122255,-0.032443,-0.272268,-1.436990,0.612916,-9.701305,1.321599,-0.019156,-0.002128,-0.042569,50.631445,81.193359,-26.831250
13.233389,-0.035908,-0.024738,-0.274038,-1.426411,0.641646,-9.619902,1.422156,0.001064,0.013835,0.032991,51.332227,82.241016,-27.843750
13.334383,0.296645,-0.017620,-0.287835,-1.424992,0.584185,-9.682152,1.474828,-0.014899,0.042569,0.041505,50.456250,82.066406,-29.025000
13.436070,-0.332936,-0.024731,-0.307377,-1.442035,0.660800,-9.557653,1.264138,-0.085138,0.003193,-0.015963,51.682617,81.891797,-26.831250
13.537689,0.179834,-0.022726,-0.284582,-1.456541,0.555455,-9.514557,0.780510,-0.276698,0.063853,0.139413,51.682617,81.891797,-26.831250
13.639770,-0.056494,-0.004385,-0.332230,-1.432884,0.493206,-9.734824,1.359907,-0.072367,0.064918,0.058532,49.755469,83.114062,-28.350000
13.741254,-0.168546,-0.033227,-0.376150,-1.481797,0.579397,-9.682152,0.703895,-0.097909,-0.081945,-0.072367,49.755469,83.114062,-28.350000
13.843367,-0.048245,-0.006658,-0.383523,-1.442712,0.598550,-10.271125,1.403002,-0.136221,-0.009578,-0.157505,50.281055,82.241016,-30.206250
13.944059,-0.231282,-0.068148,-0.384824,-1.482997,1.082179,-10.237606,1.235408,-0.292662,-0.117065,-0.022349,52.033008,81.542578,-28.181250
14.045474,0.038467,-0.101180,-0.471413,-1.610711,0.660800,-9.385271,-0.541090,-0.134092,-0.175597,0.070239,52.383398,81.542578,-30.543750
14.147752,0.240055,-0.039962,-0.524276,-1.540040,0.541090,-9.437943,0.301669,0.042569,-0.032991,-0.047890,49.930664,82.590234,-32.231250
14.249120,0.131296,-0.111973,-0.489491,-1.559629,1.120486,-9.691728,0.052672,-0.041505,-0.035119,0.024477,51.157031,80.669531,-32.062500
14.350270,0.057676,-0.049657,-0.478398,-1.557390,0.545878,-9.758766,0.368707,0.000000,-0.028734,0.054275,51.332227,82.241016,-29.531250
14.452527,-0.050169,-0.078274,-0.489005,-1.560688,0.804452,-9.725247,0.205901,-0.009578,0.034055,-0.022349,52.908984,81.018750,-31.387500
14.554487,-0.024113,-0.069813,-0.488767,-1.550826,0.790087,-9.935937,0.248997,-0.047890,-0.052147,0.031927,50.105859,80.320312,-31.387500
14.655413,-0.064044,-0.077783,-0.508962,-1.564805,0.780510,-9.696517,0.028730,-0.014899,-0.002128,-0.001064,50.105859,80.320312,-31.387500
14.758226,0.259321,-0.085435,-0.483547,-1.568534,0.871489,-9.806650,-0.086191,-0.098973,0.030863,-0.021284,52.733789,81.891797,-31.893750
14.860261,0.051870,-0.115676,-0.499778,-1.593345,1.000776,-9.773131,-0.119710,-0.159634,-0.018092,-0.005321,51.682617,80.844141,-30.881250
14.961264,0.216996,-0.118722,-0.545667,-1.616385,0.847547,-9.595960,-0.502782,-0.095780,-0.036184,-0.021284,50.281055,80.844141,-32.231250
15.063620,0.001489,-0.139827,-0.564830,-1.659962,0.828394,-9.366117,-0.833182,0.040441,0.051083,-0.002128,50.281055,80.844141,-32.231250
15.164868,0.331601,-0.126775,-0.545448,-1.633102,0.919373,-9.643844,-0.497994,-0.013835,0.040441,0.031927,50.281055,80.844141,-32.231250
15.266353,-0.178170,-0.118192,-0.571219,-1.644588,0.818817,-9.610325,-0.656011,-0.022349,0.002128,-0.040441,50.981836,79.447266,-31.893750
15.368421,0.371235,-0.147874,-0.544651,-1.631376,1.154005,-9.730036,-0.392649,-0.023413,-0.020220,0.005321,52.208203,81.717187,-32.062500
15.469972,0.163820,-0.139007,-0.577679,-1.658446,0.746991,-9.255984,-0.790087,0.023413,0.002128,0.024477,51.332227,81.542578,-33.918750
15.571555,0.149734,-0.140804,-0.556913,-1.642168,1.101333,-9.916783,-0.258574,-0.018092,-0.024477,-0.022349,51.682617,80.844141,-31.556250
15.672882,0.274718,-0.123190,-0.554800,-1.632063,0.885855,-9.562441,-0.536301,0.028734,-0.024477,0.023413,51.682617,80.844141,-31.556250
15.774925,0.058550,-0.115967,-0.560246,-1.631740,0.890643,-9.629479,-0.402226,-0.006385,0.007450,-0.015963,51.157031,79.272656,-33.075000
15.876148,0.391914,-0.144052,-0.583136,-1.644582,0.928950,-9.758766,-0.718260,0.004257,-0.009578,0.005321,52.208203,81.717187,-34.425000
15.977891,0.416871,-0.120561,-0.565648,-1.628433,0.847547,-9.600749,-0.593762,0.035119,-0.005321,0.009578,51.857813,78.225000,-32.737500
16.079367,0.058738,-0.131252,-0.569081,-1.634960,0.900220,-9.619902,-0.569820,0.018092,-0.035119,0.022349,52.208203,81.367969,-33.750000
16.180243,0.069184,-0.121811,-0.554037,-1.637646,0.957681,-9.811438,-0.493206,-0.028734,0.008514,0.001064,52.208203,81.367969,-33.750000
16.282100,0.184508,-0.138869,-0.572012,-1.657554,0.794875,-9.538499,-0.665588,0.017028,0.018092,0.008514,51.157031,79.621875,-32.400000
16.384284,0.220869,-0.124534,-0.571457,-1.638845,0.943315,-9.639056,-0.555455,0.040441,0.018092,-0.006385,50.281055,79.447266,-33.581250
16.485439,0.091436,-0.133311,-0.572026,-1.632035,0.957681,-9.691728,-0.435745,0.034055,-0.008514,0.048954,50.281055,79.447266,-33.581250
16.587214,0.025449,-0.116984,-0.549020,-1.639187,0.818817,-9.639056,-0.521936,0.032991,0.022349,0.030863,51.682617,79.447266,-31.556250
16.688661,-0.119084,-0.116318,-0.570156,-1.622593,0.881066,-9.672575,-0.277727,0.069175,0.008514,0.018092,51.332227,79.098047,-32.906250
16.790522,0.360006,-0.137969,-0.553125,-1.622624,1.034295,-9.667786,-0.488417,0.013835,-0.011706,-0.035119,51.332227,79.098047,-32.906250
16.891939,-0.171645,-0.139659,-0.540948,-1.638189,1.000776,-9.572018,-0.574608,0.038312,-0.002128,0.026606,52.208203,81.367969,-31.725000
16.993653,0.081001,-0.140105,-0.553365,-1.647031,0.957681,-9.557653,-0.636858,0.031927,0.029798,0.006385,50.105859,80.320312,-31.725000
17.095418,0.255104,-0.150922,-0.544160,-1.639299,1.058237,-9.538499,-0.478840,0.058532,0.031927,0.018092,52.208203,80.669531,-33.075000
17.196299,0.152826,-0.124183,-0.537844,-1.614005,1.086968,-9.821015,-0.316035,-0.067046,0.042569,-0.036184,52.208203,80.320312,-32.400000
17.297866,0.750930,-0.164194,-0.533802,-1.641640,1.187524,-9.576807,-0.541090,0.014899,-0.019156,-0.004257,52.208203,80.320312,-32.400000
17.399870,0.095414,-0.135916,-0.541882,-1.625008,1.110910,-9.524134,-0.368707,0.025541,-0.006385,0.005321,52.383398,79.447266,-32.231250
17.501556,0.217031,-0.115683,-0.543884,-1.603916,0.967257,-9.653421,-0.229843,0.035119,-0.003193,0.009578,52.383398,80.494922,-33.243750
17.603367,0.095350,-0.148434,-0.560686,-1.628889,1.125275,-9.629479,-0.536301,0.039376,-0.019156,0.022349,51.332227,80.494922,-33.918750
17.704635,0.151710,-0.130819,-0.551732,-1.621452,1.039084,-9.777920,-0.330400,0.045762,-0.011706,0.017028,51.682617,79.447266,-32.906250
17.805973,-0.079537,-0.127367,-0.548646,-1.636025,0.995988,-9.639056,-0.488417,0.071303,-0.028734,-0.010642,51.682617,80.844141,-33.243750
17.907079,-0.269104,-0.136679,-0.508752,-1.616639,1.110910,-9.605537,-0.306458,0.154313,0.037248,0.041505,51.857813,79.272656,-30.375000
18.008433,-0.345170,-0.104220,-0.470224,-1.570520,1.072602,-9.667786,-0.057461,0.150056,0.024477,0.046826,51.332227,79.796484,-30.206250
18.109377,0.141935,-0.113575,-0.509697,-1.634247,0.761356,-9.548076,-0.612916,0.704516,0.048954,-0.034055,52.908984,79.621875,-29.362500
18.210403,0.217992,-0.074775,-0.479669,-1.527328,1.470040,-9.567230,1.273715,1.581437,-0.021284,-0.168147,52.908984,79.621875,-29.362500
18.311938,0.024700,-0.031061,-0.448596,-1.339952,1.115698,-9.255984,5.085284,1.888998,-0.042569,-0.001064,53.259375,80.669531,-26.662500
18.413796,0.360705,0.031143,-0.277419,-1.173119,0.545878,-7.881712,6.335058,2.436009,0.518277,0.234129,53.784961,78.050391,-18.731250
18.514865,-0.124507,-0.031816,-0.087538,-0.993941,0.392649,-6.550536,8.111555,1.402648,0.249028,-0.358644,48.353906,82.066406,-11.812500
18.616646,0.038487,-0.248252,0.007989,-0.823453,0.943315,-5.956774,10.994174,1.784704,0.221359,-0.836480,45.375586,83.987109,-6.581250
18.717654,-0.095679,-0.453851,0.063966,-0.747463,1.963245,-4.118027,8.317457,0.699195,0.068110,0.002128,43.273242,80.494922,-0.843750
18.819416,-0.295322,-0.619388,0.140468,-0.619614,1.479617,-3.902549,8.829816,0.631085,0.062789,-0.242643,43.273242,80.494922,-0.843750
18.921113,-0.096489,-0.813627,0.138103,-0.468049,2.149993,-3.734955,10.031705,0.949288,-0.185175,-0.280955,38.893359,81.018750,2.700000
19.022809,0.233445,-0.966463,0.147721,-0.313963,1.086968,-2.173935,9.792285,0.511892,0.293726,0.217102,36.440625,79.272656,6.412500
19.124317,-0.354665,-1.102660,0.080621,-0.189876,0.526724,0.991199,8.365341,1.452666,0.113872,0.185175,33.111914,80.844141,7.256250
19.225617,-0.233351,-1.203523,0.010652,-0.066018,0.378284,-0.339977,10.098743,0.010642,0.320332,0.255414,27.155273,81.542578,6.243750
19.326712,-0.022399,-1.251254,0.024142,-0.016753,-0.545878,0.119710,10.199299,0.025541,0.479965,0.026606,27.155273,81.542578,6.243750
19.428006,0.062638,-1.268173,-0.007757,0.044926,-1.101333,0.062249,8.863335,0.003193,0.040441,-0.238386,25.578516,83.463281,7.087500
19.529625,-0.255467,-1.286760,-0.004963,-0.017300,0.818817,-1.532289,11.042058,0.053211,0.028734,-0.337359,26.804883,82.590234,5.568750
19.631290,-0.017218,-1.249224,-0.011469,-0.009679,0.129287,0.076614,10.180145,0.021284,-0.039376,0.025541,27.680859,82.415625,7.425000
19.732527,-0.114154,-1.233043,-0.016118,0.005071,-0.023942,0.248997,10.534487,-0.018092,0.218166,-0.014899,29.783203,82.415625,6.750000
19.833823,-0.174956,-1.222489,0.012346,-0.055236,0.646434,-0.732626,11.291055,-0.018092,0.024477,0.048954,29.783203,82.415625,6.750000
19.935257,-0.268241,-1.254963,-0.007590,-0.055240,0.545878,-0.105345,10.093954,0.047890,-0.053211,-0.406534,27.505664,82.241016,5.568750
20.036983,-0.102327,-1.240699,-0.078797,-0.031116,0.526724,0.761356,10.591948,0.157505,-0.140478,0.083009,28.556836,81.891797,5.906250
20.138155,-0.237731,-1.256573,-0.110753,-0.023403,0.699107,0.938527,12.397176,0.821581,-0.474644,-0.021284,26.804883,81.193359,6.918750
20.239316,0.076809,-1.276871,-0.197778,0.004671,1.015142,1.513135,10.510545,1.238757,-0.263928,-0.258606,24.702539,82.241016,9.618750
20.340895,-0.378312,-1.273986,-0.206411,0.044953,0.062249,1.929727,9.251195,0.445910,-0.128771,-0.139413,24.702539,82.241016,9.618750
20.443025,0.084249,-1.270636,-0.369255,0.039038,1.024718,3.734955,10.577583,1.564410,-0.057468,-0.383121,24.001758,83.288672,7.593750
20.544699,-0.424223,-1.273142,-0.440796,0.129952,0.134075,4.424485,9.102755,0.753471,0.279891,-0.108551,19.972266,83.114062,8.775000
20.645956,-0.167432,-1.255830,-0.536465,0.211890,-0.229843,5.114015,7.872135,0.837544,0.229872,-0.404405,17.519531,85.209375,5.400000
20.747148,0.122002,-1.206012,-0.676253,0.275688,0.775721,6.957550,8.858546,1.559089,0.239450,-0.476772,16.117969,83.812500,2.700000
20.848051,-0.323047,-1.154546,-0.700563,0.354156,-0.866701,6.818686,7.311892,0.796040,0.353322,-0.036184,16.117969,83.812500,2.700000
20.949976,0.126607,-1.109571,-0.775902,0.439359,-0.574608,7.225701,6.809110,0.934389,-0.125578,-0.112808,8.409375,84.860156,1.350000
21.051497,-0.094133,-1.160735,-0.884236,0.392310,-0.459687,8.202535,6.224924,1.113179,-0.279891,-0.009578,5.781445,83.288672,1.518750
21.152990,0.019896,-1.026073,-1.046581,0.548373,-0.416591,8.930372,4.352659,1.054646,-0.122386,-0.011706,2.277539,83.987109,0.168750
21.253883,-0.274855,-0.986025,-1.074398,0.615627,-0.790087,9.303868,3.840299,0.476772,0.179854,0.070239,2.277539,83.987109,0.168750
21.355201,-0.245504,-0.897234,-1.071805,0.727126,-1.335965,9.327810,3.749320,0.395891,0.481029,0.179854,2.277539,83.987109,0.168750
21.456666,-0.204536,-0.740434,-1.139358,0.917744,-1.077391,9.155427,2.470816,0.371414,0.440589,0.113872,-2.803125,84.510937,-5.737500
21.558176,-0.085973,-0.725624,-1.141894,0.908839,-0.737414,9.399636,3.586514,0.359708,0.376735,0.131964,-2.803125,86.606250,-7.425000
21.659684,-0.251708,-0.621812,-1.170397,1.051768,-0.986411,9.141062,1.781286,0.228808,0.406534,0.015963,-5.431055,89.225391,-11.643750
21.761150,-0.056940,-0.612221,-1.213169,1.091425,-1.541866,10.237606,1.757344,0.360772,0.302240,0.105358,-4.730273,88.177734,-14.343750
21.863124,-0.088031,-0.676534,-1.199928,1.011606,-1.201889,9.940725,1.747767,0.163891,0.529984,0.050019,-6.131836,89.574609,-16.368750
21.964449,-0.191773,-0.354764,-1.254853,1.337162,-0.952892,9.844957,0.689530,0.270313,0.333102,0.095780,-7.183008,88.177734,-17.718750
22.065943,-0.011355,-0.320833,-1.281382,1.329073,-0.521936,9.686940,1.221043,0.418240,-0.013835,0.151120,-5.606250,90.796875,-18.900000
22.167498,-0.137648,-0.137823,-1.316186,1.543069,-0.746991,9.782708,0.210690,0.365029,0.162826,0.018092,-7.007812,90.447656,-21.600000
22.268824,-0.186193,-0.076440,-1.345526,1.602377,-0.780510,9.600749,-0.023942,0.123450,0.053211,-0.013835,-7.007812,93.590625,-22.950000
22.370619,0.061554,-0.238580,-1.374445,1.459407,-1.211466,10.232818,-0.014365,0.024477,-0.081945,0.073431,-8.409375,92.542969,-25.650000
22.471810,-0.060112,-0.224333,-1.418896,1.434576,-0.311246,9.888053,-0.603339,-0.002128,-0.026606,0.114936,-8.409375,92.542969,-25.650000
22.573104,-0.212334,-0.018195,-1.462577,1.631735,-0.426168,9.672575,-0.368707,0.031927,0.097909,-0.017028,-8.058984,92.542969,-25.312500
22.674563,0.057060,-0.479525,-1.476654,1.174159,-0.636858,9.753978,0.387861,-0.038312,0.181982,-0.139413,-8.058984,92.542969,-25.312500
22.776026,-0.159178,-0.259652,-1.491765,1.427152,-1.029507,10.026917,-0.330400,-0.039376,0.070239,-0.073431,-9.635742,92.717578,-25.481250
22.877582,0.067266,-0.159040,-1.498282,1.543070,-1.517924,9.428366,0.622492,0.051083,0.013835,0.020220,-9.285352,91.320703,-26.493750
22.978666,-0.333717,0.108103,-1.478625,1.753601,-0.708684,9.696517,-0.167594,0.041505,0.065982,0.071303,-6.307031,94.289062,-27.337500
23.080213,0.269912,0.357621,-1.474885,2.040143,-1.106121,9.816227,-0.536301,0.072367,0.006385,0.130900,-8.234180,93.765234,-27.168750
23.181776,-0.317163,0.211681,-1.493110,1.876989,-0.737414,9.907206,-0.220267,0.064918,0.031927,0.045762,-7.183008,95.511328,-26.831250
23.283658,-0.069531,0.230088,-1.517465,1.888683,-0.790087,9.988609,-0.172383,0.011706,0.029798,0.032991,-8.058984,93.590625,-27.337500
23.384970,-0.111997,1.979211,-1.552002,-2.633233,-0.799663,9.777920,-0.244209,0.011706,-0.088331,0.041505,-11.387695,94.463672,-28.181250
23.486275,-0.428286,-2.814299,-1.531900,-1.174179,-0.627281,9.950302,0.110133,0.002128,-0.058532,0.037248,-8.759766,95.336719,-28.012500
23.588241,-0.284903,2.804364,-1.529075,-1.838620,-0.545878,10.002975,-0.450110,-0.006385,-0.004257,-0.006385,-8.759766,95.336719,-28.012500
23.689641,-0.294900,2.374950,-1.515874,-2.283136,-0.344765,9.883264,-0.383072,0.011706,-0.006385,-0.014899,-8.759766,94.987500,-25.987500
23.791469,0.001926,2.976891,-1.517500,-1.661410,-0.608127,9.916783,-0.052672,-0.003193,0.045762,0.011706,-10.161328,93.590625,-25.312500
23.892725,-0.024653,2.763487,-1.494950,-1.880906,-0.656011,9.864111,-0.253785,0.001064,-0.031927,-0.039376,-9.110156,91.844531,-27.000000
23.994797,-0.294788,2.865987,-1.481064,-1.780895,-0.536301,9.773131,0.038307,0.061725,-0.065982,-0.029798,-9.986133,93.416016,-27.168750
24.096439,0.149340,3.024900,-1.473282,-1.602494,-0.679953,9.926360,-0.047884,-0.037248,-0.034055,-0.037248,-9.986133,93.416016,-27.168750
24.197746,-0.123021,2.951242,-1.477671,-1.693529,-0.713472,9.696517,-0.205901,0.024477,-0.065982,-0.025541,-8.234180,93.765234,-26.156250
24.299153,-0.073612,-2.956658,-1.478465,-1.281336,-1.355118,10.113108,0.474052,0.020220,-0.107487,0.003193,-9.460547,93.590625,-27.000000
24.400526,-0.335743,-2.973991,-1.472564,-1.330621,-0.976834,10.113108,0.359130,-0.014899,-0.086202,-0.063853,-6.482227,93.416016,-24.131250
24.501891,-0.184694,2.943728,-1.494993,-1.687445,-1.139640,9.797073,-0.493206,-0.046826,-0.159634,-0.055340,-7.183008,93.066797,-24.806250
24.602585,-0.219496,-2.746404,-1.514500,-1.094866,-0.928950,9.916783,0.416591,-0.026606,-0.118129,-0.130900,-7.183008,93.066797,-24.806250
24.703747,0.182912,-2.125636,-1.521884,-0.468323,-0.962469,9.758766,-0.038307,-0.060661,-0.018092,-0.117065,-7.007812,93.939844,-23.287500
24.805214,-0.219933,-1.059349,-1.521624,0.616385,-1.254562,9.835380,0.296881,0.001064,-0.028734,-0.077688,-7.007812,93.939844,-22.950000
24.907208,-0.256589,-0.581660,-1.534862,1.111419,0.440533,9.854534,0.421379,0.147927,0.042569,0.065982,-8.234180,92.019141,-22.443750
25.008587,-0.114192,-0.971943,-1.502781,0.717189,-1.412579,10.127473,0.550666,-0.161762,0.063853,-0.096844,-8.234180,87.130078,-27.843750
25.109905,-0.047250,-0.127240,-1.527249,1.545818,-1.623269,9.624691,1.077391,0.042569,-0.177725,0.101101,-8.058984,90.796875,-22.275000
25.211275,-0.113887,-0.792341,-1.483127,0.897357,-1.292869,9.730036,0.627281,-0.029798,0.038312,0.015963,-8.058984,90.796875,-22.275000
25.312593,-0.273766,-0.940432,-1.470725,0.740245,-1.283292,9.792285,1.130063,-0.035119,-0.044697,0.130900,-7.183008,93.416016,-24.131250
25.413864,-0.449739,-1.005171,-1.473578,0.648049,-0.948104,10.247183,0.952892,-0.046826,-0.307561,-0.037248,-4.379883,92.368359,-14.681250
25.515705,-0.055904,-0.725869,-1.448775,0.957378,-1.431733,10.721235,0.828394,0.690682,0.359708,-0.077688,-4.905469,92.542969,-14.850000
25.616961,0.088554,-0.307015,-1.419318,1.341368,-1.359907,9.868899,1.383849,-0.035119,0.125578,0.138349,-4.905469,92.542969,-14.850000
25.718707,0.129576,-0.392753,-1.402912,1.259576,-0.914585,10.074801,0.660800,0.260735,-0.023413,0.264992,-4.905469,92.542969,-14.850000
25.820713,0.068773,-0.000906,-1.429667,1.638765,-0.612916,9.610325,-0.086191,0.032991,0.098973,0.137285,-3.679102,89.225391,-19.068750
25.922736,0.067830,0.004796,-1.453157,1.635330,-0.339977,9.955091,-0.158017,0.054275,0.000000,0.024477,-5.606250,90.098437,-17.212500
26.023822,-0.397358,-0.586910,-1.464648,1.125458,-2.035071,9.165004,0.502782,0.253285,-0.860957,0.076624,-5.956641,89.400000,-17.550000
26.125565,-0.202171,0.531092,-1.444838,2.159395,-0.426168,9.768343,-0.837971,0.023413,0.015963,0.135156,-4.555078,89.050781,-17.550000
26.227087,-0.108598,0.095820,-1.481534,1.735619,-0.617704,10.295067,-0.320823,0.196881,-0.052147,0.191560,-5.606250,90.098437,-18.562500
26.327859,0.261859,0.344787,-1.495162,1.988285,-0.684742,9.634267,-0.201113,0.037248,-0.007450,-0.010642,-5.606250,90.098437,-18.562500
26.429546,-0.063406,0.193487,-1.527104,1.854588,-0.660800,9.509769,-0.119710,-0.009578,-0.111744,0.039376,-7.708594,89.749219,-16.200000
26.531389,0.008269,1.091555,-1.488383,2.730287,-0.440533,9.753978,-0.823605,-0.053211,0.083009,-0.102166,-7.708594,88.701562,-15.187500
26.632908,-0.221957,0.338830,-1.539204,1.993123,-0.794875,9.792285,-0.335188,-0.122386,-0.105358,0.022349,-7.533398,90.622266,-17.043750
26.734386,0.086814,1.484356,-1.528486,3.088788,0.057461,10.290279,-0.325611,0.000000,0.059597,-0.051083,-6.307031,88.352344,-15.862500
26.836086,0.122583,2.393425,-1.552179,-2.249669,-0.770933,9.998186,0.129287,0.306497,0.145799,0.150056,-6.307031,88.352344,-15.862500
26.937286,-0.114209,1.739386,-1.484469,-2.913014,-0.095768,9.433155,-0.986411,0.262863,-0.222423,-0.053211,-7.183008,87.479297,-16.706250
27.039004,0.074635,1.788165,-1.457661,-2.900850,0.881066,9.485827,0.234632,-0.126643,0.071303,0.039376,-7.183008,87.479297,-16.706250
27.141001,-0.198442,2.196717,-1.474916,-2.447410,-0.220267,10.285490,-0.531513,0.127707,-0.161762,-0.093652,-11.212500,87.304687,-18.562500
27.243146,-0.120500,2.324753,-1.485925,-2.297688,-0.622492,8.935161,-2.882619,-0.239450,0.224551,-0.376735,-11.037305,86.082422,-18.731250
27.344694,-0.103855,2.429580,-1.450493,-2.216288,-0.320823,9.619902,-0.818817,-0.135156,-0.125578,-0.009578,-11.037305,86.082422,-18.731250
27.446193,-0.039743,2.608493,-1.437022,-2.042875,-0.440533,9.557653,-0.684742,-0.151120,0.095780,0.151120,-9.285352,87.828516,-18.731250
27.548193,0.147544,2.637639,-1.425892,-2.028305,-0.110133,10.060435,-0.608127,-0.068110,0.107487,0.007450,-9.635742,87.130078,-18.393750
27.649704,0.215359,3.051621,-1.421331,-1.623087,0.076614,10.093954,-0.555455,-0.420369,0.203267,-0.006385,-10.161328,87.653906,-17.550000
27.751064,-0.173276,3.094613,-1.399099,-1.573832,0.148441,9.212888,-0.383072,-0.249028,-0.068110,-0.108551,-9.285352,89.574609,-17.043750
27.853003,-0.118095,2.984319,-1.398494,-1.663976,-0.885855,9.600749,-1.048660,-0.058532,0.088331,0.005321,-8.584570,87.828516,-21.431250
27.954168,-0.105978,-3.006373,-1.385876,-1.389756,-0.493206,10.347740,0.574608,-0.083009,-0.184111,0.256478,-8.058984,88.701562,-19.237500
28.056027,-0.080503,-3.007428,-1.324410,-1.395134,-0.047884,10.079589,0.320823,-0.036184,-0.017028,0.009578,-9.810937,89.050781,-17.212500
28.157124,0.351853,-2.886285,-1.271139,-1.285223,-0.148441,9.835380,0.598550,-0.173469,-0.008514,0.093652,-10.336523,87.130078,-16.706250
28.258570,-0.389554,-3.012590,-1.248605,-1.413067,-0.258574,9.744401,0.488417,0.007450,-0.040441,0.017028,-9.285352,89.225391,-16.031250
28.359740,-0.125608,-2.913591,-1.236449,-1.309860,-0.158017,9.931148,0.579397,-0.046826,-0.002128,-0.012771,-9.460547,88.352344,-15.525000
28.461139,-0.204148,-2.902970,-1.217720,-1.320016,0.148441,9.701305,0.780510,0.004257,-0.023413,0.041505,-9.460547,88.352344,-15.525000
28.562997,-0.020718,-2.865356,-1.166156,-1.292667,0.306458,9.950302,1.000776,0.031927,-0.057468,0.061725,-9.986133,87.130078,-14.681250
28.665312,-0.141890,-2.973008,-1.137908,-1.364884,-0.038307,9.753978,0.746991,0.005321,0.055340,-0.116000,-9.986133,87.130078,-14.681250
28.766559,-0.041437,-3.019507,-1.191448,-1.429719,-0.177171,9.888053,0.651223,0.006385,0.040441,0.013835,-7.708594,88.352344,-14.512500
28.868877,-0.020500,-2.948241,-1.160748,-1.354940,0.086191,9.993398,0.794875,0.032991,-0.019156,0.046826,-9.810937,87.304687,-14.512500
28.969934,-0.141960,-2.947818,-1.163079,-1.364409,0.119710,9.892841,0.766145,0.026606,-0.006385,0.017028,-8.934961,88.177734,-16.368750
29.071912,0.096365,-2.983286,-1.175100,-1.394572,-0.105345,9.840169,0.727837,0.053211,-0.014899,-0.030863,-8.934961,88.177734,-16.368750
29.173792,0.257610,-2.982956,-1.175200,-1.379481,-0.225055,9.974244,0.708684,0.062789,-0.002128,-0.015963,-9.810937,88.003125,-14.512500
29.275527,-0.255249,-2.976095,-1.186772,-1.382617,-0.124498,9.792285,0.550666,0.004257,0.031927,-0.017028,-9.110156,86.257031,-14.512500
29.377139,-0.320795,-2.980484,-1.174120,-1.385128,-0.162806,10.026917,0.751779,0.073431,-0.001064,-0.008514,-9.460547,87.304687,-15.187500
29.478457,-0.161228,-2.955508,-1.197302,-1.370343,-0.248997,9.993398,0.833182,-0.027670,0.026606,0.006385,-8.934961,88.526953,-16.706250
29.580238,-0.180209,-2.954192,-1.202636,-1.370697,0.086191,10.137050,0.770933,-0.013835,-0.017028,0.069175,-8.934961,88.526953,-16.706250
29.681664,-0.035173,-2.996220,-1.195009,-1.407930,-0.076614,9.907206,0.579397,0.030863,-0.011706,-0.007450,-9.986133,87.828516,-16.706250
29.783433,0.070520,-2.995125,-1.205707,-1.377485,-0.201113,10.012551,0.670376,-0.100037,0.032991,0.046826,-9.460547,87.653906,-15.862500
29.884818,-0.179041,-2.905658,-1.194061,-1.304818,-0.028730,9.935937,0.900220,-0.043633,0.017028,-0.010642,-9.285352,87.828516,-16.031250
29.986810,0.216440,-2.940868,-1.212062,-1.340545,-0.153229,9.907206,0.943315,0.077688,-0.014899,-0.017028,-9.285352,87.828516,-16.031250
30.089178,-0.256198,-2.976356,-1.225548,-1.370044,-0.282516,9.878476,0.608127,-0.061725,0.036184,0.032991,-9.285352,87.828516,-16.031250
30.190630,-0.019845,-2.963001,-1.256003,-1.369289,-0.196325,9.768343,0.742203,0.057468,-0.007450,0.013835,-7.358203,88.003125,-16.875000
30.291735,-0.195466,-2.934412,-1.242277,-1.345753,0.067038,9.964667,0.756568,0.061725,-0.010642,-0.035119,-9.110156,88.003125,-14.850000
30.393574,0.056507,-2.996418,-1.226718,-1.388893,-0.325611,9.916783,0.636858,0.047890,-0.039376,0.001064,-10.511719,88.003125,-16.537500
30.494976,-0.016045,-2.899173,-1.221289,-1.309319,-0.023942,9.840169,0.895431,0.017028,-0.015963,0.022349,-9.110156,88.003125,-16.875000
30.596107,-0.027436,-2.954273,-1.226828,-1.361027,-0.143652,9.888053,0.770933,-0.020220,0.009578,-0.021284,-9.110156,88.003125,-16.875000
30.697688,0.067531,-2.916901,-1.228433,-1.309589,-0.158017,9.979033,0.847547,0.020220,0.014899,-0.001064,-9.285352,88.526953,-15.693750
30.799040,0.264686,-2.940856,-1.233245,-1.339810,-0.258574,9.888053,0.622492,-0.013835,0.037248,0.007450,-8.584570,87.479297,-15.018750
30.900801,0.229284,-2.932816,-1.229103,-1.330133,-0.153229,9.878476,0.770933,0.010642,0.012771,-0.028734,-9.285352,87.828516,-14.343750
31.002490,-0.073488,-2.912124,-1.229025,-1.316665,-0.071826,9.873688,0.689530,-0.011706,0.008514,0.000000,-8.584570,88.526953,-15.693750
31.104184,0.164181,-2.838486,-1.231714,-1.229330,-0.244209,9.773131,1.086968,-0.250093,-0.015963,0.085138,-8.934961,88.876172,-16.031250
31.206168,0.032419,-2.656344,-1.211648,-1.052687,-0.201113,9.916783,1.522712,-0.732186,0.216038,0.173469,-9.986133,86.431641,-16.368750
31.308129,0.200528,-2.573290,-1.204638,-0.983548,0.186748,9.701305,2.145205,-0.285212,0.039376,0.021284,-8.584570,89.225391,-14.681250
31.409899,0.255929,-2.500736,-1.221187,-0.912730,0.172383,9.773131,1.958457,-0.300111,0.098973,-0.122386,-8.584570,89.225391,-14.681250
31.512273,0.174911,-2.406236,-1.222294,-0.798777,-0.330400,9.615114,2.734178,-0.124514,-0.086202,0.110679,-7.183008,86.780859,-12.318750
31.613685,0.191474,-2.259685,-1.233072,-0.672554,0.138864,9.509769,2.317587,-0.420369,-0.038312,0.164955,-7.358203,88.003125,-13.162500
31.715736,-0.103117,-2.125540,-1.137560,-0.531795,0.215478,9.375694,3.529053,-0.605544,0.018092,0.289469,-7.183008,88.177734,-11.306250
31.817647,0.014692,-2.126613,-1.058531,-0.578226,0.689530,9.313444,4.180276,-0.491672,-0.078753,0.142606,-7.183008,88.177734,-11.306250
31.919682,-0.019518,-2.081312,-1.082449,-0.524105,0.641646,8.906430,4.012682,-0.032991,0.036184,-0.008514,-4.730273,83.987109,-7.593750
32.021807,-0.205728,-2.024859,-1.047898,-0.446199,0.517148,9.102755,4.577714,-0.320332,0.051083,0.025541,-6.482227,83.637891,-5.568750
32.123627,-0.001136,-1.962237,-1.004882,-0.398104,0.612916,8.815451,5.042189,-0.411855,0.123450,0.114936,-5.080664,83.987109,-5.906250
32.226157,0.109244,-1.904590,-0.988823,-0.349344,0.723049,8.542512,5.133168,-0.295854,0.103230,0.119193,-4.204688,84.860156,-6.412500
32.328187,0.269958,-1.867182,-0.959071,-0.302406,0.426168,8.676587,5.477933,-0.499121,0.024477,0.120257,-4.204688,84.860156,-6.412500
32.430053,0.266786,-1.804909,-0.906733,-0.255556,0.617704,7.829039,5.779603,-0.385249,-0.038312,0.339488,-2.277539,82.939453,-3.543750
32.531505,0.143339,-1.826327,-0.839099,-0.300239,1.192312,8.101978,6.727707,-0.261799,0.167083,0.239450,-2.803125,83.812500,-3.712500
32.633381,0.430939,-1.828878,-0.794423,-0.316257,1.331176,7.517793,6.603208,-0.675782,0.336295,-0.005321,-3.153516,83.463281,-2.025000
32.734922,0.207197,-1.746187,-0.716375,-0.221538,1.168370,6.421249,7.876923,-0.632149,0.378864,-0.188368,1.226367,83.637891,-0.843750
32.836222,0.410495,-1.615143,-0.741737,-0.080693,0.387861,6.330269,6.464344,-0.548075,-0.242643,0.299047,1.226367,83.637891,-0.843750
32.937585,0.402172,-1.622892,-0.622213,-0.121859,0.857124,6.335058,8.690952,-0.458681,-0.219230,0.306497,2.102344,84.860156,1.687500
33.039172,0.404728,-1.615827,-0.595416,-0.136983,1.192312,5.497087,8.240842,-0.457616,-0.063853,0.129835,3.503906,83.114062,2.025000
33.141122,0.086427,-1.601596,-0.474833,-0.167665,1.651999,4.750096,9.169792,-0.442717,-0.076624,0.111744,3.503906,83.114062,2.025000
33.243213,0.335255,-1.552917,-0.424243,-0.077629,0.770933,4.338293,9.356540,-0.575745,0.367157,0.138349,5.255859,81.018750,3.375000
33.344011,0.233066,-1.493108,-0.371268,-0.018630,0.593762,3.509900,8.848969,-0.573617,0.266056,0.146863,6.131836,80.494922,1.518750
33.445415,0.098413,-1.477825,-0.298890,-0.035743,0.675165,3.021482,10.204087,-0.387378,0.094716,-0.007450,8.584570,83.288672,0.168750
33.547244,0.271150,-1.453379,-0.254858,0.010009,0.205901,2.557007,9.691728,-0.508699,0.317139,0.068110,9.635742,83.288672,-0.506250
33.649068,0.401369,-1.448059,-0.178158,0.013033,0.162806,1.565808,8.872911,-0.454424,0.173469,-0.205395,10.686914,84.336328,-0.506250
33.750694,0.330354,-1.402955,-0.159266,0.077836,-0.785298,2.614468,9.581595,-0.015963,-0.211781,-0.121322,13.840430,84.336328,-0.843750
33.851893,0.351614,-1.411274,-0.074412,0.067122,-0.550666,0.421379,9.279926,-0.117065,0.117065,-0.261799,13.840430,84.336328,-0.843750
33.953688,-0.035088,-1.377696,-0.012744,0.031664,-1.063026,-0.181959,8.470685,-0.148991,0.106422,0.063853,18.220313,82.415625,0.000000
34.055577,0.023696,-1.339022,-0.025472,0.015241,-0.047884,0.186748,11.219229,-0.034055,0.441653,-0.025541,19.446680,82.241016,-0.506250
34.157369,0.163038,-1.329796,-0.031094,0.035817,-0.234632,0.359130,10.031705,0.039376,0.330974,0.006385,20.497852,83.288672,-3.206250
34.259310,0.237863,-1.346151,-0.022644,0.119323,-1.063026,0.656011,10.323798,-0.105358,0.162826,-0.054275,19.096289,83.288672,-4.218750
34.360807,0.004774,-1.350528,-0.001396,0.082354,-0.679953,0.268151,9.289502,-0.941838,0.690682,-0.250093,19.096289,83.288672,-4.218750
34.462245,0.478728,-1.337514,-0.064653,0.124650,-0.972046,0.632069,10.658986,0.192625,-0.030863,0.470387,19.096289,83.288672,-4.218750
34.563617,0.217834,-1.335559,-0.068446,0.164554,-1.723825,0.823605,10.639832,0.155377,-0.146863,0.170276,20.322656,85.558594,-6.075000
34.665435,0.141021,-1.378746,-0.005957,0.167293,-1.513135,0.689530,10.615890,-0.034055,0.075560,-0.135156,18.220313,86.606250,-7.425000
34.767053,0.311256,-1.350649,-0.004536,0.197320,-1.733402,0.881066,10.706870,0.136221,0.075560,-0.009578,20.848242,86.431641,-7.593750
34.868124,0.182397,-1.353145,0.032368,0.177263,-1.781286,0.067038,9.926360,-0.107487,0.023413,-0.001064,20.848242,86.431641,-7.593750
34.969299,0.307667,-1.336590,0.047269,0.185310,-1.872266,-0.100556,9.916783,-0.044697,0.104294,0.085138,22.950586,87.130078,-7.931250
35.070504,0.239772,-1.351109,0.057795,0.159623,-1.628057,-0.134075,10.400412,-0.206460,-0.002128,0.026606,22.249805,88.876172,-8.268750
35.172233,0.522951,-1.355168,0.088406,0.156484,-0.699107,0.143652,9.528923,-0.534241,-0.078753,-0.155377,22.249805,89.574609,-9.281250
35.274137,0.360178,-1.352228,0.143617,0.175738,-2.025495,-1.163582,9.696517,-0.418240,0.135156,-0.028734,24.176953,90.447656,-10.800000
35.376400,-0.040573,-1.314017,0.164197,0.153957,-1.838747,-0.981623,9.816227,-0.655562,-0.053211,0.242643,28.031250,89.400000,-8.100000
35.478066,0.214816,-1.293152,0.262103,0.111199,-1.719037,-2.106897,10.319009,-1.003563,0.062789,-0.204331,28.907227,87.828516,-3.881250
35.579913,0.416212,-1.257784,0.424402,0.079939,-2.035071,-3.687071,9.696517,-0.922682,0.336295,0.047890,34.338281,88.352344,-7.087500
35.681212,0.141940,-1.249302,0.495833,0.099994,-2.346318,-3.763685,8.681375,-0.237322,0.261799,0.070239,35.389453,87.653906,-8.437500
35.782731,0.349730,-1.235873,0.550132,0.087470,-2.336741,-4.429273,8.058883,-0.137285,0.254350,0.126643,35.564648,89.574609,-11.306250
35.884460,0.363603,-1.251721,0.557347,0.091594,-2.638410,-4.932055,8.327033,-0.047890,0.101101,0.041505,35.564648,89.574609,-11.306250
35.986503,0.739434,-1.271503,0.572367,0.121352,-2.777274,-4.678270,8.532935,-0.158569,-0.039376,-0.043633,35.389453,89.749219,-9.787500
36.087467,0.164740,-1.218638,0.623454,0.019134,-2.087744,-5.406107,8.221689,-0.450167,-0.255414,-0.285212,35.389453,87.653906,-12.487500
36.189388,0.156208,-1.117047,0.727168,-0.105587,-1.584961,-5.966351,6.698976,-0.273506,0.376735,-0.412919,38.017383,89.225391,-14.006250
36.291671,0.332320,-1.007961,0.714360,-0.203895,-1.613692,-6.555324,7.335834,-0.373543,-0.073431,0.285212,38.893359,87.304687,-13.500000
36.392420,0.560902,-0.969461,0.761582,-0.243726,-1.872266,-6.756437,7.096414,-0.336295,-0.090459,-0.042569,38.893359,87.304687,-13.500000
36.494411,0.388535,-0.886037,0.843367,-0.308822,-2.255338,-7.829039,6.411672,-0.703452,-0.069175,0.003193,40.645313,88.352344,-14.512500
36.596507,0.357138,-0.754621,0.854692,-0.457169,-1.441309,-8.149862,6.191405,-0.837544,-0.335231,-0.407598,43.098047,86.606250,-18.562500
36.697868,0.171413,-0.553281,0.832321,-0.707772,-0.694318,-8.145074,4.371812,-1.853879,-0.402277,-0.493800,45.901172,84.860156,-18.225000
36.800376,0.799062,-0.303881,0.795408,-0.965610,0.004788,-8.499416,3.854665,-1.528226,-0.499121,-0.081945,49.405078,81.367969,-21.262500
36.902426,0.323139,-0.191721,0.653025,-1.154089,0.785298,-8.671798,1.465251,-0.476772,-0.295854,-0.408662,49.405078,81.367969,-21.262500
37.004215,0.639081,-0.138853,0.494382,-1.212235,0.622492,-9.624691,1.106121,-0.236258,-0.246900,0.095780,52.383398,80.145703,-24.806250
37.106223,0.374618,-0.095668,0.343623,-1.279072,0.349553,-9.624691,0.713472,-0.180918,-0.012771,0.026606,53.084180,79.796484,-27.843750
37.207728,0.411080,-0.048517,0.159794,-1.340113,0.306458,-9.619902,0.521936,-0.072367,0.162826,0.196881,51.682617,81.891797,-28.856250
37.309619,0.499385,-0.018095,-0.001858,-1.403397,-0.038307,-10.141838,-0.095768,-0.054275,0.048954,0.065982,50.981836,80.844141,-27.843750
37.410888,0.315022,-0.008965,-0.180843,-1.446854,0.129287,-9.572018,0.435745,-0.074496,0.019156,0.075560,50.981836,80.844141,-27.843750
37.512299,0.267400,0.004472,-0.333880,-1.506583,0.014365,-9.739612,0.229843,0.011706,-0.001064,-0.014899,50.456250,79.971094,-27.000000
37.613673,0.490085,0.014967,-0.432658,-1.526375,-0.019154,-9.725247,0.373495,0.001064,0.019156,0.073431,51.157031,81.367969,-28.012500
37.714918,0.409913,0.012855,-0.447797,-1.522204,0.043096,-9.864111,0.493206,-0.041505,0.022349,0.030863,51.157031,81.367969,-28.012500
37.816723,0.515689,0.029789,-0.427478,-1.523043,-0.004788,-9.682152,0.454898,-0.001064,0.053211,0.045762,51.857813,81.367969,-28.012500
37.918667,1.043922,0.038708,-0.481268,-1.524345,-0.081403,-9.758766,0.450110,0.068110,0.021284,0.031927,49.054688,80.669531,-29.362500
38.020313,0.307171,0.010681,-0.421289,-1.525426,0.090980,-9.706094,0.416591,0.023413,-0.025541,0.025541,52.733789,81.193359,-28.181250
38.122270,0.328097,0.014152,-0.453849,-1.530262,0.038307,-9.658209,0.363919,-0.010642,-0.005321,-0.008514,50.806641,82.415625,-29.025000
38.223256,0.216879,0.027744,-0.439922,-1.508917,0.004788,-9.753978,0.598550,-0.003193,-0.002128,0.025541,52.383398,81.542578,-28.181250
38.325654,0.434565,0.020956,-0.431913,-1.516259,0.129287,-9.849746,0.359130,0.044697,0.042569,0.029798,50.631445,81.891797,-28.181250
38.427221,0.051685,0.032781,-0.444547,-1.510885,-0.033519,-9.739612,0.622492,0.046826,0.026606,-0.004257,50.631445,81.542578,-27.843750
38.529031,0.324128,0.019011,-0.450343,-1.506247,0.062249,-9.481039,0.517148,-0.043633,0.009578,0.009578,51.157031,82.066406,-28.687500
38.630955,0.452758,0.034037,-0.448630,-1.519620,0.014365,-9.787496,0.483629,-0.015963,0.019156,0.035119,49.755469,81.367969,-28.350000
38.732027,0.352555,0.019887,-0.449154,-1.526034,0.062249,-9.854534,0.296881,-0.020220,0.021284,0.014899,51.157031,81.367969,-28.687500
38.834292,0.348622,0.008177,-0.446382,-1.527181,0.028730,-9.677363,0.349553,0.034055,0.027670,0.047890,51.332227,82.590234,-28.856250
38.935936,0.431907,0.021875,-0.451995,-1.526383,0.090980,-9.782708,0.143652,0.063853,0.007450,-0.005321,51.332227,82.590234,-28.856250
39.037859,0.172164,0.020383,-0.443705,-1.508464,0.043096,-9.662998,0.579397,0.005321,0.006385,0.019156,49.755469,80.669531,-28.012500
39.139129,0.619950,0.025654,-0.459432,-1.523950,-0.038307,-9.677363,0.440533,0.003193,-0.022349,0.006385,49.755469,80.669531,-28.012500
39.240975,0.726316,0.013599,-0.420138,-1.525315,-0.019154,-9.725247,0.450110,0.028734,0.006385,0.015963,51.857813,80.320312,-26.662500
39.343384,0.156182,0.019933,-0.466510,-1.523709,-0.009577,-9.749189,0.454898,-0.053211,-0.006385,0.020220,50.806641,81.367969,-30.037500
39.444480,0.519092,0.012387,-0.495789,-1.517468,0.033519,-9.749189,0.349553,0.019156,0.021284,0.031927,50.631445,81.891797,-30.881250
39.546465,0.253213,0.032757,-0.494544,-1.520288,0.014365,-9.753978,0.464475,0.079817,0.010642,0.003193,50.631445,81.891797,-30.881250
39.648036,0.533455,0.026144,-0.473791,-1.514429,-0.062249,-9.734824,0.387861,0.013835,0.014899,0.007450,51.682617,81.193359,-29.868750
39.749424,0.442087,0.031332,-0.449978,-1.523175,-0.062249,-9.730036,0.497994,0.007450,-0.001064,0.010642,50.105859,81.717187,-28.012500
39.850853,0.515779,0.018977,-0.434269,-1.521570,0.004788,-9.739612,0.469264,-0.014899,0.003193,0.028734,50.631445,81.193359,-27.843750
39.953033,0.583872,0.021528,-0.433548,-1.502582,0.028730,-9.792285,0.502782,-0.013835,-0.027670,0.015963,50.806641,81.367969,-27.675000
40.055121,0.399621,0.024969,-0.426347,-1.498143,0.019154,-9.768343,0.560243,0.053211,0.009578,0.012771,50.806641,81.367969,-27.675000
40.156930,0.662252,0.016490,-0.437286,-1.497645,0.076614,-9.739612,0.612916,0.023413,0.001064,-0.014899,50.105859,79.971094,-28.350000
40.258626,0.573048,0.015572,-0.430824,-1.517507,0.086191,-9.706094,0.574608,-0.037248,0.009578,0.025541,51.157031,82.764844,-28.350000
40.361061,0.353263,0.008668,-0.421048,-1.524345,0.119710,-9.543288,0.545878,-0.014899,0.024477,0.002128,50.981836,80.145703,-27.506250
40.462585,0.484587,0.033483,-0.446428,-1.503873,-0.028730,-9.648633,0.502782,0.050019,0.003193,0.020220,50.631445,81.891797,-29.531250
40.563832,0.296116,0.026561,-0.451054,-1.494885,0.100556,-9.581595,0.632069,0.030863,0.006385,0.022349,50.631445,81.891797,-29.531250
40.665764,0.380508,0.030950,-0.461146,-1.498649,-0.047884,-9.849746,0.493206,0.009578,0.005321,0.009578,50.631445,81.891797,-29.531250
40.767326,0.657998,0.026155,-0.429577,-1.510914,0.004788,-9.720459,0.526724,0.015963,-0.002128,0.014899,50.981836,80.844141,-27.168750
40.869557,0.645410,0.020473,-0.431794,-1.511429,-0.004788,-9.686940,0.569820,0.064918,-0.008514,0.001064,51.507422,82.066406,-28.012500
40.971206,0.887412,0.019014,-0.422624,-1.512667,0.067038,-9.821015,0.574608,0.045762,0.000000,-0.001064,51.157031,80.320312,-28.012500
41.073080,0.729752,0.024913,-0.413800,-1.482632,0.067038,-9.672575,0.675165,0.102166,0.024477,0.027670,50.981836,80.844141,-28.181250
41.174043,0.335562,0.031935,-0.385262,-1.478209,0.009577,-9.710882,0.842759,0.214973,0.003193,0.004257,50.981836,80.494922,-26.831250
41.275460,0.333558,0.023186,-0.353030,-1.453734,0.057461,-9.720459,1.024718,0.345873,-0.004257,0.031927,50.981836,80.844141,-27.506250
41.376937,0.692612,0.032649,-0.273429,-1.425825,0.114922,-9.821015,1.498770,0.408662,0.001064,-0.012771,51.157031,82.066406,-26.325000
41.478051,0.302799,0.021959,-0.188532,-1.385478,0.114922,-9.485827,1.886631,0.282019,0.032991,0.003193,51.682617,80.494922,-24.468750
41.579398,0.221900,0.019679,-0.102186,-1.329838,0.071826,-9.490615,2.403778,0.356515,0.041505,0.032991,51.857813,80.669531,-22.950000
41.681645,0.146434,-0.001977,-0.003378,-1.299995,0.038307,-9.485827,2.820370,0.319267,0.041505,0.017028,51.332227,80.145703,-21.093750
41.783510,0.562716,-0.025079,0.065771,-1.278113,0.105345,-9.356540,2.561796,0.224551,0.055340,0.008514,50.981836,80.145703,-20.418750
41.885632,0.584540,-0.049422,0.134614,-1.217381,-0.004788,-9.208100,3.428497,0.280955,0.028734,0.029798,50.281055,81.891797,-20.081250
41.987996,0.570525,-0.082184,0.194239,-1.203539,0.052672,-9.212888,3.533842,0.157505,0.002128,0.009578,48.879492,80.844141,-18.393750
42.088794,0.493751,-0.094263,0.225228,-1.171822,-0.014365,-9.174581,3.835511,0.184111,-0.019156,0.001064,49.405078,81.018750,-17.887500
42.190797,0.701030,-0.122557,0.253852,-1.154766,0.052672,-9.088390,3.960010,0.367157,-0.041505,-0.002128,49.580273,80.145703,-18.056250
42.292923,0.323285,-0.160993,0.286285,-1.110535,0.210690,-8.743624,4.165911,0.439525,0.028734,0.031927,49.580273,80.145703,-18.056250
42.394967,0.505667,-0.214122,0.354526,-1.025335,0.028730,-8.686164,4.927267,0.451231,0.043633,0.046826,48.178711,79.796484,-17.381250
42.496221,0.296098,-0.304747,0.453126,-0.938218,-0.090980,-8.422801,5.295974,0.483158,-0.089395,0.019156,48.178711,80.844141,-14.681250
42.597401,0.642222,-0.378364,0.462231,-0.868466,0.138864,-8.202535,5.803545,0.371414,0.047890,0.046826,49.405078,81.018750,-14.175000
42.699138,0.311486,-0.439159,0.534392,-0.815862,-0.143652,-7.967903,5.693412,0.338423,0.056404,0.081945,46.251562,80.669531,-11.475000
42.800223,0.522792,-0.501904,0.541153,-0.741108,-0.076614,-7.714118,6.272808,0.433139,-0.017028,0.062789,48.353906,81.018750,-10.800000
42.901362,0.497607,-0.592165,0.546052,-0.668924,-0.009577,-7.445967,6.866570,0.495929,-0.027670,0.030863,46.952344,82.066406,-8.437500
43.002834,0.556703,-0.680783,0.563821,-0.583575,-0.014365,-7.115567,7.115567,0.588516,0.013835,0.079817,45.025195,82.241016,-7.593750
43.105142,0.443403,-0.778739,0.551708,-0.491505,-0.004788,-6.564901,7.273585,0.588516,-0.035119,-0.045762,44.324414,83.637891,-6.243750
43.206693,0.545036,-0.869714,0.533205,-0.391511,-0.148441,-6.047753,7.891289,0.557654,0.007450,0.043633,41.346094,81.367969,-3.375000
43.308474,0.378121,-0.901779,0.492493,-0.344086,-0.124498,-5.573701,8.283938,0.391635,0.040441,0.068110,42.747656,81.018750,-2.362500
43.410064,0.504140,-0.931400,0.460217,-0.317719,0.038307,-5.286397,8.647856,0.258606,0.030863,0.067046,42.747656,81.018750,-2.362500
43.511560,0.142896,-0.978688,0.442170,-0.271991,-0.153229,-4.984728,8.695740,0.276698,0.100037,0.146863,38.718164,82.590234,-1.518750
43.612601,0.494420,-1.034178,0.439290,-0.234489,-0.248997,-4.797980,8.834604,0.119193,0.038312,0.041505,38.718164,82.590234,-1.518750
43.714392,0.547155,-1.047735,0.429762,-0.199973,-0.373495,-4.683058,8.911219,0.324588,0.063853,-0.030863,38.718164,83.288672,-1.181250
43.815711,0.350685,-1.107219,0.404628,-0.164911,-0.239420,-4.232949,9.064447,0.158569,0.026606,0.044697,35.739844,83.812500,-1.012500
43.917445,0.397867,-1.122522,0.368142,-0.151441,-0.129287,-3.983952,9.380482,0.148991,0.015963,0.042569,35.389453,83.463281,1.687500
44.018987,0.491729,-1.122585,0.346845,-0.134660,-0.225055,-3.639187,9.289502,0.218166,0.031927,0.094716,35.389453,83.463281,1.687500
44.121012,0.794989,-1.141979,0.330556,-0.109383,-0.426168,-3.476381,9.318233,0.296919,-0.079817,0.025541,33.987891,82.066406,0.675000
44.222410,0.333122,-1.178714,0.317957,-0.092196,-0.349553,-3.213019,9.160216,0.393763,-0.120257,0.013835,31.885547,83.463281,1.350000
44.324046,0.446590,-1.187780,0.270494,-0.099108,-0.052672,-2.738967,9.150639,0.323524,0.034055,0.097909,31.885547,84.161719,2.700000
44.424916,0.166378,-1.210223,0.252159,-0.062220,-0.248997,-2.528277,9.701305,0.142606,-0.029798,0.053211,30.659180,86.082422,1.518750
44.526126,0.276793,-1.197212,0.241296,-0.045865,-0.296881,-2.336741,9.619902,0.249028,0.017028,0.076624,31.535156,83.812500,4.050000
44.628217,0.405711,-1.232189,0.203382,-0.046905,-0.205901,-2.068590,9.883264,0.246900,-0.005321,0.025541,28.556836,83.288672,4.556250
44.730518,1.120188,-1.248786,0.181048,-0.031812,-0.287304,-2.020706,10.070012,0.204331,0.025541,0.029798,27.155273,83.987109,2.531250
44.832352,0.504672,-1.237492,0.187362,-0.039062,-0.229843,-1.867477,9.983821,0.060661,-0.038312,0.025541,28.381641,83.812500,3.712500
44.933348,0.331076,-1.244897,0.162038,-0.033915,-0.153229,-1.824382,10.299856,0.127707,-0.051083,-0.055340,27.505664,82.590234,4.218750
45.035236,0.526631,-1.246499,0.150178,-0.034820,-0.090980,-1.594538,10.093954,0.078753,-0.018092,0.035119,27.505664,82.590234,4.218750
45.136541,0.308873,-1.245083,0.151551,-0.029474,-0.215478,-1.556231,10.175357,0.070239,-0.025541,0.012771,27.505664,82.590234,4.218750
45.238641,0.523527,-1.260968,0.148689,-0.055067,-0.043096,-1.556231,10.012551,0.014899,-0.020220,0.000000,26.104102,82.590234,4.218750
45.340575,0.169718,-1.269630,0.138310,-0.017530,-0.186748,-1.403002,10.146627,0.008514,0.109615,0.028734,25.228125,82.415625,3.712500
45.442938,0.236470,-1.255419,0.140169,-0.017241,-0.158017,-1.417367,9.979033,0.046826,-0.038312,0.003193,26.980078,84.161719,5.400000
45.544551,0.290379,-1.262644,0.145225,-0.034960,-0.114922,-1.517924,10.007763,-0.008514,-0.070239,0.014899,26.279297,83.463281,4.387500
45.646604,0.824308,-1.264593,0.134419,-0.051356,-0.014365,-1.393425,10.146627,0.032991,-0.024477,-0.001064,26.279297,83.463281,4.387500
