Time, Altitude, Yaw, Pitch, Roll, Ax, Ay, Az, Pitch_rate, Roll_rate,Yaw_rate, Magx, Magy, Magz0.848100,0.068339,0.020817,-0.147078,-0.092916,-0.090980,-0.641646,10.122685,0.019156,0.017028,0.013835,47.653125,-5.238281,53.662500
0.948181,0.295659,-0.019074,-0.335258,-0.161787,-0.090980,-0.574608,10.127473,0.017028,0.003193,0.014899,51.157031,-4.889062,54.337500
1.048476,-0.223212,-0.073530,-0.525377,-0.227774,-0.129287,-0.612916,10.165780,0.017028,0.003193,0.013835,50.456250,-4.190625,54.000000
1.148743,-0.194543,-0.145804,-0.714772,-0.301388,-0.153229,-0.584185,10.165780,0.018092,0.008514,0.013835,50.105859,-3.492187,55.012500
1.249742,-0.133625,-0.248663,-0.881634,-0.407577,-0.282516,-0.368707,10.735600,0.017028,0.005321,0.014899,49.229883,-4.365234,54.506250
1.351552,-0.567923,-0.361807,-0.976804,-0.527599,-0.067038,-0.636858,10.218453,0.014899,0.001064,0.013835,48.879492,-4.714453,55.856250
1.452620,-0.530089,-0.457091,-1.015339,-0.635038,0.272939,-0.723049,10.295067,0.013835,-0.019156,0.015963,48.879492,-4.714453,55.856250
1.554363,-0.511256,-0.541874,-1.029718,-0.733679,-0.311246,-0.445322,10.170569,0.012771,0.038312,0.010642,48.879492,-4.714453,55.856250
1.655955,-0.382710,-0.617912,-1.029570,-0.822712,0.124498,-0.531513,10.012551,0.005321,-0.011706,0.008514,48.879492,-4.714453,55.856250
1.757754,-0.455563,-0.694542,-1.024121,-0.912144,-0.387861,-0.454898,10.146627,0.022349,0.029798,0.018092,49.405078,-3.142969,53.662500
1.859168,-0.192307,-0.756779,-1.005046,-0.990392,0.009577,-0.699107,10.208876,0.018092,0.027670,0.011706,48.178711,-4.365234,54.506250
1.960747,-0.528609,-0.814696,-0.982962,-1.064759,-0.114922,-0.636858,10.022128,0.019156,0.030863,0.020220,49.054688,-3.841406,53.325000
2.062259,-0.106750,-0.864394,-0.951956,-1.133718,-0.263362,-0.521936,10.204087,0.018092,0.036184,0.013835,48.704297,-3.841406,53.325000
2.163691,-0.415126,-0.907007,-0.914866,-1.197306,-0.023942,-0.656011,10.074801,0.014899,0.034055,0.012771,49.405078,-3.841406,54.000000
2.265382,-0.337491,-0.938579,-0.872333,-1.254571,-0.047884,-0.512359,10.199299,0.044697,0.048954,0.008514,49.054688,-4.539844,54.675000
2.367228,-0.510570,-0.966659,-0.823214,-1.309761,-0.407014,-0.502782,10.055647,0.015963,-0.004257,0.013835,49.755469,-2.444531,53.325000
2.468562,-0.306794,-0.991322,-0.763058,-1.365101,-0.263362,-0.612916,10.093954,-0.009578,-0.046826,0.012771,49.755469,-2.444531,53.325000
2.570190,-0.267766,-1.009096,-0.694006,-1.419602,-0.205901,-0.478840,10.333374,-0.001064,-0.022349,0.020220,49.755469,-4.190625,52.312500
2.671442,-0.617170,-1.017682,-0.619394,-1.471397,-0.220267,-0.507571,10.165780,0.001064,0.006385,0.013835,50.456250,-3.492187,54.337500
2.773480,-0.340472,-1.019354,-0.537577,-1.523964,-0.033519,-0.641646,10.194511,0.011706,0.022349,0.012771,49.405078,-4.539844,52.987500
2.874752,-0.580542,-1.012304,-0.448501,-1.579189,-0.220267,-0.603339,10.103531,0.011706,0.004257,0.010642,50.105859,-4.889062,53.662500
2.976245,-0.203465,-0.997244,-0.348331,-1.640926,-0.138864,-0.660800,10.132261,0.011706,0.004257,0.010642,49.930664,-4.016016,53.831250
3.078097,-0.368939,-0.972207,-0.238788,-1.711658,-0.143652,-0.617704,10.213664,0.017028,-0.003193,0.013835,50.631445,-4.016016,54.506250
3.180213,-0.510766,-0.933600,-0.121620,-1.794817,-0.158017,-0.622492,10.146627,0.012771,0.000000,0.010642,50.631445,-4.016016,54.506250
3.281742,-0.597231,-0.878546,-0.000599,-1.894978,-0.110133,-0.622492,10.117896,0.017028,0.002128,0.011706,49.405078,-2.444531,53.662500
3.382624,-0.344115,-0.803613,0.117162,-2.017765,-0.148441,-0.541090,10.261548,0.014899,0.007450,0.013835,50.456250,-4.190625,53.325000
3.484019,-0.370763,-0.703541,0.220571,-2.162023,-0.134075,-0.612916,10.180145,0.014899,0.003193,0.011706,50.456250,-4.190625,53.325000
3.585376,-0.246766,-0.583247,0.299403,-2.332119,-0.124498,-0.660800,10.204087,0.012771,0.001064,0.014899,50.806641,-2.444531,54.337500
3.687597,-0.615416,-0.443238,0.344021,-2.519136,-0.057461,-0.512359,10.213664,0.015963,0.004257,0.013835,50.105859,-3.841406,52.987500
3.788907,-0.303637,-0.298166,0.346470,-2.715241,-0.143652,-0.588974,10.103531,0.018092,0.010642,0.014899,50.631445,-3.317578,54.843750
3.890848,-0.416747,-0.159992,0.301346,-2.904183,-0.234632,-0.670376,10.141838,0.015963,0.007450,0.014899,49.755469,-3.142969,53.325000
3.992278,-0.477697,-0.039157,0.209667,-3.069373,-0.095768,-0.646434,10.160992,0.012771,0.010642,0.014899,50.456250,-4.539844,55.012500
4.093538,-0.544610,0.056657,0.055142,-3.139223,-0.100556,-0.622492,10.103531,0.013835,0.005321,0.013835,49.930664,-2.968359,53.831250
4.195044,-0.428492,0.074729,0.064183,-3.140059,-0.148441,-0.651223,10.122685,0.011706,0.005321,0.010642,49.930664,-2.968359,53.831250
4.295769,-0.562529,0.069174,0.069652,3.139428,-0.081403,-0.699107,10.070012,0.011706,0.011706,0.013835,51.332227,-2.968359,53.831250
4.397345,-0.591248,0.072497,0.062723,-3.140985,-0.110133,-0.636858,10.141838,0.013835,0.002128,0.014899,50.981836,-2.968359,52.818750
4.498356,-0.727101,0.072489,0.062519,3.139056,-0.119710,-0.641646,10.022128,0.017028,0.002128,0.012771,50.631445,-2.968359,53.493750
4.599783,-0.638739,0.075740,0.065937,-3.139070,-0.148441,-0.670376,10.184934,0.014899,0.003193,0.014899,50.105859,-4.539844,55.012500
4.701647,-0.357119,0.085381,0.061620,-3.133647,-0.158017,-0.646434,10.160992,0.017028,0.006385,0.011706,50.281055,-2.968359,54.168750
4.803004,-0.483212,0.069570,0.060675,-3.140490,-0.162806,-0.636858,10.127473,0.014899,0.006385,0.010642,50.281055,-2.968359,54.168750
4.904250,-0.332787,0.079137,0.061193,-3.137320,-0.162806,-0.608127,10.127473,0.011706,0.004257,0.015963,50.631445,-3.317578,53.156250
5.005831,-0.561572,0.088712,0.073319,-3.122114,-0.177171,-0.713472,10.180145,0.012771,0.005321,0.012771,48.704297,-4.190625,54.000000
5.107888,-0.750233,0.099465,0.065107,-3.139499,-0.186748,-0.617704,10.017340,0.011706,0.004257,0.010642,48.704297,-4.190625,54.000000
5.209332,-0.587473,0.096828,0.071668,3.139045,-0.105345,-0.718260,10.089166,0.012771,0.005321,0.013835,49.930664,-4.365234,53.493750
5.311084,-0.355804,0.075278,0.074674,-3.126840,-0.119710,-0.675165,10.098743,0.020220,0.009578,0.015963,49.054688,-3.492187,54.000000
5.412501,-0.182908,0.062768,0.070437,-3.119339,-0.162806,-0.703895,10.050859,0.015963,0.006385,0.013835,50.456250,-2.793750,53.662500
5.513670,-0.411033,0.062980,0.059872,-3.125114,-0.114922,-0.608127,10.247183,0.012771,0.006385,0.009578,50.105859,-2.793750,54.337500
5.615367,-0.375411,0.091044,0.074860,-3.129555,-0.143652,-0.766145,10.132261,0.013835,0.006385,0.012771,49.755469,-4.190625,53.662500
5.717321,-0.482628,0.070260,0.067372,-3.125787,-0.076614,-0.675165,10.137050,0.014899,0.007450,0.012771,49.755469,-3.492187,53.325000
5.819006,-0.410577,0.079274,0.056844,-3.140319,-0.134075,-0.660800,10.050859,0.010642,0.003193,0.013835,49.405078,-3.492187,54.000000
5.919986,-0.409119,0.074584,0.066253,-3.128620,-0.134075,-0.684742,10.232818,0.028734,0.014899,0.012771,49.405078,-3.492187,54.000000
6.022089,-0.419532,0.073676,0.053066,3.137856,-0.090980,-0.617704,10.381258,0.156441,0.208588,0.053211,50.456250,-3.492187,54.675000
6.123516,-0.476046,0.113954,0.057283,-3.073750,-0.665588,-0.584185,11.358093,0.393763,-0.029798,0.012771,48.879492,-1.222266,56.531250
6.224986,-0.340141,0.068349,-0.038358,-3.106747,0.033519,0.339977,10.630255,0.962059,-0.006385,0.068110,40.470117,1.571484,52.143750
6.326844,-0.393946,0.007640,-0.151320,-3.096708,-0.344765,1.551443,10.223241,1.002499,0.118129,0.018092,40.470117,1.571484,52.143750
6.428408,-0.348247,-0.035764,-0.286812,-3.100112,-0.483629,2.705448,9.538499,0.857765,0.036184,0.059597,33.111914,4.714453,49.443750
6.529787,-0.422008,-0.072982,-0.374807,-3.094669,-0.555455,3.538630,9.399636,0.767306,-0.013835,0.042569,22.249805,5.412891,46.406250
6.631304,-0.285824,-0.098994,-0.363340,-3.084200,-0.229843,4.501099,8.767566,0.594901,-0.047890,0.042569,10.686914,8.206641,42.018750
6.732951,-0.455486,-0.153321,-0.347395,-3.085533,-0.430956,5.118803,8.872911,0.391635,-0.026606,0.012771,10.686914,8.206641,42.018750
6.834622,-0.170573,-0.210503,-0.358955,-3.119273,-0.263362,5.449203,8.623914,0.370350,0.002128,0.017028,10.686914,8.206641,42.018750
6.936403,-0.203879,-0.275707,-0.295949,-3.104188,-0.416591,5.626374,8.451532,0.275634,0.003193,0.026606,5.080664,9.603516,39.318750
7.037759,-0.512352,-0.340510,-0.263165,-3.120057,-0.378284,5.951985,8.456320,0.358644,0.011706,0.032991,1.927148,8.905078,36.618750
7.139124,-0.298887,-0.420510,-0.278319,-3.136896,-0.162806,6.301539,8.106767,0.451231,0.028734,0.046826,1.576758,11.000391,35.268750
7.240570,-0.278364,-0.504108,-0.256604,3.107206,-0.268151,6.636727,7.460332,0.434203,-0.024477,0.017028,-1.051172,9.428906,33.750000
7.342690,-0.234650,-0.605897,-0.222034,3.081641,-0.248997,7.043741,7.240066,0.319267,-0.002128,0.023413,-4.029492,10.651172,31.893750
7.444184,-0.139380,-0.722287,-0.176557,3.056753,-0.445322,7.321469,6.952762,0.395891,-0.001064,0.031927,-7.358203,10.476562,30.375000
7.546053,-0.260091,-0.844441,-0.152521,3.004570,-0.349553,7.599196,6.722918,0.482094,-0.027670,0.009578,-7.358203,10.476562,30.375000
7.648128,-0.351203,-0.980067,-0.116830,2.943571,-0.282516,7.920019,6.253655,0.403341,0.001064,0.018092,-10.686914,10.301953,27.168750
7.750835,-0.404125,-1.131907,-0.061830,2.886267,-0.191536,8.298303,5.995081,0.320332,-0.025541,0.021284,-11.037305,11.000391,25.143750
7.852741,-0.490429,-1.288631,0.006384,2.823066,-0.205901,8.398859,5.712565,0.300111,-0.004257,0.020220,-13.840430,9.254297,23.456250
7.955223,0.043855,-1.441754,0.090325,2.765811,-0.124498,8.508993,5.209783,0.167083,-0.008514,0.023413,-13.139648,8.905078,21.768750
8.057110,-0.434637,-1.594355,0.182740,2.712291,-0.023942,8.671798,5.343858,0.235194,0.018092,0.039376,-14.891602,10.301953,20.081250
8.158758,-0.219558,-1.738169,0.278846,2.641889,-0.105345,8.805874,4.888960,0.246900,0.001064,0.025541,-16.993945,11.698828,20.756250
8.260143,-0.583981,-1.870522,0.384062,2.577048,-0.148441,9.050082,4.525041,0.070239,0.005321,0.008514,-16.468359,10.127344,18.562500
8.362126,-0.360032,-2.005036,0.495670,2.537156,-0.172383,8.848969,4.635174,-0.015963,0.001064,0.002128,-16.468359,10.127344,18.562500
8.463165,-0.544433,-2.142500,0.616901,2.516951,-0.172383,8.786720,4.807557,0.031927,0.001064,0.017028,-19.096289,8.905078,20.081250
8.564570,-0.223261,-2.276740,0.748535,2.509609,-0.143652,8.839393,4.788403,0.012771,-0.003193,0.014899,-19.096289,8.905078,20.081250
8.666237,-0.622331,-2.353667,0.889798,2.461814,-0.153229,8.853758,4.788403,0.028734,0.003193,0.018092,-16.468359,11.873437,19.575000
8.768843,-0.201711,-2.412881,0.945511,2.503645,-0.186748,8.848969,4.678270,0.018092,0.008514,0.011706,-16.468359,10.127344,19.575000
8.869675,-0.409249,-2.456216,0.964185,2.529641,-0.134075,8.825027,4.683058,0.040441,0.000000,0.014899,-18.045117,9.952734,19.406250
8.971496,-0.308364,-2.410038,0.952920,2.497433,-0.100556,8.949526,4.716577,0.041505,0.005321,0.013835,-17.519531,10.825781,19.912500
9.073285,-0.550900,-2.478024,0.970963,2.553250,-0.047884,8.805874,4.687847,0.011706,0.002128,0.014899,-17.869922,9.778125,19.575000
9.175190,-0.507179,-2.474721,0.948650,2.540029,-0.215478,8.839393,4.821922,0.010642,0.010642,0.010642,-16.818750,9.778125,19.575000
9.276618,0.023297,-2.417157,0.927863,2.495483,-0.210690,8.930372,4.831499,0.014899,0.009578,0.011706,-18.921094,10.127344,17.887500
9.378984,-0.452353,-2.448710,0.949292,2.527616,-0.119710,8.858546,4.711789,0.019156,0.006385,0.008514,-16.818750,10.127344,19.912500
9.480479,-0.416556,-2.451065,0.958164,2.552586,-0.081403,8.858546,4.888960,0.014899,0.013835,0.012771,-16.818750,10.127344,19.912500
9.582268,-0.259251,-2.471485,0.957706,2.555554,-0.143652,8.872911,4.845864,0.027670,-0.001064,0.012771,-18.045117,9.952734,19.068750
9.684412,-0.282310,-2.421378,0.944562,2.513883,-0.076614,8.872911,4.788403,0.031927,0.003193,0.015963,-18.220313,11.873437,18.562500
9.786264,-0.343156,-2.351414,0.913630,2.461020,-0.090980,8.954314,4.841076,0.030863,0.005321,0.010642,-18.220313,11.873437,18.562500
9.888565,-0.543020,-2.457008,0.961242,2.527525,-0.172383,8.954314,4.625598,0.014899,0.005321,0.017028,-18.395508,9.603516,19.068750
9.990248,-0.034649,-2.486060,0.961176,2.555177,-0.177171,8.825027,4.888960,0.017028,0.009578,0.015963,-18.045117,9.254297,19.068750
10.091717,-0.212911,-2.476055,0.972040,2.544663,-0.229843,8.896853,4.639963,0.022349,0.007450,0.017028,-17.694727,9.603516,20.081250
10.193699,-0.038283,-2.300250,0.911159,2.408566,-0.143652,8.868123,4.587290,0.023413,0.006385,0.012771,-18.395508,12.746484,18.731250
10.295539,0.042171,-2.460887,0.961863,2.545442,-0.081403,8.887277,4.740519,0.017028,0.000000,0.009578,-18.745898,9.952734,19.406250
10.397003,-0.097879,-2.470506,0.973107,2.552101,-0.057461,8.882488,4.721366,0.017028,0.002128,0.018092,-18.745898,9.952734,19.406250
10.498978,0.035484,-2.421238,0.968315,2.512353,-0.076614,8.872911,4.582502,0.015963,0.002128,0.011706,-17.694727,9.603516,18.056250
10.600963,0.046913,-2.438580,0.955404,2.525877,-0.105345,8.781932,4.778827,0.021284,0.005321,0.014899,-18.570703,10.476562,19.912500
10.702317,-0.197749,-2.394254,0.932901,2.498576,-0.067038,8.901642,4.759673,0.014899,0.009578,0.011706,-17.694727,11.000391,19.406250
10.804267,-0.037660,-2.397342,0.926074,2.489630,-0.081403,8.872911,4.812345,0.024477,0.005321,0.018092,-17.344336,11.698828,20.081250
10.905835,0.303195,-2.392819,0.947586,2.493565,-0.071826,8.872911,4.750096,0.020220,0.006385,0.013835,-17.869922,10.825781,18.900000
11.007677,0.048195,-2.401763,0.944540,2.478987,-0.248997,8.944737,4.635174,0.021284,-0.003193,0.012771,-16.993945,10.301953,18.393750
11.109126,-0.353985,-2.381618,0.950096,2.468358,-0.148441,8.939949,4.663905,0.015963,0.001064,0.012771,-16.993945,10.301953,18.393750
11.211031,-0.159742,-2.459167,0.949414,2.530011,-0.201113,8.877700,4.759673,0.012771,0.006385,0.009578,-17.519531,9.778125,18.562500
11.312549,-0.005191,-2.393344,0.943401,2.486854,-0.239420,8.805874,4.759673,-0.031927,0.003193,-0.004257,-17.344336,11.349609,18.393750
11.414189,-0.188839,-2.387969,0.929604,2.477370,-0.119710,8.825027,4.879383,-0.083009,-0.010642,0.000000,-18.570703,10.127344,18.900000
11.515608,0.007424,-2.463828,0.950433,2.539930,-0.090980,8.796297,4.769250,-0.163891,-0.008514,-0.007450,-18.570703,10.127344,18.900000
11.617346,-0.272789,-2.399572,0.916975,2.502019,-0.105345,8.724471,4.951209,-0.278827,-0.028734,-0.003193,-17.169141,11.524219,19.912500
11.718918,-0.247018,-2.516434,0.896754,2.620970,-0.047884,8.561665,5.420473,-0.418240,0.005321,0.014899,-16.293164,10.301953,20.756250
11.820471,-0.250766,-2.590922,0.867514,2.714967,0.038307,8.145074,5.851429,-0.542754,-0.018092,0.013835,-15.241992,9.952734,23.118750
11.921662,-0.103347,-2.688810,0.798172,2.790401,-0.114922,7.723695,6.679823,-0.494864,-0.023413,0.031927,-12.263672,9.079687,25.987500
12.022859,-0.081144,-2.639130,0.737322,2.791605,0.067038,7.383718,7.082049,-0.425690,0.042569,0.027670,-9.460547,10.127344,27.337500
12.123713,0.173544,-2.679378,0.715869,2.811617,-0.148441,7.101202,7.144298,-0.380992,0.021284,0.014899,-7.708594,9.778125,31.050000
12.226336,-0.186573,-2.708271,0.665959,2.848506,-0.038307,6.708553,7.718906,-0.383121,0.009578,0.031927,-4.905469,9.079687,32.062500
12.327318,-0.151466,-2.663508,0.614129,2.826726,-0.201113,6.507440,7.896077,-0.355451,0.022349,0.005321,-1.401563,9.428906,33.075000
12.429278,-0.192736,-2.667311,0.590449,2.856904,-0.076614,6.057330,8.125920,-0.385249,0.014899,0.009578,1.051172,8.730469,36.112500
12.530976,-0.325521,-2.633588,0.518240,2.844568,-0.114922,5.655104,8.489839,-0.385249,0.030863,-0.007450,3.854297,10.127344,37.125000
12.632994,-0.300218,-2.601357,0.467733,2.873933,-0.181959,5.233725,8.690952,-0.438460,0.012771,-0.007450,5.606250,7.682812,37.800000
12.735318,-0.168982,-2.615541,0.409636,2.855788,-0.411803,4.726154,8.877700,-0.479965,0.005321,-0.007450,8.934961,8.905078,41.343750
12.838079,-0.230978,-2.561495,0.345331,2.867648,-0.268151,4.050989,9.351752,-0.506571,0.037248,-0.015963,8.934961,8.905078,41.343750
12.940261,-0.381280,-2.511196,0.283438,2.877001,-0.483629,3.849876,9.605537,-0.387378,-0.056404,-0.007450,8.934961,8.905078,41.343750
13.042013,-0.430369,-2.471515,0.242609,2.869582,-0.330400,3.289633,9.667786,-0.482094,0.025541,0.018092,14.190820,7.508203,45.056250
13.143936,-0.340406,-2.439484,0.247981,2.881767,-0.268151,2.734178,9.964667,-0.442717,0.027670,-0.011706,19.096289,5.063672,46.406250
13.246305,-0.113872,-2.395866,0.258090,2.858941,-0.493206,2.379836,9.921572,-0.305432,0.003193,0.002128,23.300977,5.063672,47.418750
13.347361,0.085201,-2.349358,0.277504,2.836570,-0.272939,1.991976,9.806650,-0.268185,-0.007450,0.007450,28.206445,6.809766,48.431250
13.449652,-0.321628,-2.312432,0.269547,2.855618,-0.368707,1.752556,10.070012,-0.245836,0.017028,0.027670,29.432813,3.492187,50.962500
13.551425,-0.421865,-2.271695,0.273468,2.846217,-0.459687,1.331176,9.969456,-0.509763,0.051083,-0.009578,33.462305,4.714453,51.468750
13.652900,-0.389390,-2.238498,0.256583,2.871683,-0.574608,0.445322,10.658986,-0.348001,0.056404,-0.020220,34.863867,2.619141,53.493750
13.754793,-0.291494,-2.197209,0.271619,2.862209,-0.392649,0.359130,10.194511,-0.083009,0.013835,0.004257,39.944531,1.746094,54.337500
13.856947,0.011319,-2.153186,0.282271,2.847556,-0.397437,0.186748,10.170569,-0.146863,0.010642,0.013835,42.572461,1.222266,54.843750
13.958526,-0.266366,-2.109459,0.283141,2.838701,-0.488417,0.196325,10.194511,-0.120257,0.019156,0.000000,45.375586,1.222266,55.181250
14.060929,-0.527866,-2.066553,0.282210,2.833465,-0.397437,-0.033519,10.433931,-0.157505,0.021284,0.000000,45.375586,-1.571484,54.843750
14.162578,-0.143048,-2.027405,0.273518,2.843292,-1.417367,-4.395754,20.302830,-0.227744,-0.035119,-0.002128,47.828320,0.523828,56.868750
14.264031,-0.179261,-1.981464,0.269626,2.824995,-0.665588,-0.234632,10.304644,0.003193,-0.023413,0.009578,47.302734,-1.396875,56.025000
14.365691,-0.267247,-1.934007,0.267468,2.817259,-0.541090,-0.239420,10.218453,0.010642,0.005321,0.010642,47.302734,-1.396875,56.025000
14.468051,-0.208253,-1.885358,0.256937,2.808899,-0.474052,-0.239420,10.204087,0.008514,0.004257,0.011706,48.003516,-0.349219,56.362500
14.569574,-0.584352,-1.835179,0.244236,2.803863,-0.464475,-0.282516,10.041282,-0.009578,-0.020220,0.011706,48.003516,-0.349219,56.362500
14.670846,-0.149514,-1.783802,0.229775,2.804820,-0.512359,-0.306458,10.228029,0.003193,0.010642,0.006385,47.127539,-0.523828,56.531250
14.772724,-0.236128,-1.728587,0.218528,2.803026,-0.459687,-0.287304,10.261548,0.004257,-0.014899,0.011706,48.003516,-1.047656,57.037500
14.874240,-0.294292,-1.668699,0.207132,2.798035,-0.469264,-0.397437,10.031705,0.010642,0.007450,0.011706,48.353906,-1.047656,55.687500
14.975659,-0.260744,-1.605941,0.199957,2.793322,-0.320823,-0.368707,10.170569,0.005321,-0.017028,0.008514,48.353906,-2.095312,54.675000
15.078021,-0.450981,-1.540184,0.182676,2.790567,-0.483629,-0.339977,10.165780,0.008514,0.002128,0.008514,49.229883,-0.523828,55.181250
15.179934,0.067475,-1.470938,0.164210,2.793890,-0.397437,-0.421379,10.122685,0.012771,-0.002128,0.010642,48.003516,-0.698437,55.012500
15.281425,-0.492984,-1.397849,0.150560,2.799404,-0.450110,-0.263362,10.204087,0.011706,-0.015963,0.010642,47.302734,-2.444531,54.675000
15.383482,-0.564121,-1.319415,0.135641,2.805363,-0.277727,-0.378284,10.170569,0.014899,0.006385,0.012771,47.302734,-2.444531,54.675000
15.485370,-0.395393,-1.234794,0.119270,2.811630,-0.225055,-0.445322,10.170569,0.006385,-0.002128,0.012771,49.054688,-1.047656,54.000000
15.587042,-0.177265,-1.143523,0.098735,2.822070,-0.268151,-0.416591,10.137050,0.011706,0.014899,0.014899,48.178711,-0.873047,54.168750
15.689051,-0.219155,-1.044634,0.079879,2.838749,-0.292093,-0.383072,10.132261,0.019156,0.009578,0.015963,49.054688,-1.396875,54.337500
15.791136,-0.269762,-0.937512,0.062598,2.858300,-0.306458,-0.387861,10.319009,0.010642,0.003193,0.011706,48.353906,-1.396875,54.000000
15.892210,-0.164839,-0.820910,0.047585,2.886114,-0.311246,-0.344765,10.113108,0.008514,0.007450,0.009578,47.828320,-2.269922,55.181250
15.994628,-0.192966,-0.694592,0.035309,2.922044,-0.694318,-0.421379,9.926360,0.015963,0.011706,0.012771,49.054688,-1.396875,55.350000
16.095924,-0.179214,-0.553146,0.030664,2.962457,-0.378284,-0.407014,10.141838,0.001064,-0.005321,0.008514,49.054688,-1.396875,55.350000
16.197154,-0.170722,-0.397607,0.027668,3.012641,-0.450110,-0.402226,10.060435,0.008514,0.002128,0.009578,49.054688,-1.396875,55.350000
16.298935,-0.317259,-0.224565,0.031355,3.059083,-0.272939,-0.368707,10.271125,0.009578,-0.007450,0.013835,48.529102,-2.968359,55.856250
16.400389,-0.418972,-0.049612,0.038396,3.129400,-0.373495,-0.450110,10.156203,0.008514,0.002128,0.009578,47.653125,-1.746094,53.662500
16.502259,-0.262331,0.076026,0.051395,-3.114470,-0.296881,-0.502782,10.093954,0.011706,0.005321,0.010642,49.580273,-2.968359,54.843750
16.603533,-0.178328,0.055116,0.034573,-3.106298,-0.268151,-0.392649,10.194511,0.010642,0.009578,0.011706,49.405078,-1.396875,56.025000
16.704964,-0.347256,0.074508,0.038276,-3.111325,-0.311246,-0.445322,10.146627,0.009578,0.008514,0.012771,48.529102,-1.920703,54.506250
16.806921,-0.384821,0.123088,0.048828,-3.104619,-0.330400,-0.378284,10.314221,0.006385,-0.001064,0.011706,49.755469,-4.889062,56.700000
16.908291,-0.410161,0.056373,0.050460,-3.100364,-0.383072,-0.478840,10.189722,0.012771,0.004257,0.011706,49.580273,-0.873047,55.518750
17.010291,-0.188165,0.048150,0.055273,-3.119521,-0.220267,-0.569820,10.074801,0.010642,-0.001064,0.009578,49.405078,-1.047656,54.675000
17.111717,-0.682307,0.070328,0.034451,-3.126146,-0.201113,-0.344765,10.299856,0.014899,-0.005321,0.012771,50.456250,-2.095312,54.337500
17.213320,-0.228437,0.073541,0.039284,-3.122042,-0.306458,-0.392649,10.146627,0.013835,0.000000,0.011706,49.229883,-1.920703,55.181250
17.314544,-0.458295,0.069462,0.043856,-3.124414,-0.296881,-0.421379,10.141838,0.015963,0.006385,0.012771,50.105859,-1.746094,56.025000
17.415960,-0.204224,0.068886,0.048574,-3.119275,-0.258574,-0.464475,10.113108,0.015963,-0.004257,0.014899,48.178711,-1.571484,55.518750
17.516848,-0.266073,0.056123,0.057597,-3.103364,-0.296881,-0.512359,10.194511,0.014899,0.008514,0.014899,48.178711,-1.571484,55.518750
17.618478,-0.200293,0.047693,0.045324,-3.104301,-0.306458,-0.445322,10.228029,0.011706,0.007450,0.011706,50.456250,-1.047656,54.675000
17.719708,-0.345483,0.056043,0.030280,-3.104815,-0.311246,-0.421379,10.175357,0.013835,0.006385,0.012771,50.631445,-1.920703,55.518750
17.820430,-0.097782,0.067592,0.045854,-3.101167,-0.320823,-0.430956,10.098743,0.015963,0.004257,0.011706,50.631445,-1.920703,55.518750
17.921610,-0.428280,0.056039,0.045809,-3.109833,-0.205901,-0.459687,10.012551,0.011706,0.008514,0.012771,50.631445,-1.920703,55.518750
18.023343,-0.313625,0.057389,0.050261,-3.109539,-0.306458,-0.497994,10.070012,0.013835,0.004257,0.012771,49.229883,-1.571484,54.843750
18.124298,-0.513341,0.064524,0.039259,-3.123306,-0.311246,-0.483629,10.213664,0.019156,-0.002128,0.014899,50.806641,-1.746094,55.012500
18.225974,-0.597756,0.091713,0.042750,-3.108263,-0.296881,-0.407014,10.055647,0.021284,0.004257,0.020220,48.529102,-3.317578,54.506250
18.328077,-0.068156,0.054999,0.045081,-3.118229,-0.282516,-0.426168,10.180145,0.018092,0.002128,0.009578,48.529102,-0.873047,55.518750
18.429414,-0.408886,0.082720,0.052349,-3.101409,-0.450110,-0.507571,10.194511,0.018092,0.008514,0.012771,47.828320,-2.619141,54.843750
18.530468,-0.590006,0.057207,0.049368,-3.102636,-0.387861,-0.478840,10.108319,-0.001064,0.002128,0.013835,49.755469,-1.047656,56.025000
18.632008,-0.560621,0.094391,0.055598,-3.126858,-0.330400,-0.502782,10.070012,0.001064,-0.008514,0.009578,49.229883,-2.968359,55.181250
18.733379,-0.444608,0.078170,0.050302,-3.124583,-0.268151,-0.488417,10.141838,0.010642,0.011706,0.011706,49.755469,-2.444531,55.350000
18.834706,-0.244162,0.083578,0.048713,-3.122093,-0.277727,-0.478840,10.137050,0.010642,0.008514,0.012771,49.755469,-2.444531,55.350000
18.936673,-0.411336,0.083941,0.050503,-3.120776,-0.239420,-0.478840,10.165780,0.012771,-0.015963,0.007450,49.580273,-2.619141,54.168750
19.037892,-0.288803,0.077362,0.041217,-3.119174,-0.339977,-0.411803,10.156203,0.013835,0.004257,0.011706,49.229883,-2.269922,54.506250
19.138791,-0.417155,0.077967,0.050275,-3.125384,-0.210690,-0.521936,10.060435,0.013835,0.005321,0.012771,49.405078,-2.793750,54.000000
19.240346,-0.212735,0.080766,0.046860,-3.126792,-0.229843,-0.459687,10.156203,0.010642,0.001064,0.011706,50.105859,-2.444531,56.025000
19.341640,-0.485386,0.067320,0.050188,-3.107549,-0.268151,-0.502782,10.218453,0.020220,0.012771,0.019156,48.178711,-2.269922,55.181250
19.443265,-0.523038,0.064768,0.067384,-3.110932,-0.545878,-0.804452,10.093954,0.017028,0.071303,0.014899,48.178711,-2.269922,55.181250
19.544609,-0.524797,0.069912,0.040034,-3.107385,-0.478840,-0.363919,10.218453,0.054275,0.125578,0.019156,48.003516,-1.746094,55.350000
19.646210,-0.328629,0.131279,0.046116,-3.084098,-0.641646,-0.402226,10.122685,0.026606,0.023413,0.017028,49.054688,-3.142969,54.675000
19.747783,-0.351477,0.090159,0.048491,-3.124970,-0.349553,-0.488417,10.352528,0.008514,-0.021284,0.004257,49.054688,-3.142969,54.675000
19.849465,-0.478180,0.087310,0.034196,-3.108800,-0.445322,-0.306458,10.141838,0.005321,0.007450,0.009578,49.229883,-2.269922,54.843750
19.951073,-0.387882,0.073778,0.046404,-3.113072,-0.383072,-0.450110,10.213664,0.003193,-0.020220,0.008514,49.229883,-1.571484,54.843750
20.052211,-0.544653,0.081149,0.045531,-3.122461,-0.339977,-0.459687,10.295067,0.018092,0.007450,0.011706,48.879492,-2.269922,56.531250
20.153866,-0.598377,0.068849,0.039517,-3.136029,-0.067038,-0.402226,10.539276,0.071303,0.152184,0.044697,48.003516,-2.095312,54.675000
20.255568,-0.892350,0.092823,0.059042,-3.042952,-0.962469,-0.588974,10.299856,0.089395,0.258606,0.134092,49.580273,0.873047,56.193750
20.357206,-0.262291,0.049508,-0.007931,-2.991116,-1.637634,0.086191,10.635044,0.691746,0.157505,0.127707,48.178711,5.762109,58.218750
20.458442,-0.345941,0.030176,-0.120129,-3.034207,-1.043872,1.163582,10.089166,1.218537,0.232001,-0.034055,48.178711,5.762109,58.218750
20.559880,-0.068765,0.048058,-0.186810,-2.879704,-2.308010,1.790863,8.614338,1.074866,2.409404,0.173469,27.505664,16.238672,51.468750
20.661596,-0.559731,0.100074,-0.273856,-2.549865,-4.247314,3.447650,6.919243,0.216038,1.928374,-1.086573,19.621875,42.604687,50.625000
20.762839,-0.298508,-0.101221,-0.059598,-2.818882,-1.503559,0.287304,2.030283,-4.825193,-5.693600,-1.480336,38.192578,20.953125,60.075000
20.864681,-0.546554,-0.140350,-0.027273,-3.057678,-1.120486,-0.320823,5.339070,0.079817,-0.287341,0.085138,38.192578,20.953125,60.075000
20.966045,-0.505504,-0.028589,0.046290,3.131307,-0.938527,-0.507571,10.448296,-0.084074,-0.056404,0.073431,45.025195,-5.762109,55.181250
21.067640,-0.387767,0.063499,0.049706,3.129844,-0.225055,-0.497994,10.381258,0.050019,0.006385,0.012771,45.025195,-5.762109,55.181250
21.169084,-0.355343,0.127993,0.012539,3.111239,-0.287304,-0.277727,17.535133,-0.276698,-0.830095,0.327781,44.499609,-7.333594,54.337500
21.270649,-0.487278,0.143643,0.081656,3.138994,0.363919,-0.244209,10.788273,0.134092,0.020220,0.432075,46.426758,-5.762109,54.168750
21.372438,-0.602564,0.158351,0.074653,-3.122119,-0.565032,-0.205901,12.895170,0.015963,-0.095780,0.098973,46.426758,-5.762109,54.168750
21.474092,-0.505940,0.115866,0.052940,-3.087971,-1.666364,-0.450110,11.066000,0.059597,-0.125578,-0.017028,49.405078,-3.142969,52.987500
21.575822,-0.385511,0.117258,0.044972,-3.072332,-1.307234,-0.478840,13.196840,0.234129,-0.470387,-0.148991,48.704297,-3.142969,54.337500
21.677128,-0.568225,0.119108,0.053578,-3.075357,-0.703895,-0.948104,12.392388,0.960995,0.081945,0.092588,47.127539,-1.571484,53.156250
21.778361,-0.761725,0.075345,-0.086042,-3.051687,-0.833182,0.770933,9.097966,1.823016,0.269249,0.142606,36.615820,1.571484,50.793750
21.880183,-0.481078,0.132799,-0.367592,-2.948330,-0.689530,3.883395,8.523358,1.489914,0.121322,0.276698,21.023438,10.825781,45.900000
21.981642,-0.620876,0.139475,-0.424624,-2.920540,-0.876278,4.668693,8.173804,0.465066,0.130900,0.164955,11.738086,13.794141,42.356250
22.083253,-0.560411,0.071940,-0.298909,-2.915018,-0.885855,4.984728,8.983045,0.094716,0.022349,0.104294,10.336523,13.794141,41.343750
22.184585,-0.296200,0.023469,-0.311548,-2.959221,-0.225055,5.133168,8.892065,0.174533,-0.032991,0.074496,10.336523,13.794141,41.343750
22.285900,-0.673968,-0.028946,-0.334390,-2.962978,-0.569820,5.228936,8.628703,0.195817,-0.035119,-0.007450,10.336523,13.794141,41.343750
22.387237,-0.393657,-0.088927,-0.336005,-2.964820,-0.909797,5.430049,8.245631,0.074496,0.002128,0.035119,8.759766,14.317969,42.525000
22.488781,-0.393696,-0.142657,-0.310481,-3.009005,-0.713472,5.329493,8.614338,-0.068110,-0.103230,0.047890,7.007812,12.222656,39.825000
22.590276,-0.637063,-0.208362,-0.317364,-3.035403,-0.555455,5.439626,8.652645,0.003193,-0.065982,0.024477,7.358203,12.921094,39.150000
22.691867,-0.622439,-0.283174,-0.307369,-3.070720,-0.641646,5.363012,8.619126,0.002128,-0.040441,-0.001064,6.657422,12.222656,40.162500
22.793604,-0.417573,-0.337941,-0.316636,-3.127243,-0.387861,5.391742,8.489839,0.006385,0.005321,0.031927,7.358203,10.127344,40.837500
22.895349,-0.149510,-0.417871,-0.327883,-3.133452,-0.512359,5.319916,8.475474,-0.023413,0.004257,0.040441,7.708594,11.873437,39.487500
22.997052,-0.564754,-0.515974,-0.304672,3.114843,-0.454898,5.377377,8.652645,0.032991,0.009578,0.015963,6.832617,12.048047,40.331250
23.098744,-0.596828,-0.604756,-0.319834,3.052391,-0.363919,5.463568,8.513781,0.012771,0.004257,0.005321,8.584570,11.000391,40.331250
23.200513,-0.322876,-0.723135,-0.304483,3.012895,-0.536301,5.382165,8.595184,0.017028,0.007450,0.015963,8.584570,11.000391,40.331250
23.302267,-0.385609,-0.853500,-0.259196,2.976376,-0.478840,5.386954,8.657433,0.017028,0.006385,0.008514,7.358203,11.524219,41.512500
23.403048,-0.425317,-1.002187,-0.229601,2.929559,-0.560243,5.353435,8.643068,0.015963,0.003193,0.009578,7.358203,12.222656,40.162500
23.505101,-0.634874,-1.168591,-0.183214,2.868106,-0.569820,5.324704,8.762778,0.028734,0.010642,0.009578,8.409375,11.873437,41.175000
23.606842,-0.466039,-1.340040,-0.110586,2.813219,-0.526724,5.468357,8.576030,0.003193,-0.004257,-0.012771,7.533398,12.048047,39.656250
23.708344,-0.846740,-1.516856,-0.048797,2.768584,-0.627281,5.319916,8.762778,0.036184,0.017028,0.027670,9.635742,12.397266,39.318750
23.809872,-0.416932,-1.680630,0.036434,2.718994,-0.536301,5.372589,8.571242,0.015963,0.005321,0.013835,9.635742,12.397266,39.318750
23.911372,-0.895914,-1.834399,0.138165,2.729886,-0.507571,5.430049,8.547300,0.026606,0.002128,0.015963,7.708594,11.175000,41.512500
24.014085,-0.426482,-2.005095,0.220448,2.736617,-0.469264,5.415684,8.633491,0.011706,0.004257,0.013835,5.255859,13.270312,40.162500
24.116203,-0.576325,-2.165081,0.296011,2.719919,-0.512359,5.410896,8.676587,0.003193,0.006385,0.015963,7.533398,12.746484,39.993750
24.217377,-0.375683,-2.329168,0.369344,2.744714,-0.545878,5.406107,8.628703,0.012771,0.006385,0.021284,5.956641,13.270312,40.500000
24.318116,-0.809771,-2.434963,0.427198,2.767034,-0.368707,5.497087,8.748413,0.011706,0.008514,0.019156,5.956641,13.270312,40.500000
24.420317,-0.503380,-2.463900,0.431728,2.746349,-0.531513,5.463568,8.571242,0.010642,0.004257,0.018092,5.956641,13.270312,40.500000
24.522124,-0.641562,-2.482690,0.417543,2.761202,-0.593762,5.305551,8.595184,0.007450,0.004257,0.007450,8.058984,11.175000,39.150000
24.624305,-0.664767,-2.479650,0.431734,2.756686,-0.526724,5.410896,8.566454,0.015963,0.002128,0.009578,7.533398,12.048047,40.331250
24.725881,-0.375995,-2.485340,0.421364,2.758311,-0.612916,5.372589,8.662222,0.009578,0.005321,0.013835,6.832617,11.698828,38.643750
24.827807,-0.402329,-2.522585,0.438557,2.788341,-0.608127,5.372589,8.552088,0.012771,0.005321,0.008514,7.183008,11.000391,41.343750
24.929143,-0.568713,-2.528189,0.447322,2.776651,-0.497994,5.367800,8.556877,0.017028,0.003193,0.015963,7.183008,11.349609,39.656250
25.030524,-0.921696,-2.516387,0.433162,2.771495,-0.593762,5.329493,8.595184,0.007450,0.002128,0.009578,6.832617,11.698828,40.331250
25.131842,-0.681970,-2.514827,0.440686,2.778213,-0.483629,5.358223,8.676587,0.024477,0.015963,0.015963,6.832617,11.698828,39.993750
25.233139,-0.622992,-2.504772,0.430980,2.771352,-0.598550,5.319916,8.638280,0.004257,0.004257,0.011706,7.708594,12.571875,41.175000
25.334367,-0.728602,-2.483069,0.428407,2.765548,-0.612916,5.396531,8.595184,0.010642,0.007450,0.001064,7.708594,12.571875,41.175000
25.436022,-0.467498,-2.468818,0.432700,2.766062,-0.459687,5.430049,8.489839,0.018092,0.006385,0.013835,7.708594,12.571875,41.175000
25.537152,-0.236853,-2.500019,0.421491,2.762231,-0.569820,5.386954,8.738836,0.009578,0.004257,0.012771,6.482227,12.048047,39.993750
25.639235,-0.556304,-2.547477,0.436457,2.786761,-0.536301,5.305551,8.609549,-0.007450,-0.012771,0.009578,7.183008,11.000391,41.343750
25.740242,-0.411776,-2.501920,0.413368,2.769357,-0.512359,5.185841,8.700529,-0.009578,-0.012771,0.008514,8.584570,11.349609,39.318750
25.842311,-0.570654,-2.473953,0.430044,2.763018,-0.464475,5.348647,8.552088,0.043633,0.026606,0.001064,8.058984,11.524219,40.500000
25.944435,-0.424539,-2.512604,0.428722,2.791588,-0.550666,5.315128,8.647856,0.007450,-0.014899,-0.026606,7.708594,11.175000,40.500000
26.045963,-0.668897,-2.511969,0.424183,2.777326,-0.646434,5.233725,8.580819,-0.007450,0.004257,0.007450,7.358203,11.873437,40.837500
26.147452,-0.285016,-2.491559,0.440393,2.771293,-0.435745,5.401319,8.461109,0.031927,0.003193,0.013835,7.358203,11.873437,40.837500
26.248603,-0.005472,-2.504752,0.408993,2.783163,-0.569820,5.219360,8.839393,-0.008514,0.009578,0.026606,7.883789,11.698828,39.318750
26.350116,-0.628304,-2.474731,0.437956,2.756068,-0.632069,5.415684,8.485051,-0.052147,-0.014899,-0.012771,7.708594,12.571875,39.825000
26.451728,-0.566152,-2.437048,0.434438,2.738231,-0.464475,5.291186,7.910442,-0.376735,-0.019156,-0.052147,7.708594,12.571875,39.825000
26.553340,-0.504534,-2.513980,0.334578,2.822218,-0.656011,3.940856,8.595184,-1.419675,-0.005321,-0.196881,8.759766,10.825781,40.162500
26.655016,-0.262079,-2.510366,0.214434,2.881164,-0.330400,3.007117,10.012551,-1.803860,0.014899,-0.068110,17.344336,9.952734,43.706250
26.755811,-0.444871,-2.484400,0.183367,2.946149,-0.555455,-0.023942,11.300632,-1.102536,0.072367,-0.002128,31.710352,4.714453,50.456250
26.857458,-0.579265,-2.455186,0.205623,2.951878,-13.488932,-13.345280,40.562565,-0.446974,-0.045762,-0.069175,31.710352,4.714453,50.456250
26.959184,-0.715912,-2.412681,0.281141,2.930981,-0.071826,-0.196325,10.319009,0.003193,-0.006385,0.017028,49.229883,0.523828,55.856250
27.060544,-0.483741,-2.383795,0.344635,2.926179,-0.277727,-0.186748,10.242395,-0.032991,-0.349066,-0.010642,48.003516,-0.698437,54.675000
27.162055,-0.243043,-2.345582,0.376915,2.909591,-0.244209,-0.407014,10.223241,0.003193,-0.039376,0.007450,50.631445,-2.619141,54.168750
27.263783,-0.421278,-2.309374,0.390716,2.894268,-0.110133,-0.411803,10.031705,0.005321,0.006385,0.010642,50.631445,-3.317578,54.506250
27.365385,-0.346770,-2.274302,0.391825,2.880483,-0.138864,-0.407014,10.113108,0.007450,0.005321,0.012771,51.682617,-1.920703,54.843750
27.467064,-0.468011,-2.238897,0.388862,2.869749,-0.158017,-0.478840,10.170569,0.009578,0.011706,0.017028,50.281055,-3.666797,53.156250
27.568233,-0.321763,-2.204022,0.381949,2.861204,-0.287304,-0.493206,10.084377,0.007450,0.010642,0.017028,50.806641,-2.444531,55.350000
27.669962,-0.519449,-2.167059,0.373584,2.850585,0.148441,0.057461,9.093178,0.013835,0.010642,0.012771,51.682617,-2.269922,53.831250
27.771447,-0.740644,-2.127006,0.368602,2.839089,-0.062249,-0.311246,10.093954,0.019156,0.000000,0.013835,51.332227,-1.920703,54.843750
27.872814,-0.511131,-2.088058,0.354644,2.831100,-0.205901,-0.569820,10.371682,0.010642,0.003193,0.015963,51.332227,-1.920703,54.843750
27.974804,-0.620685,-2.045962,0.341984,2.821484,-0.464475,-0.306458,10.539276,0.013835,0.029798,0.019156,50.806641,-1.396875,53.325000
28.076360,-0.560121,-2.004225,0.330269,2.819734,-0.392649,-0.282516,10.093954,0.014899,-0.004257,0.014899,50.631445,-2.968359,54.843750
28.178139,-0.804573,-1.957463,0.321936,2.809652,-0.177171,-0.244209,10.079589,0.018092,-0.002128,0.004257,51.157031,-2.444531,53.662500
28.280022,-0.847535,-1.908341,0.310735,2.799961,-0.095768,-0.368707,10.213664,0.018092,-0.029798,0.007450,51.857813,-1.746094,54.000000
28.381026,-0.786852,-1.857621,0.297440,2.792566,-0.009577,-0.445322,10.295067,0.018092,-0.017028,0.007450,51.857813,-1.746094,54.000000
28.482504,-0.794219,-1.804446,0.286975,2.787332,-0.095768,-0.430956,10.299856,0.010642,0.003193,0.012771,52.383398,-3.317578,54.506250
28.584131,-0.350582,-1.748189,0.275537,2.779546,-0.081403,-0.507571,10.079589,0.006385,0.006385,0.013835,54.135352,-2.619141,54.843750
28.685867,-0.536788,-1.690491,0.260127,2.776126,-0.201113,-0.474052,10.266337,0.009578,0.017028,0.017028,52.208203,-3.142969,54.675000
28.787742,-0.727062,-1.629117,0.243214,2.772026,-0.311246,-0.541090,10.132261,0.008514,0.030863,0.014899,51.507422,-1.746094,51.975000
28.889107,-0.619174,-1.565776,0.222433,2.772498,-0.392649,-0.627281,10.093954,0.007450,0.018092,0.014899,50.806641,-2.095312,54.000000
28.990424,-0.977584,-1.499253,0.200437,2.775922,-0.320823,-0.469264,10.108319,0.018092,0.003193,0.012771,51.157031,-1.396875,54.337500
29.091795,-0.781132,-1.427567,0.178968,2.779716,-0.205901,-0.407014,10.256760,0.018092,-0.005321,0.007450,51.157031,-1.396875,54.337500
