Time, Altitude, Yaw, Pitch, Roll, Ax, Ay, Az, Pitch_rate, Roll_rate,Yaw_rate, Magx, Magy, Magz0.890427,-0.403409,0.012322,-0.128928,-0.105472,0.172383,-0.474052,10.180145,0.011706,0.005321,0.013835,33.287109,-4.889062,59.400000
0.990639,-0.184802,-0.027566,-0.315569,-0.171010,0.177171,-0.416591,10.160992,0.013835,0.006385,0.012771,32.761523,-5.762109,58.893750
1.090994,-0.524915,-0.078000,-0.504872,-0.230643,0.105345,-0.426168,10.074801,0.012771,0.005321,0.017028,34.163086,-6.111328,60.243750
1.192324,-0.258055,-0.148062,-0.671061,-0.307995,0.095768,-0.593762,10.184934,0.012771,0.004257,0.012771,32.761523,-5.063672,59.568750
1.293457,-0.342859,-0.219110,-0.751913,-0.392930,0.129287,-0.469264,10.180145,0.015963,0.004257,0.012771,32.411133,-6.809766,59.231250
1.396164,-0.443167,-0.282105,-0.784597,-0.472269,0.138864,-0.430956,10.237606,0.015963,0.002128,0.013835,33.812695,-5.412891,59.906250
1.497685,-0.425425,-0.344382,-0.794542,-0.545663,0.162806,-0.416591,10.089166,0.013835,0.004257,0.013835,33.812695,-5.762109,61.593750
1.598908,-0.591622,-0.401480,-0.787013,-0.616686,0.177171,-0.430956,10.199299,0.012771,0.003193,0.015963,33.812695,-5.762109,61.593750
1.700182,-1.064989,-0.456135,-0.768042,-0.687090,0.205901,-0.344765,10.103531,0.012771,-0.002128,0.014899,33.812695,-5.762109,61.593750
1.801493,-0.387818,-0.512038,-0.742584,-0.759856,0.057461,-0.292093,10.103531,0.009578,0.011706,0.009578,34.688672,-5.587500,60.412500
1.902558,-0.551187,-0.560153,-0.704706,-0.831532,0.220267,-0.325611,9.993398,0.014899,0.003193,0.013835,33.462305,-6.460547,60.243750
2.004166,-0.639994,-0.605048,-0.654689,-0.902104,0.143652,-0.383072,10.189722,0.012771,0.008514,0.011706,32.761523,-5.762109,59.568750
2.106003,-0.593219,-0.648442,-0.591593,-0.974227,0.239420,-0.177171,10.472238,0.020220,0.003193,0.023413,32.761523,-5.762109,59.568750
2.206974,-0.749196,-0.673179,-0.521347,-1.043944,0.172383,-0.454898,8.825027,0.008514,0.045762,-0.220294,33.287109,-7.682812,59.400000
2.309663,-0.386970,-0.698033,-0.435956,-1.120245,-0.052672,-0.363919,10.007763,0.011706,0.006385,0.012771,33.287109,-5.936719,59.062500
2.411531,-0.681674,-0.718628,-0.334987,-1.199493,0.057461,-0.541090,10.156203,0.010642,-0.006385,0.010642,33.812695,-6.460547,58.218750
2.513340,-0.782439,-0.729057,-0.219203,-1.285394,0.162806,-0.459687,10.065224,0.013835,0.002128,0.010642,33.812695,-6.460547,58.218750
2.615279,-0.774104,-0.724177,-0.088635,-1.380580,0.114922,-0.469264,9.988609,0.012771,0.005321,0.010642,31.359961,-6.111328,58.218750
2.717725,-0.617129,-0.701418,0.052494,-1.490339,0.124498,-0.464475,10.189722,0.011706,0.005321,0.012771,31.184766,-4.889062,58.387500
2.818459,-0.693728,-0.656485,0.193509,-1.620143,0.225055,-0.464475,10.141838,0.012771,0.004257,0.011706,31.184766,-6.285937,59.062500
2.919820,-0.498981,-0.583246,0.322848,-1.772352,0.162806,-0.440533,10.122685,0.013835,0.002128,0.014899,31.184766,-6.285937,59.062500
3.021554,-0.543560,-0.481212,0.429029,-1.950850,0.100556,-0.416591,10.189722,0.010642,0.004257,0.009578,31.184766,-6.285937,59.062500
3.123481,-0.912304,-0.353539,0.499858,-2.155308,0.119710,-0.521936,10.141838,0.012771,0.003193,0.011706,33.462305,-5.412891,59.568750
3.224935,-0.508428,-0.207574,0.530529,-2.376169,0.086191,-0.493206,10.146627,0.015963,0.003193,0.011706,32.761523,-6.460547,59.568750
3.326887,-1.189690,-0.059842,0.514008,-2.599304,0.201113,-0.402226,9.955091,0.013835,0.003193,0.017028,33.462305,-6.809766,60.243750
3.428412,-0.997899,0.069491,0.449470,-2.806695,0.124498,-0.531513,10.098743,0.014899,0.008514,0.015963,33.462305,-6.809766,60.243750
3.529439,-0.742045,0.166031,0.342412,-2.984276,0.100556,-0.502782,10.156203,0.011706,0.005321,0.015963,30.133594,-6.984375,58.050000
3.631246,-0.746425,0.215275,0.188170,-3.111867,0.210690,-0.502782,10.070012,0.014899,0.005321,0.012771,32.411133,-6.809766,58.893750
3.733348,-0.995760,0.198782,0.040024,3.118897,0.134075,-0.445322,10.156203,0.011706,0.002128,0.013835,31.009570,-6.809766,58.893750
3.834442,-1.054661,0.182842,0.053268,3.109922,0.090980,-0.531513,10.165780,0.012771,0.002128,0.014899,30.659180,-6.809766,59.231250
3.936488,-0.626313,0.176953,0.042242,3.108864,0.158017,-0.464475,10.089166,0.006385,0.005321,0.012771,30.483984,-6.635156,59.062500
4.038264,-0.688990,0.131249,0.043218,3.130427,0.220267,-0.469264,10.137050,0.012771,0.007450,0.012771,32.936719,-5.238281,57.712500
4.139673,-0.443434,0.130833,0.042952,3.129204,0.162806,-0.478840,10.213664,0.010642,0.007450,0.014899,32.936719,-5.936719,60.075000
4.241280,-0.682755,0.141314,0.040928,3.132961,0.062249,-0.430956,10.204087,0.013835,0.005321,0.009578,33.111914,-6.111328,60.581250
4.342757,-0.498180,0.141054,0.038069,3.134715,0.148441,-0.445322,10.184934,0.013835,0.006385,0.013835,33.111914,-6.111328,60.581250
4.444467,-0.851086,0.134819,0.041644,3.131833,0.177171,-0.450110,10.180145,0.012771,0.003193,0.013835,32.235937,-5.238281,59.400000
4.545829,-0.695673,0.146798,0.048227,3.097640,0.148441,-0.497994,10.165780,0.009578,0.006385,0.014899,32.936719,-8.032031,59.062500
4.648594,-0.603042,0.190903,0.044660,3.106471,0.186748,-0.497994,10.199299,0.013835,0.007450,0.012771,32.936719,-8.032031,59.062500
4.749614,-0.772712,0.205625,0.042810,3.107713,0.076614,-0.459687,10.122685,0.012771,0.004257,0.014899,32.761523,-8.206641,59.231250
4.850658,-0.554433,0.209304,0.032322,3.110302,0.100556,-0.387861,10.275914,0.012771,0.003193,0.011706,32.411133,-8.206641,58.893750
4.952704,-0.616450,0.190987,0.052416,3.136334,0.038307,-0.469264,10.165780,0.013835,0.004257,0.014899,32.411133,-7.508203,59.231250
5.054023,-0.763542,0.166628,0.044920,3.129844,0.148441,-0.464475,10.041282,0.011706,0.004257,0.013835,33.111914,-6.809766,58.218750
5.155509,-0.852117,0.209552,0.043207,3.104007,0.162806,-0.478840,10.060435,0.014899,0.005321,0.013835,32.060742,-8.555859,59.231250
5.257775,-1.016407,0.218184,0.043500,3.108601,0.153229,-0.483629,10.132261,0.012771,0.003193,0.014899,32.060742,-8.555859,59.231250
5.358969,-0.510390,0.173852,0.047053,3.110897,0.162806,-0.512359,10.141838,0.012771,0.005321,0.012771,31.710352,-6.460547,58.893750
5.460116,-0.718407,0.161438,0.052581,3.111024,0.138864,-0.541090,10.199299,0.010642,0.004257,0.013835,32.936719,-6.285937,58.725000
5.561999,-0.803652,0.164173,0.041447,3.106483,0.215478,-0.459687,10.141838,0.013835,0.002128,0.013835,32.060742,-6.809766,58.893750
5.663544,-0.590243,0.172870,0.041045,3.108803,0.162806,-0.445322,10.070012,0.010642,0.005321,0.014899,32.060742,-6.809766,58.893750
5.765144,-0.554756,0.171527,0.048253,3.106709,0.158017,-0.536301,10.065224,0.011706,0.003193,0.009578,30.834375,-6.635156,58.387500
5.866751,-0.408716,0.170573,0.050017,3.110297,0.129287,-0.469264,10.146627,0.012771,0.006385,0.012771,32.761523,-6.460547,59.568750
5.968877,-0.646573,0.164192,0.034328,3.133672,0.143652,-0.392649,10.165780,0.010642,0.006385,0.014899,32.936719,-6.984375,59.737500
6.070132,-0.630339,0.163137,0.052932,3.131030,0.153229,-0.555455,10.103531,0.015963,0.006385,0.015963,33.111914,-6.111328,58.893750
6.171980,-0.816461,0.146849,0.047762,3.133612,0.100556,-0.497994,10.184934,0.013835,0.005321,0.015963,33.111914,-6.111328,58.893750
6.273114,-0.804084,0.168202,0.040631,3.125892,0.105345,-0.454898,10.060435,0.021284,0.030863,0.009578,31.359961,-6.809766,58.893750
6.374625,-0.472834,0.188409,0.054579,3.088889,0.584185,-0.675165,10.453084,0.014899,0.073431,-0.034055,31.535156,-7.333594,58.725000
6.476069,-0.307109,0.205853,0.030200,-3.109825,-0.684742,-0.229843,10.395624,-0.439525,0.982279,-0.078753,31.009570,-5.762109,59.906250
6.577353,-0.545097,0.138256,0.064870,-3.015586,-1.742979,-0.632069,10.936713,-0.342680,0.615122,-0.104294,32.761523,5.063672,62.268750
6.679040,-0.595893,0.094898,0.121177,-3.008223,-1.948880,-0.948104,9.883264,0.094716,0.913104,0.028734,32.761523,5.063672,62.268750
6.780581,-0.127121,0.054638,0.109387,-2.926805,-3.303998,-0.387861,10.338163,0.107487,0.825838,-0.108551,32.060742,22.873828,59.231250
6.882861,-0.772766,-0.003409,0.091865,-2.822164,-3.581726,-0.972046,9.260772,0.081945,0.759856,-0.089395,29.608008,31.953516,56.193750
6.984471,-0.368028,-0.069026,0.088939,-2.722309,-4.175488,-0.689530,8.896853,0.192625,0.680039,-0.158569,27.680859,37.715625,50.625000
7.085429,-0.476696,-0.118223,0.071157,-2.639054,-6.378153,-0.430956,8.796297,0.286276,0.776884,0.002128,27.155273,44.874609,47.081250
7.187152,-0.620038,-0.153637,0.041393,-2.564409,-6.359000,-1.015142,7.762002,0.271377,0.581066,0.077688,24.702539,53.605078,44.043750
7.288843,-0.431625,-0.182260,0.022443,-2.528095,-7.182605,0.517148,6.469133,0.189432,1.300482,-0.029798,21.899414,59.891016,38.306250
7.390065,-0.798664,-0.202774,0.007284,-2.480629,-8.049306,0.071826,6.114791,0.118129,1.106793,-0.064918,22.249805,68.621484,34.256250
7.491494,-0.646043,-0.223986,0.002030,-2.429601,-8.714894,0.483629,4.932055,0.322460,1.035490,-0.046826,21.198633,73.859766,27.843750
7.593426,-0.434617,-0.249065,0.005573,-2.383117,-9.404424,0.502782,3.940856,0.238386,1.140848,-0.041505,20.497852,80.145703,22.781250
7.694493,-0.406211,-0.258138,0.004519,-2.335521,-9.552865,0.416591,2.322376,0.234129,0.907783,-0.153248,20.497852,80.145703,22.781250
7.796370,-0.183748,-0.262037,-0.007127,-2.283645,-8.896853,0.565032,0.608127,0.152184,0.921618,-0.081945,19.096289,84.336328,16.368750
7.897922,-0.428492,-0.262438,-0.035679,-2.227446,-9.734824,0.560243,0.407014,-0.087266,0.793911,-0.093652,19.446680,87.479297,11.643750
8.000132,-0.264738,-0.273288,-0.058642,-2.160099,-9.773131,0.043096,-0.210690,0.176661,0.615122,0.123450,21.373828,90.098437,6.412500
8.101904,-0.370300,-0.286322,-0.067920,-2.091932,-9.519346,0.411803,-1.139640,0.155377,0.608736,0.106422,20.322656,91.844531,4.387500
8.203375,-0.140449,-0.284340,-0.082440,-2.012483,-9.356540,0.421379,-1.551443,0.129835,0.419304,0.104294,19.621875,93.241406,0.000000
8.304649,-0.195416,-0.261494,-0.111606,-1.913747,-9.390059,0.253785,-2.317587,0.009578,0.127707,0.030863,19.621875,94.289062,-2.362500
8.406151,-0.437148,-0.222861,-0.141057,-1.788406,-9.366117,0.301669,-1.929727,0.011706,-0.042569,0.051083,18.921094,95.336719,-2.025000
8.507886,-0.515336,-0.156253,-0.159715,-1.657358,-9.557653,0.339977,-1.934515,-0.032991,-0.029798,0.059597,18.570703,93.590625,-1.350000
8.609479,-0.355644,-0.053927,-0.155415,-1.534619,-9.524134,0.617704,-1.857900,0.020220,-0.031927,0.040441,18.570703,93.590625,-1.350000
8.711394,-0.368866,0.027194,-0.089553,-1.476134,-9.442731,0.392649,-1.584961,0.019156,-0.146863,0.154313,18.745898,92.717578,-2.531250
8.812964,-0.572910,0.030951,0.004109,-1.498243,-9.686940,0.493206,-1.446098,0.093652,-0.002128,0.000000,17.344336,93.416016,-0.168750
8.915221,-0.415197,0.019674,0.104534,-1.459475,-9.490615,0.579397,-1.996764,-0.013835,0.010642,0.001064,18.570703,94.638281,0.337500
9.016771,-0.576352,0.010672,0.227824,-1.456446,-9.686940,0.627281,-1.738190,0.037248,-0.047890,-0.006385,18.570703,94.638281,0.337500
9.118424,-0.425192,-0.014627,0.339789,-1.442878,-9.500192,0.531513,-1.570596,0.025541,-0.024477,0.012771,17.694727,94.114453,-0.506250
9.220062,-0.670252,-0.020743,0.448465,-1.438571,-9.461885,0.584185,-1.541866,0.034055,0.023413,-0.006385,18.395508,92.717578,0.843750
9.321207,-0.806110,-0.058307,0.520293,-1.402786,-9.538499,0.497994,-1.733402,0.029798,0.006385,-0.008514,16.818750,93.590625,0.337500
9.422979,-0.620182,-0.060196,0.609810,-1.403470,-9.504981,0.612916,-1.522712,0.052147,-0.023413,0.018092,17.519531,93.241406,1.012500
9.524921,-0.485042,-0.063405,0.654041,-1.386278,-9.686940,0.474052,-1.503559,0.023413,0.004257,0.036184,18.220313,93.939844,-0.337500
9.625934,-0.558028,-0.071411,0.684926,-1.392390,-9.528923,0.512359,-1.383849,0.034055,0.013835,0.007450,18.220313,93.939844,-0.337500
9.728310,-0.248730,-0.085264,0.744627,-1.375960,-9.667786,0.603339,-1.493982,0.023413,-0.013835,0.028734,16.993945,93.416016,0.506250
9.829930,-0.454337,-0.096279,0.780303,-1.373924,-9.466673,0.440533,-1.359907,0.004257,-0.022349,0.045762,17.869922,94.289062,-0.337500
9.931248,-0.573438,-0.091258,0.799385,-1.362058,-9.533711,0.574608,-1.431733,0.105358,-0.051083,0.048954,17.169141,92.193750,0.337500
10.033165,-0.517637,-0.093993,0.825203,-1.335203,-9.667786,0.952892,-1.312023,0.243707,-1.380299,-0.100037,17.344336,90.971484,-1.181250
10.134369,-0.380531,-0.378610,0.774554,-0.983714,-9.495404,0.890643,-0.248997,-0.408662,-3.561959,-0.213909,17.694727,83.288672,11.643750
10.236623,-0.506708,-0.602734,0.625380,-0.679526,-4.616021,-1.000776,9.485827,-0.020220,-3.223535,0.206460,20.848242,57.446484,30.543750
10.338381,-0.142540,-0.721688,0.549045,-0.572566,-3.888183,-0.440533,11.784261,0.000000,-1.911347,-0.006385,19.797070,37.191797,33.243750
10.439159,-0.298911,-0.784262,0.538397,-0.538678,-0.909797,-0.488417,10.050859,-0.204331,-2.028411,-0.006385,19.797070,37.191797,33.243750
10.540584,-0.550739,-0.803082,0.603470,-0.563219,-7.680599,5.899313,23.874979,0.047890,-0.352258,0.200074,19.972266,12.921094,34.762500
10.641573,-0.782056,-0.708544,0.750728,-0.726214,-0.746991,0.000000,11.113884,0.172404,0.170276,0.079817,19.972266,12.921094,34.762500
10.742904,-0.256739,-0.589721,0.891661,-0.916140,-0.330400,-0.100556,10.007763,0.174533,-0.029798,-0.046826,17.169141,11.524219,38.137500
10.844290,-0.170848,-0.380700,1.003646,-1.186716,-0.225055,-0.205901,9.959879,0.144734,-0.156441,0.008514,16.993945,10.301953,35.606250
10.946055,-0.595456,-0.089692,1.057469,-1.527541,0.014365,-0.062249,10.002975,0.020220,-0.160698,-0.006385,16.293164,11.698828,35.268750
11.047674,-0.173013,0.253448,1.040504,-1.925505,-0.090980,-0.019154,10.113108,0.013835,0.040441,0.015963,15.942773,9.254297,34.593750
11.149306,-0.501418,0.529890,0.952172,-2.258933,-0.225055,-0.229843,10.175357,-0.006385,-0.028734,0.015963,16.117969,9.079687,34.087500
11.251402,-0.489967,0.714483,0.820983,-2.502001,-0.124498,-0.177171,10.237606,0.015963,0.036184,0.019156,15.767578,10.476562,35.437500
11.352898,-0.422716,0.818781,0.662592,-2.665120,-0.143652,-0.320823,10.242395,0.058532,0.038312,0.053211,16.293164,10.301953,33.918750
11.455305,-0.255748,0.875723,0.496537,-2.771811,0.062249,-0.119710,10.055647,0.051083,-0.144734,-0.030863,16.468359,8.032031,35.100000
11.556670,-0.119589,0.890349,0.327423,-2.845544,0.162806,0.119710,9.883264,0.026606,0.102166,0.163891,16.468359,7.682812,34.762500
11.657794,0.021564,0.854344,0.174426,-2.896434,-0.047884,-0.033519,10.309432,0.065982,-0.055340,-0.003193,15.767578,9.079687,36.112500
11.759452,-0.346126,0.788156,0.085333,-2.919443,0.292093,0.191536,10.084377,0.058532,-0.011706,-0.014899,15.942773,6.809766,34.931250
11.861185,-0.478246,0.683959,0.059097,-2.940779,0.220267,0.129287,10.180145,0.014899,0.002128,-0.015963,14.366016,9.079687,36.112500
11.962937,-0.484500,0.568605,0.055498,-2.943611,0.153229,0.095768,9.998186,0.046826,-0.018092,0.007450,16.993945,8.206641,34.256250
12.064604,-0.582370,0.431676,0.036836,-2.952409,0.244209,0.033519,9.892841,0.035119,-0.095780,0.004257,16.993945,8.206641,34.256250
12.165525,-0.628702,0.297541,0.000105,-3.018858,0.263362,0.177171,10.089166,-0.028734,-0.015963,0.011706,16.293164,5.412891,34.931250
12.267059,-0.401243,0.129920,0.000984,-3.018962,-0.416591,0.114922,10.740389,-0.003193,0.195817,0.094716,14.541211,5.412891,32.906250
12.369561,-0.572085,-0.047660,0.001250,-3.027620,-0.162806,0.043096,10.309432,-0.034055,0.249028,0.137285,14.366016,8.730469,33.750000
12.470608,-0.564071,-0.244367,0.009199,-3.072378,0.196325,-0.090980,9.686940,-0.168147,-0.140478,0.206460,16.643555,9.952734,34.931250
12.572172,-0.041238,-0.397732,0.026403,-3.091738,-0.186748,-0.220267,10.055647,-0.068110,0.153248,0.080881,16.643555,9.952734,34.931250
12.673736,-0.279544,-0.433803,-0.005745,-3.131203,-0.090980,-0.067038,10.481815,0.100037,-0.150056,-0.012771,19.972266,10.127344,35.437500
12.775323,-0.401662,-0.466202,-0.004026,3.099400,0.507571,0.301669,10.089166,0.057468,0.096844,0.004257,18.921094,9.079687,35.100000
12.876758,-0.460378,-0.493169,-0.004739,3.100596,0.857124,0.411803,11.080365,-0.131964,0.096844,0.375671,18.745898,9.603516,36.618750
12.978404,-0.612371,-0.493782,0.029854,-3.100553,-1.450886,-0.622492,11.544840,-0.029798,0.920554,0.291597,18.745898,9.603516,36.618750
13.079427,-0.091732,-0.503556,0.011891,-3.048394,-1.374272,1.077391,10.582371,0.584259,1.138720,0.118129,22.425000,17.810156,35.775000
13.180655,-0.856089,-0.490158,0.039281,-3.028520,-2.868254,0.172383,10.745177,0.532112,1.705951,-0.498057,18.921094,31.778906,38.137500
13.282387,-0.316074,-0.572937,0.089475,-3.074733,-5.042189,0.201113,8.518570,-0.346937,2.525404,0.352258,17.344336,44.525391,34.931250
13.383671,-0.394674,-0.644912,0.139077,-3.092850,-7.666234,1.082179,5.190629,0.509763,1.869842,0.357579,17.344336,44.525391,34.931250
13.485462,-0.372590,-0.681233,0.167549,-3.121667,-8.647856,0.790087,2.858677,-0.152184,1.634648,0.092588,18.745898,69.319922,21.768750
13.586958,-0.704078,-0.734377,0.165241,-3.114968,-9.940725,0.028730,0.928950,-0.101101,0.912040,0.294790,17.869922,75.082031,16.537500
13.689503,-0.259627,-0.798080,0.123792,-3.064202,-9.093178,1.106121,1.264138,0.053211,0.161762,-0.013835,17.869922,75.082031,16.537500
13.791359,-0.288581,-0.851703,0.039750,-2.996333,-9.390059,1.541866,1.738190,0.008514,0.017028,0.043633,15.942773,76.653516,13.668750
13.893737,-0.188744,-0.885970,-0.068601,-2.926085,-9.418789,1.244985,1.968034,-0.056404,-0.055340,-0.063853,15.942773,76.653516,13.668750
13.995567,-0.348145,-0.903840,-0.180036,-2.855578,-9.375694,1.383849,2.336741,0.046826,0.084074,0.004257,17.169141,78.574219,12.825000
14.097416,-0.138168,-0.908161,-0.287989,-2.787141,-9.572018,1.446098,2.073379,0.053211,0.098973,0.062789,17.169141,76.478906,13.837500
14.199144,-0.350132,-0.894882,-0.397131,-2.720277,-9.390059,1.460463,2.097321,0.006385,0.074496,0.026606,16.818750,76.828125,15.187500
14.300856,-0.323480,-0.859415,-0.510264,-2.644834,-9.581595,1.216254,1.991976,0.014899,0.022349,0.026606,16.818750,76.828125,15.187500
14.403126,-0.487658,-0.802237,-0.618005,-2.560877,-9.404424,1.695095,1.881843,0.001064,0.051083,0.031927,15.942773,78.050391,16.031250
14.504546,-0.307655,-0.719448,-0.726757,-2.461358,-9.672575,1.407791,1.900996,-0.013835,-0.025541,0.010642,16.293164,79.796484,12.656250
14.605980,-0.460483,-0.601448,-0.828696,-2.338358,-9.471462,1.561019,1.915361,0.030863,0.007450,0.004257,14.541211,79.796484,14.006250
14.707721,-0.373759,-0.441581,-0.918558,-2.187008,-9.667786,1.537077,1.805228,0.046826,0.054275,0.044697,14.541211,79.796484,14.006250
14.809123,-0.253304,-0.220006,-0.985283,-2.014117,-9.490615,1.398214,1.910573,0.038312,0.002128,0.042569,18.220313,78.225000,15.187500
14.910772,-0.618207,-0.165271,-0.988865,-1.945586,-9.605537,1.393425,1.886631,0.005321,0.022349,0.025541,15.241992,79.796484,14.681250
15.012505,-0.454854,-0.138803,-0.983704,-1.935958,-9.634267,1.441309,1.867477,-0.014899,-0.012771,0.018092,17.344336,78.050391,13.668750
15.114039,-0.419454,-0.131156,-0.963300,-1.926754,-9.414001,1.493982,1.939303,0.019156,-0.019156,0.001064,16.117969,79.272656,13.500000
15.215275,-0.092970,-0.117969,-0.956185,-1.917309,-9.634267,1.484405,1.877054,-0.003193,-0.019156,0.024477,16.818750,78.923437,13.837500
15.317317,-0.208206,-0.132426,-0.939630,-1.941930,-9.356540,1.532289,1.968034,0.013835,0.009578,0.009578,17.169141,79.272656,12.825000
15.418765,-0.185808,-0.097027,-0.934265,-1.901986,-9.485827,1.541866,1.766921,0.019156,0.030863,0.038312,17.169141,79.272656,12.825000
15.520447,-0.139882,-0.115966,-0.906245,-1.922539,-9.528923,1.307234,1.996764,-0.010642,-0.008514,-0.007450,18.395508,78.050391,14.006250
15.621534,-0.197035,-0.088529,-0.900940,-1.883242,-9.677363,1.541866,1.795651,0.003193,-0.002128,0.022349,17.694727,79.447266,12.656250
15.722925,-0.053360,-0.085486,-0.878322,-1.908296,-9.346963,1.671153,1.939303,0.001064,-0.023413,-0.002128,16.993945,77.351953,13.668750
15.824926,-0.143621,-0.079916,-0.873959,-1.877736,-9.543288,1.460463,1.929727,0.019156,-0.017028,0.004257,15.767578,79.272656,12.825000
15.926070,-0.117278,-0.062145,-0.868750,-1.886209,-9.528923,1.498770,1.800440,-0.022349,0.037248,0.010642,16.468359,79.621875,14.512500
16.027293,-0.074786,-0.077633,-0.854738,-1.900678,-9.409213,1.484405,1.891419,-0.012771,0.038312,0.020220,16.993945,79.796484,14.343750
16.129072,-0.245425,-0.042157,-0.854543,-1.854032,-9.615114,1.561019,1.752556,0.046826,0.038312,0.035119,16.468359,77.875781,12.487500
16.231223,-0.224488,-0.029918,-0.840758,-1.855087,-9.682152,1.527501,1.675941,0.045762,0.030863,0.038312,17.869922,77.875781,12.487500
16.332931,-0.097669,-0.027890,-0.827135,-1.862029,-9.653421,1.584961,1.723825,0.023413,0.029798,0.012771,17.344336,78.399609,13.331250
16.434657,-0.632407,-0.040325,-0.814285,-1.835152,-9.538499,1.613692,1.853112,0.020220,0.000000,0.025541,14.716406,78.225000,11.475000
16.536548,-0.128564,-0.054776,-0.811986,-1.872495,-9.509769,1.479617,1.881843,0.006385,-0.011706,0.002128,15.592383,79.796484,13.668750
16.637788,-0.177912,-0.034391,-0.811173,-1.853376,-9.557653,1.580173,1.766921,0.028734,0.011706,0.034055,15.942773,79.796484,13.668750
16.738385,-0.330544,-0.048296,-0.802296,-1.856693,-9.423578,1.455675,1.867477,0.039376,-0.003193,0.011706,15.942773,79.796484,12.993750
16.840529,-0.302096,-0.014820,-0.802683,-1.831571,-9.490615,1.637634,1.666364,0.020220,0.008514,0.018092,15.066797,79.971094,13.500000
16.942336,-0.310924,-0.027564,-0.796480,-1.826061,-9.595960,1.479617,1.680730,-0.003193,0.028734,0.023413,15.417188,79.272656,13.500000
17.043940,-0.455668,-0.054147,-0.789282,-1.843146,-9.552865,1.288080,1.790863,-0.043633,-0.007450,0.000000,15.417188,79.272656,13.500000
17.145230,-0.463485,-0.039092,-0.784525,-1.845021,-9.557653,1.541866,1.853112,0.023413,0.008514,0.012771,16.993945,79.796484,13.331250
17.247076,-0.433282,-0.031660,-0.785296,-1.832008,-9.418789,1.498770,1.824382,0.026606,0.006385,0.008514,14.541211,79.447266,11.981250
17.347882,-0.002428,-0.051911,-0.779861,-1.838351,-9.495404,1.412579,1.833958,-0.002128,0.018092,0.015963,15.592383,78.748828,12.993750
17.449797,-0.064591,-0.027774,-0.779325,-1.821750,-9.610325,1.450886,1.728614,0.010642,-0.003193,0.006385,15.592383,78.748828,12.993750
17.552728,-0.305732,0.004319,-0.780281,-1.822590,-9.500192,1.781286,1.709460,0.042569,0.036184,0.017028,15.942773,78.050391,11.643750
17.654331,-0.056253,-0.046051,-0.766756,-1.853845,-9.543288,1.489193,1.824382,0.026606,0.044697,0.034055,16.468359,78.923437,13.500000
17.755765,-0.001744,-0.010912,-0.766931,-1.823060,-9.490615,1.537077,1.948880,0.020220,0.026606,0.022349,15.417188,78.923437,12.487500
17.858204,-0.017578,-0.030363,-0.760719,-1.825031,-9.538499,1.455675,1.786074,-0.012771,-0.014899,0.008514,15.417188,78.923437,12.487500
17.959789,-0.234779,0.009197,-0.766529,-1.832471,-9.409213,1.685518,1.867477,-0.010642,0.005321,0.005321,16.468359,80.669531,13.837500
18.061334,-0.216509,-0.007851,-0.758130,-1.824995,-9.313444,1.556231,1.790863,0.004257,0.020220,0.008514,16.468359,80.669531,13.837500
18.162945,-0.116219,-0.045653,-0.729069,-1.870259,-9.466673,1.359907,1.872266,-0.010642,0.001064,0.001064,17.869922,78.574219,13.837500
18.265075,0.080062,-0.000582,-0.732113,-1.829958,-9.519346,1.594538,1.723825,0.014899,-0.009578,-0.019156,16.293164,78.399609,12.993750
18.366254,-0.017058,0.010365,-0.722935,-1.822387,-9.615114,1.632846,1.661576,0.024477,0.006385,0.025541,17.869922,79.971094,13.837500
18.468252,-0.441035,0.011652,-0.718713,-1.816183,-9.605537,1.594538,1.857900,0.019156,0.002128,0.012771,16.818750,78.923437,12.825000
18.569867,-0.222041,0.006391,-0.713783,-1.801699,-9.634267,1.465251,1.493982,0.015963,0.051083,0.021284,15.942773,78.748828,13.668750
18.671529,-0.071655,0.027640,-0.691731,-1.790331,-9.758766,1.632846,1.431733,0.041505,0.010642,0.031927,18.220313,79.272656,12.150000
18.773461,-0.298641,0.023809,-0.678164,-1.810450,-9.519346,1.484405,1.776498,0.005321,0.006385,0.000000,18.921094,79.621875,13.162500
18.875102,-0.071170,0.022023,-0.664512,-1.798068,-9.888053,1.594538,1.570596,0.039376,0.026606,0.038312,18.045117,79.796484,11.981250
18.976763,0.207648,0.022663,-0.652337,-1.817673,-9.452308,1.561019,1.628057,0.050019,0.010642,0.028734,17.694727,80.145703,14.681250
19.078222,-0.273135,0.038975,-0.635157,-1.795057,-9.624691,1.618480,1.618480,0.019156,0.008514,0.013835,17.344336,79.796484,13.331250
19.179356,0.087929,0.009521,-0.619463,-1.803013,-9.409213,1.407791,1.762132,-0.019156,-0.061725,0.023413,15.942773,79.098047,12.993750
19.280708,0.089317,0.042441,-0.621167,-1.803695,-9.289502,1.637634,1.690306,0.006385,0.005321,-0.015963,18.745898,80.844141,15.018750
19.383063,-0.216365,0.017677,-0.607643,-1.809330,-9.524134,1.474828,1.891419,0.009578,-0.011706,-0.001064,16.993945,79.447266,13.668750
19.484510,-0.333490,0.008712,-0.601811,-1.809871,-9.586383,1.312023,1.924938,-0.021284,-0.012771,0.009578,16.117969,79.272656,13.500000
19.586755,0.137210,0.028920,-0.600657,-1.805407,-9.409213,1.575385,1.814805,0.004257,-0.058532,-0.028734,15.592383,79.447266,14.006250
19.688529,0.098040,0.007969,-0.593698,-1.815430,-9.442731,1.508347,1.910573,0.051083,-0.002128,0.021284,15.592383,79.447266,14.006250
19.790583,-0.203047,0.061029,-0.598218,-1.785261,-9.777920,1.728614,1.608904,0.042569,0.027670,0.021284,15.942773,78.748828,13.668750
19.891917,-0.578673,0.004193,-0.585904,-1.803299,-9.691728,1.302446,1.905785,-0.012771,0.001064,0.001064,15.942773,78.748828,13.668750
19.994452,0.121704,0.043862,-0.585363,-1.793272,-9.648633,1.685518,1.675941,0.045762,0.032991,0.023413,17.869922,78.923437,13.162500
20.095996,0.146193,0.007092,-0.572284,-1.810776,-9.610325,1.264138,1.848324,0.042569,0.004257,0.040441,16.643555,78.050391,12.993750
20.197332,-0.124597,0.019337,-0.554290,-1.778697,-9.519346,1.249773,1.628057,0.039376,-0.222423,0.031927,16.643555,78.050391,12.993750
20.299698,-0.329130,-0.000372,-0.513158,-1.755325,-9.179369,0.751779,0.857124,0.069175,-0.713030,0.193689,15.942773,78.748828,14.681250
20.400701,-0.062452,0.064255,-0.507526,-1.772963,-8.283938,2.116474,2.671929,-0.252221,-1.180225,0.164955,14.716406,75.780469,17.212500
20.501954,0.132257,0.044992,-0.507540,-1.768328,-7.350199,1.283292,4.932055,-0.333102,-2.003934,0.257542,16.818750,70.192969,21.600000
20.603880,-0.201187,0.055306,-0.533822,-1.714199,-5.171476,1.058237,7.594408,-0.691746,-1.996485,0.047890,16.818750,70.192969,21.600000
20.705452,0.029151,-0.037097,-0.555541,-1.795181,-6.272808,1.805228,8.791508,-0.776884,-0.752407,0.353322,18.395508,49.065234,34.593750
20.807190,-0.165980,-0.092935,-0.554304,-1.889860,-5.899313,1.426944,9.064447,0.075560,-0.938646,-0.018092,24.527344,44.350781,39.487500
20.909248,-0.340181,-0.127264,-0.515318,-1.958627,-3.620033,-0.785298,9.576807,-0.211781,0.009578,0.336295,25.753711,33.699609,44.381250
21.009963,-0.410689,-0.177598,-0.451220,-2.033739,-2.681506,0.129287,9.212888,-0.318203,-0.932260,0.124514,26.629687,26.540625,47.925000
21.111858,0.086725,-0.212934,-0.387479,-2.189313,-2.542642,1.177947,9.806650,-0.097909,-0.361836,-0.068110,32.060742,20.080078,50.118750
21.214901,-0.653413,-0.240726,-0.303129,-2.349389,-3.026271,0.354342,10.845734,0.032991,0.034055,-0.085138,33.111914,14.841797,54.506250
21.315820,-0.279539,-0.245805,-0.192665,-2.517051,-2.671929,1.077391,8.293515,0.634278,0.254350,0.114936,33.111914,14.841797,54.506250
21.417246,-0.082570,-0.196153,-0.101571,-2.719229,-2.188300,0.383072,9.399636,0.070239,0.217102,0.006385,35.214258,16.587891,54.506250
21.519203,-0.174963,-0.169617,-0.086220,-2.871738,-2.255338,-0.751779,10.232818,-0.677911,-0.507635,-0.026606,29.608008,18.333984,58.218750
21.620969,-0.585563,-0.098813,-0.014128,-2.960487,-1.632846,-0.335188,8.451532,-0.429947,-0.092588,-0.107487,36.615820,13.444922,59.231250
21.723166,-0.083960,-0.038366,0.050181,-2.963120,-1.584961,-0.536301,9.538499,0.038312,-0.329910,0.008514,39.769336,10.651172,56.868750
21.826148,-0.394064,0.028809,0.059849,-3.019951,-1.182736,-0.507571,10.098743,0.021284,-0.191560,0.012771,39.769336,6.111328,57.881250
21.927115,-0.332646,0.041466,0.049953,-3.022791,-1.029507,-0.469264,9.639056,0.008514,-0.424625,-0.098973,40.470117,3.666797,55.856250
22.028333,-0.137035,0.096071,0.065047,-3.109375,0.488417,-0.579397,10.793061,0.009578,-0.152184,0.013835,40.645313,-4.539844,52.312500
22.130530,-0.491257,0.177480,0.061865,3.139459,-0.047884,-0.651223,10.089166,0.012771,-0.250093,0.011706,38.017383,-6.460547,52.481250
22.231931,-0.193379,0.187491,0.051883,3.132339,-0.052672,-0.565032,9.974244,0.012771,-0.025541,0.011706,38.017383,-7.508203,52.481250
22.333091,-0.058356,0.175839,0.071567,-3.140229,-0.124498,-0.617704,10.084377,0.012771,0.005321,0.011706,39.418945,-7.158984,52.143750
22.435326,-0.389762,0.164498,0.062576,-3.139233,0.004788,-0.588974,10.208876,0.013835,-0.006385,0.011706,39.418945,-7.158984,52.143750
22.536325,0.020941,0.169753,0.044827,3.131951,-0.201113,-0.751779,10.065224,0.013835,-0.021284,0.007450,38.893359,-8.032031,51.300000
22.638041,-0.249855,0.194013,0.042089,3.122495,0.105345,-0.383072,10.127473,0.015963,-0.007450,0.011706,38.718164,-9.254297,52.143750
22.739889,-0.101705,0.213370,0.061686,3.121062,0.134075,-0.689530,10.117896,0.013835,-0.013835,0.015963,38.718164,-9.254297,52.143750
22.842106,-0.028000,0.184483,0.068202,3.113497,0.071826,-0.656011,10.160992,0.007450,-0.011706,0.017028,39.243750,-8.032031,50.962500
22.943227,-0.440486,0.187819,0.053272,3.114304,0.052672,-0.593762,10.261548,0.010642,-0.007450,0.008514,39.243750,-8.032031,50.962500
23.044448,-0.084527,0.196546,0.049425,3.120284,0.071826,-0.531513,10.108319,0.014899,0.001064,0.018092,39.944531,-8.730469,50.962500
23.146636,-0.222360,0.191907,0.059412,3.114268,0.124498,-0.636858,10.022128,0.012771,0.006385,0.014899,38.367773,-8.206641,50.793750
23.248098,-0.026143,0.186059,0.055926,3.114225,0.023942,-0.603339,10.122685,0.010642,-0.003193,0.012771,38.367773,-7.857422,51.806250
23.350095,-0.066624,0.185638,0.050004,3.113297,0.047884,-0.550666,10.070012,0.013835,-0.006385,0.010642,38.542969,-8.032031,53.325000
23.451084,-0.054742,0.175466,0.055485,3.116847,0.076614,-0.579397,10.084377,0.011706,-0.003193,0.015963,39.594141,-7.682812,50.625000
23.552740,-0.093778,0.208055,0.062407,3.115815,0.047884,-0.656011,10.141838,0.010642,-0.003193,0.014899,38.893359,-9.079687,51.975000
23.654950,0.168178,0.181758,0.044940,3.126229,0.134075,-0.483629,10.113108,0.012771,0.000000,0.015963,39.068555,-8.555859,52.143750
23.755723,-0.179569,0.202970,0.049669,3.128844,0.162806,-0.521936,10.093954,0.013835,0.002128,0.014899,39.769336,-9.603516,50.456250
23.857853,-0.168445,0.202297,0.057658,3.117376,0.129287,-0.574608,10.137050,0.014899,0.001064,0.013835,39.418945,-8.905078,50.793750
23.961634,0.062053,0.195208,0.049598,3.105805,0.191536,-0.550666,10.093954,0.011706,-0.002128,0.007450,39.418945,-8.905078,51.468750
24.063570,-0.151282,0.198599,0.050756,3.109269,0.071826,-0.550666,10.060435,0.011706,-0.004257,0.017028,38.192578,-8.381250,50.962500
24.164224,-0.003658,0.191200,0.051972,3.123485,0.134075,-0.555455,10.184934,0.011706,0.001064,0.010642,38.718164,-8.905078,51.131250
24.266196,0.171244,0.197084,0.060434,3.109756,0.239420,-0.584185,9.964667,0.012771,0.001064,0.013835,38.718164,-8.905078,51.131250
24.369112,-0.126817,0.200618,0.071452,3.107695,0.105345,-0.660800,10.122685,0.013835,0.002128,0.012771,38.718164,-8.905078,51.131250
24.469883,-0.114216,0.196064,0.049024,3.130030,0.100556,-0.526724,9.964667,0.013835,0.004257,0.017028,36.615820,-8.555859,51.131250
24.571626,-0.384569,0.231828,0.057513,3.104559,0.138864,-0.593762,10.055647,0.014899,0.004257,0.017028,37.666992,-10.301953,52.143750
24.673268,-0.428806,0.227285,0.048968,3.106735,0.114922,-0.531513,9.993398,0.011706,0.002128,0.014899,39.594141,-10.476562,50.962500
24.775037,-0.109003,0.198546,0.056284,3.113470,0.143652,-0.612916,10.070012,0.012771,-0.002128,0.014899,38.192578,-8.730469,51.300000
24.876595,-0.091922,0.196009,0.058850,3.110935,0.110133,-0.636858,10.189722,0.013835,0.002128,0.011706,38.192578,-8.730469,51.300000
24.978775,0.085778,0.201886,0.054857,3.110233,0.177171,-0.627281,10.084377,0.009578,0.001064,0.015963,37.842188,-9.079687,51.300000
25.079983,-0.105299,0.192471,0.039605,3.114281,0.215478,-0.488417,10.266337,0.012771,0.001064,0.012771,39.418945,-8.206641,51.131250
25.181764,-0.055202,0.187795,0.056997,3.106235,0.148441,-0.622492,10.127473,0.013835,0.006385,0.012771,38.718164,-9.603516,51.131250
25.283367,-0.170691,0.214536,0.047157,3.107645,0.225055,-0.526724,10.122685,0.013835,0.001064,0.015963,38.718164,-9.603516,51.131250
25.384883,0.215264,0.210319,0.052946,3.123584,0.153229,-0.579397,10.117896,0.015963,0.004257,0.014899,38.718164,-9.603516,51.131250
25.487214,0.079706,0.238399,0.047307,3.116775,0.086191,-0.560243,10.074801,0.015963,0.002128,0.014899,38.017383,-10.301953,51.468750
25.588381,-0.112100,0.211260,0.053531,3.109635,0.177171,-0.588974,10.098743,0.012771,0.002128,0.015963,39.243750,-9.079687,50.287500
25.690285,-0.275953,0.208080,0.054640,3.106987,0.100556,-0.536301,10.141838,0.012771,0.003193,0.014899,39.243750,-9.079687,50.287500
25.792007,-0.086833,0.227966,0.045324,3.119740,0.205901,-0.565032,10.180145,0.014899,0.002128,0.013835,39.068555,-11.000391,53.831250
25.894153,0.089046,0.200025,0.057652,3.133767,0.095768,-0.584185,10.132261,0.014899,0.005321,0.014899,39.769336,-7.857422,53.156250
25.996250,0.005428,0.165837,0.045644,3.124420,0.148441,-0.531513,10.127473,0.009578,0.003193,0.011706,38.893359,-8.032031,51.637500
26.097858,0.038216,0.178246,0.040682,3.112423,0.177171,-0.536301,10.223241,0.011706,0.003193,0.012771,39.769336,-8.905078,52.143750
26.199370,0.302381,0.196912,0.058653,3.109771,0.090980,-0.588974,10.122685,0.010642,0.007450,0.013835,39.769336,-8.905078,52.143750
26.300920,0.279576,0.190486,0.056454,3.109623,0.148441,-0.622492,10.122685,0.012771,0.006385,0.015963,39.769336,-8.905078,52.143750
26.402404,-0.137663,0.210561,0.057396,3.124026,0.105345,-0.612916,10.146627,0.012771,0.002128,0.017028,38.893359,-9.778125,51.300000
26.503530,0.022124,0.215007,0.043614,3.110291,0.186748,-0.502782,10.050859,0.011706,0.000000,0.013835,39.068555,-9.603516,50.118750
26.604880,0.160782,0.228831,0.043171,3.110860,0.138864,-0.469264,10.070012,0.010642,0.000000,0.014899,38.542969,-10.127344,50.962500
26.706033,-0.190562,0.163448,0.062425,3.121434,0.215478,-0.593762,10.160992,0.012771,0.006385,0.013835,40.820508,-8.206641,50.456250
26.807787,0.125079,0.209437,0.077133,3.102430,0.191536,-0.718260,10.108319,0.012771,0.006385,0.012771,38.367773,-9.603516,50.793750
26.909660,-0.187738,0.202452,0.049315,3.101337,0.177171,-0.569820,10.165780,0.011706,0.004257,0.015963,38.718164,-9.254297,50.793750
27.012670,0.044515,0.222482,0.039226,3.119359,0.023942,-0.493206,10.093954,0.010642,-0.002128,0.017028,38.893359,-9.428906,50.962500
27.115694,-0.182426,0.196880,0.059605,3.105384,0.263362,-0.593762,10.146627,0.015963,-0.001064,0.014899,39.243750,-9.079687,51.637500
27.217711,-0.064295,0.206133,0.064714,3.105175,0.138864,-0.593762,10.026917,0.012771,0.003193,0.009578,39.243750,-9.079687,51.637500
27.322100,-0.272827,0.190190,0.032706,3.117281,0.086191,-0.488417,10.117896,0.011706,0.001064,0.014899,38.542969,-8.032031,51.975000
27.422529,-0.002950,0.193218,0.062569,3.123223,0.177171,-0.665588,10.070012,0.011706,0.003193,0.012771,38.542969,-9.079687,50.962500
27.523731,-0.257124,0.173142,0.064360,3.124420,0.172383,-0.603339,10.074801,0.011706,0.002128,0.018092,37.842188,-8.032031,50.625000
27.624964,-0.194890,0.169217,0.052501,3.121216,0.196325,-0.584185,10.007763,0.013835,0.001064,0.012771,37.842188,-8.032031,50.625000
27.727229,-0.139770,0.177401,0.057097,3.126061,0.196325,-0.622492,10.208876,0.009578,0.001064,0.017028,39.243750,-8.730469,51.975000
27.828659,-0.441369,0.186718,0.064471,3.128534,0.057461,-0.579397,10.031705,0.012771,0.004257,0.012771,39.068555,-8.555859,51.806250
27.930887,-0.247870,0.180942,0.046784,3.121662,0.143652,-0.474052,10.141838,0.011706,0.005321,0.012771,38.192578,-8.381250,51.300000
28.032773,-0.194472,0.180678,0.045373,3.117023,0.229843,-0.488417,10.256760,0.017028,0.003193,0.012771,38.192578,-8.381250,51.300000
28.134942,-0.405492,0.188268,0.055549,3.105463,0.181959,-0.584185,10.160992,0.017028,0.005321,0.014899,38.718164,-10.301953,50.456250
28.236735,-0.382494,0.236008,0.057833,3.112448,0.057461,-0.560243,10.065224,0.014899,0.006385,0.014899,38.718164,-10.301953,50.456250
28.338267,-0.082906,0.214684,0.059155,3.111578,0.114922,-0.588974,10.022128,0.010642,0.003193,0.018092,39.243750,-9.778125,50.287500
28.440033,-0.417403,0.225338,0.041525,3.123762,0.138864,-0.459687,10.022128,0.010642,0.006385,0.011706,38.718164,-10.301953,50.793750
28.542156,-0.182150,0.219344,0.054721,3.120454,0.114922,-0.622492,10.156203,0.014899,0.005321,0.012771,38.367773,-9.952734,50.118750
28.643551,0.104230,0.230198,0.060010,3.108752,0.119710,-0.636858,10.199299,0.013835,0.004257,0.011706,38.367773,-9.952734,50.118750
28.745301,-0.255649,0.190066,0.058757,3.121811,0.119710,-0.641646,10.175357,0.009578,0.004257,0.013835,37.842188,-8.730469,50.625000
28.848537,-0.048810,0.172210,0.055909,3.117391,0.220267,-0.588974,10.026917,0.013835,0.004257,0.013835,39.418945,-8.206641,51.468750
28.949802,-0.532681,0.194822,0.052351,3.121684,0.225055,-0.588974,10.141838,0.012771,0.005321,0.019156,38.192578,-9.428906,51.975000
29.051495,-0.055998,0.194677,0.053952,3.121570,0.225055,-0.622492,10.065224,0.012771,0.004257,0.013835,38.192578,-9.428906,51.975000
29.153056,-0.209330,0.185334,0.052463,3.117645,0.158017,-0.541090,10.218453,0.012771,0.004257,0.011706,39.944531,-8.381250,51.637500
29.254190,-0.658842,0.196343,0.051216,3.121102,0.172383,-0.565032,10.089166,0.014899,0.003193,0.013835,40.645313,-9.778125,50.625000
29.356150,-0.401934,0.213286,0.053582,3.103977,0.162806,-0.588974,10.117896,0.012771,0.004257,0.014899,37.842188,-9.778125,50.287500
29.457829,-0.295445,0.222450,0.043870,3.105410,0.162806,-0.497994,10.175357,0.013835,0.005321,0.018092,37.842188,-9.778125,50.287500
29.559496,-0.507495,0.217223,0.056756,3.104516,0.177171,-0.632069,10.146627,0.018092,0.001064,0.013835,37.842188,-9.778125,50.287500
29.661224,-0.483434,0.202269,0.054166,3.100076,0.196325,-0.579397,10.012551,0.014899,0.002128,0.009578,39.418945,-9.254297,50.793750
29.762507,-0.143856,0.193727,0.047799,3.120840,0.234632,-0.565032,10.108319,0.011706,0.002128,0.013835,38.893359,-9.079687,51.300000
29.864575,-0.062952,0.177357,0.063192,3.120364,0.100556,-0.656011,10.132261,0.013835,0.002128,0.014899,40.294922,-8.730469,50.287500
29.965813,-0.305390,0.176880,0.058506,3.126284,0.186748,-0.636858,10.141838,0.009578,0.003193,0.015963,40.294922,-8.730469,50.287500
30.071796,-0.018369,0.189178,0.038292,3.122962,0.215478,-0.478840,10.199299,0.012771,0.006385,0.014899,39.594141,-9.079687,50.962500
30.175619,-0.446130,0.175670,0.061726,3.108988,0.086191,-0.593762,10.122685,0.012771,0.006385,0.014899,38.542969,-7.682812,51.975000
30.276248,-0.337742,0.166488,0.047841,3.107113,0.205901,-0.545878,10.271125,0.013835,0.005321,0.014899,38.542969,-7.682812,51.975000
30.380396,-0.304101,0.193768,0.051588,3.103672,0.196325,-0.565032,10.070012,0.011706,0.006385,0.014899,39.243750,-9.079687,51.300000
30.480413,-0.493988,0.194368,0.067108,3.124438,0.162806,-0.646434,10.089166,0.014899,0.003193,0.014899,40.119727,-9.254297,51.131250
30.582876,0.043351,0.196840,0.040894,3.121180,0.220267,-0.521936,10.156203,0.013835,0.004257,0.014899,38.367773,-9.254297,51.468750
30.683685,-0.149119,0.189951,0.051253,3.117689,0.253785,-0.569820,10.070012,0.011706,0.005321,0.014899,40.119727,-9.603516,51.131250
30.785513,-0.259990,0.183786,0.045850,3.123872,0.205901,-0.521936,10.285490,0.014899,0.000000,0.012771,37.666992,-8.206641,52.481250
30.887162,0.062917,0.170842,0.060557,3.121947,0.220267,-0.632069,10.194511,0.013835,0.000000,0.014899,40.119727,-8.206641,51.806250
30.988825,-0.482538,0.193082,0.063619,3.102894,0.129287,-0.665588,10.175357,0.013835,0.006385,0.015963,38.542969,-9.079687,50.287500
31.090344,-0.356057,0.203821,0.042890,3.109087,0.119710,-0.521936,10.189722,0.012771,0.003193,0.017028,38.542969,-9.079687,50.287500
31.191458,-0.200568,0.205965,0.050649,3.107187,0.196325,-0.555455,10.137050,0.011706,0.001064,0.012771,37.666992,-9.254297,51.468750
31.293462,-0.196994,0.224910,0.053141,3.109029,0.172383,-0.555455,10.137050,0.009578,0.003193,0.015963,38.192578,-10.127344,51.975000
31.395877,-0.140277,0.212484,0.062533,3.114868,0.143652,-0.627281,10.285490,0.012771,-0.004257,0.019156,38.893359,-9.079687,52.312500
31.496593,-0.078656,0.201967,0.053954,3.110477,0.124498,-0.579397,10.122685,0.011706,0.005321,0.019156,38.893359,-9.079687,52.312500
31.598299,-0.461741,0.198799,0.059141,3.108879,0.162806,-0.646434,10.022128,0.015963,0.002128,0.013835,38.542969,-9.079687,50.625000
31.699645,-0.461424,0.228967,0.052660,3.104235,0.162806,-0.579397,10.089166,0.011706,0.001064,0.015963,37.666992,-10.301953,52.481250
31.801893,-0.192454,0.180686,0.052073,3.123746,0.110133,-0.579397,10.204087,0.011706,0.004257,0.014899,37.316602,-8.206641,51.468750
31.903680,-0.600029,0.197320,0.052326,3.120680,0.067038,-0.488417,10.156203,0.014899,0.005321,0.011706,39.944531,-9.428906,52.987500
32.004414,-0.157454,0.197727,0.055621,3.122729,0.177171,-0.588974,10.098743,0.014899,0.004257,0.012771,39.594141,-9.428906,48.600000
32.105766,-0.697858,0.189586,0.050023,3.123294,0.181959,-0.574608,10.113108,0.014899,0.005321,0.017028,40.645313,-9.428906,51.975000
32.207500,-0.247567,0.207812,0.045044,3.122494,0.134075,-0.488417,10.127473,0.013835,0.004257,0.011706,39.243750,-9.778125,50.962500
32.310241,-0.394344,0.197634,0.060056,3.128766,0.071826,-0.627281,10.065224,0.012771,0.003193,0.013835,38.718164,-8.905078,51.806250
32.411431,-0.471822,0.186837,0.059218,3.125558,0.191536,-0.632069,10.103531,0.013835,0.000000,0.017028,38.718164,-8.905078,51.806250
32.513020,-0.351912,0.189220,0.043391,3.121615,0.191536,-0.478840,10.132261,0.013835,0.002128,0.015963,39.944531,-9.079687,51.300000
32.614714,-0.338720,0.213734,0.048202,3.098544,0.215478,-0.565032,10.113108,0.015963,0.004257,0.013835,39.068555,-9.952734,51.131250
32.716446,-0.368372,0.172142,0.058582,3.130036,0.067038,-0.608127,10.084377,0.014899,0.005321,0.017028,39.594141,-8.032031,50.625000
32.817766,-0.104918,0.203035,0.054803,3.104294,0.129287,-0.579397,10.117896,0.011706,0.005321,0.012771,39.769336,-9.603516,51.131250
32.920945,-0.556716,0.198164,0.038204,3.119928,0.220267,-0.512359,10.089166,0.008514,0.007450,0.015963,39.769336,-9.603516,51.131250
33.021804,-0.516969,0.199694,0.053128,3.129240,0.090980,-0.565032,10.060435,0.009578,0.003193,0.015963,38.542969,-9.079687,50.287500
33.123186,-0.520169,0.194147,0.049067,3.123498,0.181959,-0.545878,9.964667,0.013835,0.006385,0.014899,39.068555,-9.254297,51.468750
33.225530,-0.339987,0.189678,0.050617,3.124567,0.191536,-0.560243,10.189722,0.013835,0.004257,0.017028,40.119727,-8.905078,52.481250
33.327714,-0.250360,0.195463,0.057290,3.119011,0.124498,-0.574608,10.132261,0.011706,0.005321,0.013835,38.367773,-9.603516,51.468750
33.431531,-0.309902,0.207771,0.057632,3.127479,0.090980,-0.603339,10.098743,0.011706,0.002128,0.014899,38.367773,-9.603516,51.468750
33.536885,-0.480935,0.208892,0.057213,3.124814,0.143652,-0.612916,10.022128,0.011706,0.004257,0.014899,38.367773,-9.603516,51.468750
33.636671,-0.251280,0.181664,0.060371,3.103942,0.124498,-0.622492,10.079589,0.011706,0.005321,0.013835,37.491797,-8.032031,50.962500
33.742343,-0.112299,0.252350,0.056488,3.121040,0.148441,-0.612916,9.897630,0.013835,0.007450,0.014899,37.842188,-11.524219,50.962500
33.842377,-0.019923,0.206934,0.058015,3.122504,0.191536,-0.632069,10.141838,0.009578,0.006385,0.014899,39.243750,-9.778125,50.962500
33.944608,-0.384554,0.184960,0.051496,3.108009,0.134075,-0.569820,10.156203,0.015963,0.008514,0.014899,38.367773,-8.206641,50.793750
34.046395,-0.422546,0.194704,0.048672,3.105278,0.172383,-0.521936,10.117896,0.012771,0.004257,0.015963,39.594141,-9.079687,52.312500
34.148416,-0.267036,0.175070,0.041045,3.115740,0.229843,-0.421379,10.117896,0.015963,0.009578,0.009578,38.542969,-8.381250,51.637500
34.249195,-0.277623,0.182464,0.048543,3.122182,0.205901,-0.526724,10.175357,0.007450,0.005321,0.019156,38.542969,-8.730469,52.312500
34.352239,-0.353098,0.161955,0.050848,3.132231,0.119710,-0.536301,10.055647,0.011706,0.007450,0.012771,37.491797,-7.333594,51.300000
34.453159,-0.369025,0.202306,0.057527,3.120796,0.090980,-0.612916,10.228029,0.010642,0.005321,0.012771,38.017383,-9.952734,51.468750
34.555019,-0.163017,0.219721,0.053737,3.124402,0.114922,-0.574608,10.007763,0.012771,0.002128,0.011706,38.017383,-9.952734,51.468750
34.656305,-0.348636,0.186132,0.058249,3.126294,0.181959,-0.574608,10.141838,0.011706,0.002128,0.017028,40.294922,-9.079687,51.637500
34.757326,-0.349487,0.210247,0.060795,3.120753,0.076614,-0.617704,10.146627,0.013835,0.006385,0.013835,37.141406,-9.778125,51.975000
34.859212,-0.067076,0.219976,0.054233,3.117233,0.119710,-0.646434,9.931148,0.012771,0.004257,0.010642,38.367773,-9.952734,51.468750
34.961279,-0.280574,0.221560,0.053328,3.112768,0.253785,-0.555455,10.036493,0.012771,0.005321,0.014899,38.367773,-9.952734,51.468750
35.064559,-0.180763,0.182039,0.050560,3.113935,0.158017,-0.483629,10.113108,0.012771,0.005321,0.012771,38.542969,-8.730469,51.975000
35.166155,-0.622113,0.223742,0.054926,3.117925,0.105345,-0.641646,10.127473,0.013835,0.003193,0.012771,39.243750,-10.476562,50.962500
35.267428,-0.425882,0.203224,0.060843,3.104094,0.158017,-0.641646,10.050859,0.014899,0.003193,0.013835,39.068555,-9.254297,51.131250
35.369452,-0.334974,0.220316,0.063391,3.113342,0.047884,-0.612916,10.108319,0.013835,0.003193,0.014899,39.594141,-10.127344,51.637500
35.470268,0.114778,0.197010,0.060693,3.126021,0.110133,-0.541090,10.050859,0.013835,0.007450,0.012771,38.893359,-9.079687,50.625000
35.572708,-0.297442,0.200969,0.045248,3.108985,0.196325,-0.488417,10.122685,0.014899,0.002128,0.015963,39.068555,-9.254297,51.468750
35.674888,-0.187409,0.204272,0.053365,3.106736,0.114922,-0.593762,10.290279,0.012771,0.002128,0.014899,39.068555,-9.254297,51.468750
35.775952,-0.312830,0.208336,0.052108,3.105966,0.220267,-0.603339,10.074801,0.008514,0.005321,0.012771,38.367773,-9.603516,51.806250
35.877576,-0.595402,0.215412,0.050155,3.107862,0.119710,-0.521936,10.127473,0.011706,0.004257,0.014899,38.192578,-9.428906,52.312500
35.980518,-0.663530,0.206930,0.045126,3.107736,0.181959,-0.512359,10.213664,0.013835,0.001064,0.013835,38.192578,-9.079687,51.637500
36.081451,-0.489606,0.200298,0.054584,3.100077,0.258574,-0.617704,10.175357,0.014899,0.004257,0.013835,39.769336,-9.603516,52.143750
36.182908,-0.582179,0.209135,0.054705,3.105530,0.148441,-0.593762,10.160992,0.017028,0.004257,0.010642,39.769336,-9.603516,52.143750
36.284699,-0.036586,0.214039,0.052737,3.105525,0.129287,-0.569820,10.108319,0.013835,0.003193,0.011706,38.192578,-10.476562,51.637500
36.386319,-0.531917,0.229418,0.060381,3.124500,0.162806,-0.593762,10.108319,0.013835,0.005321,0.013835,38.192578,-10.476562,51.637500
36.487180,-0.429013,0.227241,0.051754,3.121178,0.181959,-0.574608,10.199299,0.012771,0.003193,0.013835,38.192578,-10.476562,51.637500
36.589347,-0.414870,0.214698,0.050635,3.123523,0.162806,-0.555455,10.117896,0.015963,0.002128,0.011706,39.243750,-10.127344,50.625000
36.690888,-0.180478,0.215418,0.042770,3.121649,0.210690,-0.512359,10.065224,0.013835,0.001064,0.012771,38.192578,-10.127344,50.625000
36.791814,-0.304878,0.187502,0.048091,3.108150,0.229843,-0.521936,10.070012,0.010642,0.004257,0.012771,38.542969,-8.381250,50.287500
36.893426,-0.233789,0.202421,0.050542,3.112553,0.181959,-0.497994,10.156203,0.008514,0.004257,0.014899,38.017383,-9.254297,51.468750
36.995145,-0.257204,0.223140,0.055625,3.108352,0.162806,-0.627281,10.160992,0.011706,0.000000,0.013835,37.666992,-9.952734,52.143750
37.096457,-0.272642,0.216040,0.042356,3.120391,0.148441,-0.450110,10.165780,0.012771,0.003193,0.013835,39.243750,-10.127344,51.300000
37.197956,-0.275982,0.194625,0.052727,3.106448,0.114922,-0.569820,10.084377,0.010642,0.008514,0.013835,39.944531,-8.730469,50.962500
37.299618,-0.310135,0.180911,0.057161,3.126940,0.129287,-0.608127,10.194511,0.010642,0.003193,0.013835,39.944531,-8.730469,50.962500
37.401158,-0.345637,0.199794,0.069176,3.116414,0.076614,-0.670376,10.113108,0.015963,0.002128,0.014899,38.718164,-9.254297,51.468750
37.502717,-0.211763,0.178504,0.060364,3.128134,0.119710,-0.641646,10.132261,0.013835,0.001064,0.012771,41.170898,-8.555859,51.806250
37.603983,-0.300574,0.175518,0.050869,3.122705,0.148441,-0.541090,10.050859,0.011706,0.002128,0.013835,41.170898,-8.555859,51.806250
37.704931,0.164062,0.224769,0.045510,3.128570,-0.028730,-0.474052,9.964667,0.012771,-0.018092,0.035119,37.491797,-10.476562,52.650000
37.806564,-0.716574,0.202331,0.037822,3.128732,-0.296881,-0.397437,10.208876,0.041505,1.291968,0.238386,37.316602,-8.905078,52.481250
37.907819,-0.692535,0.237964,0.064566,-3.089594,-2.164358,-0.488417,12.052411,-0.151120,1.388813,-0.014899,37.316602,-8.905078,52.481250
38.009596,-0.327124,0.193425,0.002565,-3.002530,-3.423708,-3.179500,9.567230,0.051083,0.588516,0.434203,41.696484,10.825781,58.387500
38.110587,-0.617895,0.111956,0.093682,-2.916305,-2.590526,-2.509123,9.902418,-0.058532,0.456552,0.092588,48.704297,20.953125,52.987500
38.211861,-0.073924,0.023650,0.154254,-2.987419,-3.758897,-1.072602,9.476250,0.339488,1.826209,0.161762,43.623633,27.413672,50.456250
38.314443,-0.289635,-0.031006,0.134332,2.997506,-8.116344,-3.021482,5.090073,-0.608736,6.375768,-0.008514,40.820508,50.112891,42.693750
38.416018,-0.004259,-0.101080,0.220146,2.735681,-8.590396,-0.574608,-0.981623,0.079817,2.210394,0.644920,40.820508,50.112891,42.693750
38.517933,-0.087347,-0.193504,0.233288,2.888233,-8.652645,-1.690306,1.470040,0.202203,0.770498,-0.147927,34.163086,89.225391,8.943750
38.619330,-0.464218,-0.231140,0.226637,2.855286,-10.462661,-1.163582,0.785298,0.533176,0.713030,0.877985,39.944531,89.400000,5.400000
38.721337,-0.378316,-0.353126,0.261334,2.905616,-10.922348,2.365471,-1.101333,0.469323,-0.014899,0.561910,35.039062,92.892187,7.425000
38.822810,-0.344884,-0.454352,0.211971,3.031599,-9.864111,1.450886,-0.344765,-0.259671,-0.124514,-0.382057,30.308789,91.320703,9.281250
38.924348,-0.549356,-0.510967,0.173311,-3.138798,-9.916783,0.598550,1.388637,0.171340,-0.060661,-0.127707,30.308789,91.320703,9.281250
39.025990,-0.503554,-0.571133,0.125153,-3.045454,-9.548076,-0.239420,0.162806,0.113872,0.035119,0.062789,30.308789,91.320703,9.281250
39.127990,-0.114068,-0.629009,0.079335,-2.946530,-9.165004,-0.167594,-0.105345,0.264992,-0.040441,0.039376,31.710352,87.828516,7.256250
39.229584,-0.478238,-0.671134,0.005143,-2.852229,-10.261548,0.770933,0.660800,0.000000,-0.121322,-0.014899,28.907227,88.177734,6.918750
39.331048,-0.130080,-0.689159,-0.086270,-2.746675,-9.911995,-0.081403,0.387861,-0.046826,0.106422,0.125578,30.659180,89.574609,8.943750
39.432839,-0.330489,-0.699111,-0.168582,-2.649806,-9.821015,-0.124498,0.268151,-0.001064,0.006385,0.011706,30.308789,88.177734,8.943750
39.534732,-0.274255,-0.689843,-0.250781,-2.551634,-10.208876,0.234632,0.383072,0.018092,-0.001064,0.043633,32.235937,88.701562,9.112500
39.636743,0.015720,-0.663306,-0.331086,-2.452473,-9.787496,0.320823,0.225055,0.044697,0.028734,-0.009578,30.659180,88.876172,8.943750
39.738497,-0.342451,-0.609080,-0.412295,-2.343780,-9.931148,0.004788,0.651223,-0.015963,-0.045762,-0.034055,30.834375,89.400000,10.462500
39.839896,-0.358170,-0.533973,-0.485868,-2.226562,-9.801862,0.229843,0.550666,0.012771,-0.027670,0.030863,31.009570,89.923828,9.618750
39.941646,-0.355971,-0.433798,-0.546279,-2.102038,-9.581595,0.354342,0.632069,0.061725,0.007450,0.040441,30.308789,88.177734,10.293750
40.043943,-0.415223,-0.301219,-0.590757,-1.970801,-9.849746,0.292093,0.641646,0.022349,-0.024477,-0.008514,30.483984,88.701562,9.112500
40.145436,-0.119511,-0.148135,-0.602033,-1.832313,-9.787496,-0.038307,0.775721,0.019156,0.002128,0.012771,30.133594,90.447656,9.450000
40.247826,-0.228534,-0.040608,-0.526217,-1.765269,-9.595960,0.205901,0.737414,-0.013835,0.004257,-0.037248,31.009570,88.177734,10.293750
40.349358,-0.389674,-0.048132,-0.373721,-1.737047,-9.662998,-0.138864,0.723049,0.008514,-0.017028,-0.032991,31.009570,88.177734,10.293750
40.450664,-0.061406,-0.018859,-0.227394,-1.702801,-9.682152,0.043096,0.670376,0.063853,0.046826,0.043633,31.009570,88.177734,10.293750
40.551689,0.267221,0.000299,-0.094975,-1.683482,-9.682152,0.114922,0.723049,-0.011706,-0.015963,-0.002128,30.133594,88.003125,10.800000
40.653669,-0.170713,-0.000087,-0.006194,-1.662117,-9.835380,0.038307,0.727837,0.000000,-0.006385,0.004257,30.834375,87.653906,9.450000
40.755149,-0.400483,0.016791,0.072486,-1.653462,-9.835380,0.081403,0.617704,0.028734,0.011706,0.012771,30.133594,89.749219,11.137500
40.858066,-0.317567,0.026638,0.125150,-1.648747,-9.701305,0.162806,0.641646,0.004257,0.001064,0.004257,30.133594,89.749219,11.137500
40.958892,-0.175480,0.015427,0.133103,-1.649807,-9.552865,0.057461,0.665588,0.031927,0.012771,0.029798,30.834375,88.352344,9.787500
41.060867,-0.100897,0.019407,0.125943,-1.626849,-9.753978,0.138864,0.627281,0.014899,0.007450,0.014899,31.184766,89.050781,9.112500
41.162559,-0.041420,0.010960,0.113724,-1.627097,-9.883264,0.019154,0.526724,-0.002128,-0.010642,0.010642,30.308789,88.177734,8.268750
41.263927,-0.144270,0.013417,0.097222,-1.641407,-9.576807,0.071826,0.770933,0.035119,0.022349,0.018092,30.308789,88.177734,8.268750
41.365141,0.209470,0.024979,0.123519,-1.627995,-9.696517,0.158017,0.536301,0.029798,0.008514,0.029798,30.659180,88.526953,9.956250
41.466940,-0.144648,0.014700,0.123993,-1.635618,-9.806650,0.004788,0.641646,-0.019156,-0.018092,0.002128,29.783203,86.955469,8.437500
41.568968,-0.106202,0.006707,0.123083,-1.645036,-9.801862,0.009577,0.665588,-0.007450,-0.045762,-0.019156,30.308789,89.225391,9.281250
41.670139,-0.383794,0.004573,0.102589,-1.633042,-9.782708,-0.023942,0.550666,0.038312,0.012771,0.014899,32.761523,88.526953,10.293750
41.772244,-0.016962,0.024977,0.120333,-1.630510,-9.739612,0.158017,0.670376,-0.005321,-0.031927,-0.017028,30.483984,86.955469,9.112500
41.873507,-0.226019,0.005172,0.089701,-1.626157,-9.797073,-0.052672,0.646434,0.010642,0.012771,-0.034055,30.483984,89.050781,8.437500
41.975477,-0.557420,0.004177,0.077587,-1.655552,-9.797073,0.000000,0.737414,0.005321,-0.019156,0.019156,31.184766,89.400000,11.137500
42.076232,-0.413644,-0.000671,0.098513,-1.670261,-9.615114,-0.124498,0.972046,0.017028,0.013835,0.022349,31.184766,89.400000,11.137500
42.178393,-0.413222,0.003711,0.128646,-1.645515,-9.777920,-0.014365,0.531513,0.044697,0.032991,0.029798,31.184766,86.606250,11.137500
42.280445,-0.156112,0.020266,0.147744,-1.656180,-9.892841,0.057461,0.928950,-0.046826,-0.011706,-0.009578,31.359961,86.431641,10.631250
42.381467,-0.158840,-0.011146,0.137875,-1.641389,-9.983821,-0.215478,0.742203,0.048954,0.061725,0.012771,30.483984,88.003125,11.137500
42.483502,-0.273985,-0.020265,0.148380,-1.642161,-9.883264,-0.387861,0.837971,0.000000,0.029798,0.064918,32.761523,87.479297,10.968750
42.585659,-0.058972,0.003568,0.142553,-1.643474,-8.930372,-0.234632,0.435745,0.107487,-0.013835,-0.037248,31.535156,89.050781,11.137500
42.686324,-0.042599,0.006927,0.151967,-1.633170,-9.567230,-0.038307,0.679953,-0.047890,-0.063853,-0.072367,31.535156,89.050781,11.137500
42.788144,0.256435,-0.049775,0.137761,-1.657089,-9.366117,-0.809240,0.852336,0.128771,0.158569,0.032991,32.586328,88.003125,10.800000
42.889407,-0.123925,-0.009000,0.121274,-1.679687,-9.433155,-0.248997,1.125275,0.079817,0.056404,0.031927,30.483984,88.003125,11.137500
42.990235,-0.120062,0.002297,0.140832,-1.658332,-9.830592,-0.067038,0.737414,0.035119,0.069175,0.011706,31.885547,88.701562,12.487500
43.092130,0.162046,-0.058448,0.165736,-1.636137,-9.490615,-0.612916,0.550666,-0.019156,-0.011706,-0.083009,31.885547,88.701562,12.487500
43.193773,0.099585,-0.001517,0.155350,-1.624607,-10.060435,-0.086191,0.411803,0.054275,0.133028,-0.011706,30.483984,88.701562,10.800000
43.295433,0.047334,-0.043224,0.188629,-1.617760,-10.314221,-0.488417,0.263362,-0.067046,-0.026606,-0.008514,33.287109,88.701562,11.812500
43.396360,-0.043983,-0.037542,0.180242,-1.615285,-9.830592,-0.474052,0.555455,-0.124514,-0.045762,0.134092,32.586328,90.098437,11.812500
43.498033,-0.190279,-0.036841,0.155965,-1.645082,-9.629479,-0.387861,0.818817,0.021284,0.017028,0.054275,32.586328,90.098437,11.812500
43.599916,-0.362803,-0.011124,0.156312,-1.635555,-9.600749,-0.148441,0.579397,0.110679,0.107487,0.106422,32.586328,90.098437,11.812500
43.701141,-0.184860,0.031757,0.180492,-1.617466,-9.667786,0.272939,0.512359,0.080881,0.089395,0.063853,33.111914,87.828516,10.293750
43.803635,-0.071156,0.029454,0.248492,-1.608542,-9.902418,0.225055,0.167594,-0.025541,-0.032991,-0.020220,29.608008,89.574609,10.968750
43.904979,-0.063943,-0.001073,0.239047,-1.604019,-9.725247,-0.148441,0.363919,-0.009578,-0.031927,-0.039376,30.133594,89.400000,11.475000
44.005868,-0.126706,-0.013097,0.205030,-1.625009,-9.763554,-0.210690,0.574608,0.027670,0.002128,-0.039376,31.710352,88.177734,10.631250
44.108232,0.523050,0.007130,0.190850,-1.623330,-9.916783,-0.019154,0.426168,0.031927,0.064918,0.020220,32.060742,89.923828,10.968750
44.209494,-0.269543,-0.008082,0.215149,-1.587661,-9.533711,-0.148441,0.110133,0.003193,-0.017028,-0.036184,31.184766,88.701562,9.112500
44.310821,-0.152224,-0.036047,0.205781,-1.615579,-9.725247,-0.440533,0.296881,0.018092,-0.004257,-0.113872,32.761523,89.923828,10.968750
44.413001,-0.105991,-0.048808,0.180236,-1.608643,-10.002975,-0.565032,0.407014,0.046826,0.020220,0.031927,32.060742,87.828516,10.293750
44.513780,0.058504,-0.015330,0.184142,-1.637093,-9.629479,-0.244209,0.565032,0.020220,-0.001064,0.081945,32.411133,89.923828,11.306250
44.615772,-0.211597,0.003928,0.199364,-1.613649,-9.686940,-0.062249,0.407014,0.025541,-0.018092,0.024477,31.535156,88.003125,10.800000
44.717381,0.050279,-0.024879,0.184113,-1.619791,-9.816227,-0.383072,0.526724,0.010642,0.022349,0.013835,32.936719,88.352344,10.462500
44.819311,-0.361956,0.005633,0.182907,-1.612512,-9.710882,-0.134075,0.426168,0.018092,0.013835,0.012771,32.936719,88.352344,10.462500
44.920523,-0.277296,-0.016937,0.160008,-1.624708,-9.634267,-0.268151,0.483629,0.008514,0.000000,0.017028,33.111914,88.177734,9.956250
45.021275,0.066015,-0.020171,0.149825,-1.615642,-9.739612,-0.258574,0.416591,0.021284,0.029798,0.044697,30.834375,89.050781,9.450000
45.122168,-0.106737,0.005359,0.164631,-1.607747,-9.715670,0.114922,0.268151,-0.024477,-0.001064,0.071303,31.009570,88.526953,8.943750
45.224815,-0.106202,-0.038021,0.194122,-1.609348,-9.706094,-0.282516,0.363919,0.000000,0.006385,-0.034055,32.586328,90.796875,10.125000
45.325949,-0.222174,-0.044461,0.195434,-1.624089,-9.801862,-0.569820,0.536301,0.026606,0.054275,0.025541,32.235937,89.050781,11.475000
45.427492,-0.396721,0.000034,0.227059,-1.598318,-9.993398,0.043096,0.105345,0.039376,0.100037,0.070239,33.111914,89.225391,10.293750
45.529007,0.092863,0.006918,0.256189,-1.573006,-9.725247,0.023942,0.119710,-0.018092,-0.074496,-0.046826,30.834375,89.400000,9.450000
45.630779,-0.191790,-0.040523,0.232000,-1.605757,-9.725247,-0.502782,0.541090,-0.006385,-0.054275,-0.078753,32.936719,89.050781,10.800000
45.732116,-0.185236,-0.037530,0.187203,-1.611999,-9.797073,-0.416591,0.445322,0.026606,0.034055,0.030863,30.659180,89.574609,10.293750
45.833732,-0.079385,-0.001857,0.205347,-1.591946,-9.801862,-0.124498,0.258574,-0.006385,0.015963,0.034055,31.710352,88.876172,9.956250
45.935835,0.028168,0.016218,0.221534,-1.594656,-9.902418,0.043096,0.119710,0.012771,0.000000,-0.013835,32.936719,88.003125,10.462500
46.037169,0.031396,-0.027183,0.209564,-1.602943,-9.777920,-0.320823,0.426168,-0.017028,-0.069175,-0.019156,32.761523,88.876172,11.306250
46.139054,-0.141239,-0.037423,0.184157,-1.628557,-9.509769,-0.502782,0.646434,0.043633,0.021284,0.012771,33.111914,88.876172,10.293750
