Time, Altitude, Yaw, Pitch, Roll, Ax, Ay, Az, Pitch_rate, Roll_rate,Yaw_rate, Magx, Magy, Magz0.759505,0.252457,-0.169308,0.027036,0.055134,-0.014365,0.191536,9.768343,0.017028,0.028734,0.007450,31.095703,81.759375,24.461719
0.859760,0.160377,-0.356796,0.034146,0.109996,-0.095768,0.134075,9.639056,0.017028,0.030863,0.006385,32.525391,80.683594,24.117188
0.959796,0.121222,-0.538399,0.024100,0.149010,-0.057461,0.134075,9.634267,0.014899,0.028734,0.008514,32.525391,81.042187,25.495313
1.060679,0.064516,-0.712389,0.004108,0.164810,-0.081403,0.181959,9.720459,0.017028,0.028734,0.008514,31.095703,81.042187,24.117188
1.161638,-0.189731,-0.878264,-0.015901,0.150561,-0.129287,0.148441,9.758766,0.018092,0.030863,0.005321,32.525391,80.325000,26.184375
1.263271,0.030398,-1.033604,-0.025689,0.102122,-0.071826,0.205901,9.710882,0.018092,0.028734,0.007450,30.559570,80.145703,23.944922
1.364468,-0.191867,-1.177017,-0.024064,0.035829,-0.057461,0.282516,9.715670,0.019156,0.030863,0.007450,30.380859,81.400781,24.806250
1.466444,-0.039517,-1.207385,-0.015218,0.002301,0.000000,0.158017,9.662998,0.020220,0.030863,0.007450,30.380859,81.400781,24.806250
1.567919,-0.112315,-1.206568,-0.010803,0.004700,-0.043096,0.153229,9.691728,0.015963,0.029798,0.007450,30.380859,81.400781,24.806250
1.669573,-0.247736,-1.209732,-0.011079,0.008604,-0.009577,0.172383,9.777920,0.015963,0.030863,0.007450,30.916992,80.862891,25.323047
1.771493,-0.281477,-1.193915,-0.026276,0.013242,-0.028730,0.258574,9.753978,0.017028,0.030863,0.005321,31.810547,80.683594,24.117188
1.872904,-0.422783,-1.198634,-0.022390,0.029541,-0.138864,0.215478,9.495404,0.015963,0.028734,0.004257,30.916992,80.504297,26.012109
1.973777,-0.167420,-1.199208,-0.013759,0.015746,-0.062249,0.201113,9.677363,0.014899,0.028734,0.008514,31.453125,79.966406,24.461719
2.075613,-0.143052,-1.196795,-0.025091,0.023633,-0.100556,0.306458,9.725247,0.017028,0.031927,0.007450,31.453125,81.400781,25.495313
2.177087,-0.246668,-1.201014,-0.032047,0.019867,-0.033519,0.301669,9.686940,0.018092,0.028734,0.005321,31.453125,81.400781,25.495313
2.278754,-0.459135,-1.206337,-0.029854,0.015578,-0.009577,0.268151,9.528923,0.017028,0.032991,0.007450,31.453125,82.476562,24.461719
2.381106,-0.063916,-1.201514,-0.024395,0.006879,0.038307,0.258574,9.691728,0.014899,0.029798,0.010642,31.453125,82.476562,24.461719
2.483393,-0.035405,-1.201390,-0.027148,0.000316,-0.033519,0.191536,9.706094,0.017028,0.029798,0.006385,31.453125,82.476562,24.461719
2.585218,-0.249837,-1.217839,-0.012146,0.010749,-0.086191,0.196325,9.691728,0.019156,0.029798,0.008514,28.772461,80.145703,24.633984
2.686495,-0.029787,-1.207011,-0.021525,0.024813,-0.143652,0.263362,9.701305,0.020220,0.029798,0.009578,29.844727,79.787109,24.289453
2.788370,-0.131058,-1.217276,-0.015387,0.012700,0.014365,0.177171,9.662998,0.014899,0.030863,0.008514,30.916992,82.297266,24.978516
2.890172,-0.333392,-1.204056,-0.007727,0.024372,-0.119710,0.239420,9.782708,0.015963,0.029798,0.007450,30.202148,80.504297,24.289453
2.991974,-0.076022,-1.198226,-0.028894,0.017760,-0.090980,0.234632,9.634267,0.015963,0.029798,0.007450,30.916992,80.145703,24.289453
3.093112,-0.037680,-1.190031,-0.015739,0.005492,-0.028730,0.220267,9.701305,0.017028,0.026606,0.007450,31.274414,80.145703,24.289453
3.195200,-0.005908,-1.198010,-0.008551,0.005567,-0.071826,0.172383,9.672575,0.018092,0.028734,0.005321,30.738281,80.683594,25.495313
3.296455,0.119492,-1.202148,-0.025972,0.003006,-0.004788,0.191536,9.667786,0.018092,0.031927,0.006385,31.274414,80.504297,25.323047
3.397884,0.072665,-1.192346,-0.015993,0.017479,-0.114922,0.215478,9.749189,0.018092,0.027670,0.005321,31.810547,81.042187,24.806250
3.498796,-0.351657,-1.192576,-0.012178,0.009254,-0.047884,0.114922,9.706094,0.015963,0.028734,0.009578,31.810547,81.042187,24.806250
3.600300,-0.444703,-1.188585,-0.030491,0.018186,-0.090980,0.292093,9.519346,0.015963,0.030863,0.002128,31.810547,81.042187,24.806250
3.701938,-0.134440,-1.200032,-0.015941,0.020293,-0.124498,0.158017,9.543288,0.038312,0.093652,0.006385,30.559570,79.428516,23.944922
3.803013,-0.594584,-1.211109,-0.053642,0.000862,0.038307,0.828394,9.461885,-0.015963,0.015963,-0.020220,30.202148,79.787109,25.323047
3.904253,-0.363449,-1.217002,-0.034445,0.052396,-0.660800,0.454898,9.988609,-0.139413,0.064918,-0.587452,30.202148,79.787109,25.323047
4.005751,-0.126094,-1.232847,0.030274,-0.014595,-0.363919,-1.268927,9.710882,-0.008514,0.024477,-0.522534,31.274414,81.580078,25.323047
4.107028,-0.284133,-1.219644,-0.048395,0.032368,-0.282516,-1.048660,4.299986,0.051083,0.050019,-0.444846,32.882812,78.890625,24.806250
4.208875,-0.409618,-1.196534,0.027615,-0.037856,0.215478,-0.287304,9.452308,0.021284,0.018092,0.023413,31.989258,78.352734,25.667578
4.309869,-0.161374,-1.166781,0.009825,-0.063481,0.828394,-0.785298,9.682152,0.104294,0.135156,0.253285,33.597656,77.097656,26.184375
4.411185,-0.360341,-1.171640,-0.013263,0.011204,0.014365,0.124498,9.548076,0.021284,0.034055,0.045762,31.810547,78.173437,27.217969
4.513004,-0.364490,-1.168853,0.023252,-0.008435,-0.057461,0.201113,9.615114,-0.020220,-0.002128,0.734315,31.989258,77.276953,25.667578
4.614210,-0.164684,-1.207403,-0.017939,0.002703,-0.019154,0.201113,9.782708,0.018092,0.032991,0.007450,29.487305,79.428516,26.356641
4.715544,-0.165781,-1.182063,-0.032708,0.006506,-0.095768,0.866701,9.251195,0.012771,0.065982,0.197946,32.167969,78.890625,26.184375
4.817059,-0.441060,-1.206224,-0.007201,-0.012896,0.086191,0.038307,9.552865,-0.014899,-0.005321,0.008514,30.202148,78.711328,24.978516
4.918727,-0.251791,-1.192641,-0.030181,0.022029,-0.143652,0.287304,9.629479,0.018092,0.026606,0.007450,29.844727,78.711328,26.701172
5.019613,-0.582992,-1.187234,-0.008577,0.011447,-0.076614,0.114922,9.557653,0.013835,0.026606,0.005321,31.989258,78.711328,26.012109
5.120744,-0.578032,-1.182077,0.001562,-0.002020,0.009577,0.009577,9.662998,-0.023413,-0.009578,0.007450,31.989258,78.711328,26.012109
5.222585,-0.161393,-1.178572,0.004436,0.018075,-0.177171,0.057461,9.519346,0.013835,0.034055,0.006385,31.989258,78.711328,26.012109
5.324035,-0.072141,-1.200478,0.001073,-0.004462,0.100556,-0.043096,9.543288,-0.001064,0.011706,-0.043633,29.844727,77.635547,26.012109
5.425768,-0.116692,-1.199207,-0.000112,0.018435,-0.090980,0.057461,9.720459,0.027670,0.040441,-0.153248,31.631836,80.504297,26.012109
5.526896,-0.227965,-1.180792,-0.011529,0.070115,-0.775721,0.574608,9.744401,-0.020220,0.004257,-0.473580,32.167969,77.456250,26.873438
5.629050,-0.461765,-1.176884,-0.008901,0.015404,-0.043096,0.095768,9.797073,0.019156,0.027670,0.008514,32.704102,77.994141,23.944922
5.730415,-0.574064,-1.169965,0.017413,0.033139,0.062249,0.033519,9.801862,0.039376,0.053211,-0.372478,32.704102,77.994141,23.944922
5.832220,-0.406263,-1.164508,-0.008938,0.014311,-0.167594,0.177171,9.763554,0.057468,0.068110,0.002128,33.597656,78.173437,25.839844
5.933895,-0.143354,-1.166657,0.000843,0.031921,-0.301669,0.086191,9.653421,0.022349,0.038312,-0.254350,32.704102,77.994141,22.911328
6.035597,-0.085539,-1.162749,-0.041385,0.028300,-0.071826,0.426168,9.811438,0.050019,0.072367,0.006385,33.418945,78.352734,24.978516
6.137046,-0.335003,-1.164029,-0.019199,0.004097,-0.033519,0.162806,9.864111,0.027670,0.042569,0.008514,32.882812,78.532031,25.839844
6.238529,0.017247,-1.169816,-0.018717,0.014655,-0.114922,0.162806,9.615114,0.014899,0.036184,-0.034055,32.346680,77.276953,26.356641
6.340170,-0.134512,-1.153491,-0.008600,0.011964,-0.100556,0.143652,9.643844,0.037248,0.050019,-0.001064,33.240234,76.739063,24.461719
6.441338,-0.147826,-1.180228,-0.000785,-0.000795,-0.023942,0.095768,9.720459,0.009578,0.023413,0.008514,32.525391,80.325000,26.528906
6.542788,-0.262238,-1.163513,-0.008561,0.017649,-0.153229,0.153229,9.825804,0.048954,0.057468,0.008514,33.061523,76.918359,26.356641
6.644147,0.023305,-1.170410,-0.011823,0.015463,-0.047884,0.143652,9.677363,-0.048954,-0.027670,0.008514,33.418945,78.711328,26.012109
6.745677,-0.129685,-1.161188,-0.000591,0.012545,-0.028730,0.057461,9.581595,0.020220,0.030863,0.005321,34.133789,77.994141,27.390234
6.847318,-0.206112,-1.153196,-0.007761,-0.002196,0.014365,0.086191,9.682152,0.013835,0.027670,0.004257,34.133789,77.994141,27.390234
6.949115,-0.362474,-1.161276,-0.006688,0.002442,0.004788,0.081403,9.758766,0.014899,0.024477,0.008514,34.133789,77.994141,27.390234
7.050806,-0.235576,-1.168153,0.004810,0.011187,0.000000,0.062249,9.600749,0.010642,0.022349,0.009578,32.882812,77.814844,25.839844
7.152425,-0.420994,-1.175944,-0.002293,0.007230,-0.043096,0.014365,9.528923,0.019156,0.029798,0.007450,32.525391,78.890625,26.184375
7.253713,-0.235981,-1.175501,-0.005389,-0.004494,0.023942,0.062249,9.682152,0.021284,0.032991,0.007450,32.525391,78.890625,26.184375
7.355632,-0.005992,-1.165474,-0.004772,0.009753,-0.009577,0.071826,9.643844,0.010642,0.022349,0.004257,33.240234,76.739063,26.184375
7.457472,-0.025010,-1.172830,0.001017,0.000394,0.038307,0.043096,9.706094,-0.003193,-0.005321,0.007450,33.776367,79.428516,26.012109
7.558709,-0.375923,-1.152359,0.005332,0.011290,-0.162806,-0.019154,9.835380,0.020220,0.035119,-0.103230,34.133789,78.711328,25.323047
7.660118,-0.107580,-1.147928,-0.002506,0.013402,-0.095768,0.076614,9.567230,0.013835,0.015963,0.004257,33.955078,76.380469,25.150781
7.761997,-0.191582,-1.175722,-0.012440,-0.002247,-0.009577,0.090980,9.691728,0.023413,0.039376,0.006385,32.882812,77.456250,26.528906
7.863581,-0.042965,-1.155763,-0.018139,-0.008329,0.110133,0.129287,9.677363,0.013835,0.026606,0.032991,33.418945,76.559766,24.633984
7.965644,-0.339828,-1.157594,-0.007468,-0.006431,0.105345,0.067038,9.619902,0.014899,0.024477,0.004257,33.955078,77.097656,25.150781
8.067001,-0.336909,-1.153905,0.022413,0.013299,-0.162806,-0.114922,9.615114,0.021284,-0.257542,-0.074496,33.597656,76.021875,26.184375
8.168778,-0.027305,-1.172229,-0.013417,-0.057684,0.555455,-0.009577,9.844957,0.010642,-0.193689,0.004257,33.776367,76.918359,28.079297
8.270695,-0.014835,-1.177019,-0.020930,-0.080285,0.804452,-0.105345,9.682152,0.028734,-0.196881,0.057468,34.312500,75.663281,27.907031
8.371561,-0.278488,-1.191236,-0.030214,-0.088315,0.972046,0.009577,9.892841,0.037248,-0.268185,0.181982,32.704102,74.408203,29.112891
8.473520,-0.338057,-1.206608,-0.057370,-0.127053,1.297657,0.114922,9.533711,0.010642,-0.255414,0.006385,32.704102,74.408203,29.112891
8.574963,-0.334783,-1.223564,-0.059689,-0.169091,1.762132,0.028730,9.538499,0.007450,-0.260735,0.008514,32.704102,74.408203,29.112891
8.676882,-0.318819,-1.232347,-0.076563,-0.198682,1.958457,0.081403,9.476250,0.047890,-0.216038,0.200074,32.704102,69.746484,29.457422
8.778389,-0.333246,-1.232075,-0.081574,-0.216450,2.317587,0.119710,9.457097,0.045762,-0.212845,0.145799,31.810547,68.132812,29.974219
8.879699,-0.101741,-1.280290,-0.078442,-0.295164,2.887407,0.158017,8.686164,0.000000,-0.395891,0.125578,29.844727,65.443359,31.180078
8.981020,-0.050491,-1.283624,-0.083233,-0.301484,3.069367,-0.023942,9.299079,0.039376,-0.183047,0.084074,30.916992,65.801953,30.835547
9.083066,0.051874,-1.319221,-0.090425,-0.366009,3.643975,0.043096,8.868123,0.003193,-0.336295,-0.012771,30.916992,65.801953,30.835547
9.184180,-0.326734,-1.364229,-0.100879,-0.425085,4.108450,0.052672,8.724471,0.009578,-0.130900,-0.009578,30.380859,62.753906,32.385938
9.285844,0.239912,-1.369408,-0.094094,-0.405449,3.950433,0.033519,8.762778,-0.015963,-0.100037,-0.068110,29.844727,60.781641,32.213672
9.387648,-0.383630,-1.355824,-0.087628,-0.412129,4.031836,-0.062249,8.853758,0.046826,-0.188368,0.081945,30.380859,61.319531,31.007812
9.489378,-0.098821,-1.378467,-0.102016,-0.458029,4.309563,0.196325,8.255207,0.103230,-0.425690,0.127707,31.095703,59.885156,32.730469
9.591365,-0.275838,-1.399518,-0.108746,-0.505946,4.860229,0.158017,8.398859,-0.018092,-0.226680,-0.062789,31.095703,58.092188,32.041406
9.692817,0.146017,-1.460102,-0.058484,-0.573976,5.315128,-0.028730,8.044518,-0.012771,-0.080881,-0.044697,30.380859,55.582031,33.075000
9.793992,-0.102627,-1.445115,-0.083720,-0.567097,5.214571,0.052672,8.130709,0.028734,0.034055,0.031927,30.202148,55.402734,31.524609
9.895937,-0.139988,-1.454463,-0.091346,-0.574205,5.329493,0.148441,8.063671,0.046826,-0.008514,0.062789,30.202148,55.402734,31.524609
9.997329,0.026984,-1.448925,-0.080050,-0.619111,5.928043,0.407014,7.469909,0.019156,-0.408662,0.021284,31.274414,55.761328,32.213672
10.099244,-0.053595,-1.469363,-0.018237,-0.626010,5.248090,0.177171,8.202535,0.110679,-0.239450,0.160698,29.487305,53.251172,30.491016
10.200997,-0.073087,-1.511679,-0.039102,-0.691961,6.162675,-0.047884,7.589619,0.014899,-0.169212,0.006385,29.487305,53.251172,30.491016
10.302608,-0.327881,-1.543232,-0.032364,-0.708837,6.272808,0.000000,7.311892,-0.076624,-0.375671,-0.102166,29.487305,53.251172,30.491016
10.403826,-0.045750,-1.556914,-0.028486,-0.751104,6.607997,0.052672,6.991069,-0.002128,0.004257,-0.025541,30.738281,47.334375,30.318750
10.505342,-0.345447,-1.527970,-0.036153,-0.745286,6.540959,-0.076614,7.062895,0.020220,0.036184,0.006385,31.810547,47.334375,31.007812
10.607297,0.016945,-1.551996,-0.006944,-0.774374,6.900089,-0.057461,6.847417,0.071303,-0.100037,0.077688,31.095703,45.900000,32.041406
10.709409,-0.041799,-1.547011,0.017087,-0.759952,6.655881,-0.459687,7.048530,-0.051083,-0.135156,-0.060661,30.202148,46.796484,31.524609
10.811269,-0.270473,-1.565944,0.003334,-0.768265,6.789956,-0.033519,7.086837,0.053211,-0.127707,0.042569,31.453125,45.900000,31.696875
10.912600,-0.172059,-1.587971,0.013107,-0.819270,6.957550,-0.028730,6.646304,-0.048954,-0.181982,-0.052147,30.738281,44.107031,30.663281
11.014470,-0.497894,-1.603689,0.037729,-0.848975,7.455544,0.043096,6.272808,0.013835,-0.296919,0.004257,30.202148,42.851953,30.835547
11.115828,-0.055958,-1.602524,0.035362,-0.879113,7.465121,0.033519,6.354211,0.013835,-0.303304,0.009578,31.274414,42.493359,28.423828
11.217503,-0.150862,-1.594712,0.059125,-0.919372,7.738060,-0.038307,5.947197,0.017028,-0.179854,0.003193,33.240234,39.803906,28.596094
11.319020,0.008405,-1.638340,0.076379,-0.956360,7.977480,0.076614,5.540183,0.058532,-0.015963,0.042569,33.418945,39.983203,28.768359
11.420952,0.086877,-1.615322,0.082597,-0.913884,7.805097,0.043096,5.789180,0.034055,0.078753,0.023413,30.559570,40.341797,29.801953
11.522580,0.056453,-1.641819,0.117226,-0.942131,7.661445,-0.555455,5.468357,0.001064,-0.656626,-0.011706,30.559570,40.341797,29.801953
11.623961,-0.029006,-1.683187,0.171070,-0.943062,7.264008,0.167594,6.449979,-0.119193,-0.675782,-0.061725,30.202148,39.266016,29.457422
11.725869,-0.102566,-1.719234,0.257935,-1.061022,8.633491,0.172383,4.453215,0.010642,-0.315010,0.007450,29.129883,33.169922,28.079297
11.827356,-0.263772,-1.754476,0.308970,-1.075564,8.671798,0.081403,4.338293,-0.181982,-0.363965,-0.078753,29.129883,33.169922,28.079297
11.928780,-0.046907,-1.752562,0.353362,-1.111478,8.935161,0.067038,4.012682,0.015963,-0.155377,0.008514,29.129883,33.169922,28.079297
12.030449,-0.355775,-1.701272,0.363007,-1.187095,9.145850,-0.158017,3.457227,0.021284,-0.077688,0.005321,31.095703,29.404687,24.461719
12.132264,-0.033864,-1.713626,0.355174,-1.167669,9.083601,-0.095768,3.591302,0.086202,-0.013835,0.035119,31.274414,27.791016,23.944922
12.233281,-0.197469,-1.718077,0.371121,-1.176267,9.131485,-0.009577,3.462016,0.025541,0.059597,0.007450,30.023438,27.611719,24.806250
12.334915,-0.073431,-1.700484,0.363286,-1.191764,9.265560,-0.205901,3.366248,-0.126643,-0.268185,-0.074496,30.202148,27.791016,23.255859
12.436765,0.401489,-1.713742,0.419607,-1.218227,9.289502,-0.047884,3.102885,-0.083009,-0.052147,-0.025541,30.559570,26.356641,23.255859
12.538565,0.027909,-1.709193,0.400550,-1.236274,9.241618,0.047884,2.911349,0.002128,-0.119193,0.005321,30.023438,26.894531,22.739062
12.640499,-0.196571,-1.701608,0.415913,-1.271850,9.370905,-0.014365,2.715025,-0.134092,-0.360772,-0.050019,32.346680,27.073828,22.566797
12.742008,0.149825,-1.719208,0.477987,-1.276288,9.361328,0.124498,2.451662,0.020220,0.032991,0.000000,30.738281,22.950000,21.705469
12.843930,0.030065,-1.711092,0.516692,-1.299684,9.342175,0.000000,2.269703,-0.018092,-0.272441,-0.004257,30.738281,22.950000,21.705469
12.945697,0.185136,-1.688863,0.567616,-1.366467,9.725247,0.124498,1.766921,0.024477,-0.008514,-0.002128,32.882812,23.308594,21.016406
13.047496,0.275374,-1.691939,0.497886,-1.325675,9.485827,-0.067038,2.250550,0.023413,-0.069175,-0.024477,31.095703,24.025781,19.293750
13.148961,0.136702,-1.688839,0.485953,-1.326755,9.576807,0.009577,2.183512,0.074496,0.240515,0.076624,31.453125,22.232812,19.638281
13.250092,-0.318787,-1.715689,0.431638,-1.276157,9.548076,0.196325,2.595315,0.108551,0.730058,0.031927,31.453125,22.232812,19.638281
13.351722,0.218455,-1.714781,0.314063,-1.193553,9.045294,0.162806,3.519476,0.064918,0.651305,-0.091523,30.916992,25.639453,20.499609
13.453730,0.153384,-1.729317,0.269612,-1.142682,8.724471,0.339977,4.386177,-0.201138,1.019527,-0.030863,31.095703,26.177344,23.083594
13.556109,0.259172,-1.689110,0.185344,-1.040263,8.312668,0.095768,5.090073,0.004257,1.382427,0.109615,31.453125,31.197656,25.495313
13.657891,0.007154,-1.665773,0.050835,-0.923023,6.785168,0.440533,7.283161,0.169212,1.079123,0.227744,31.095703,37.652344,27.907031
13.759313,-0.036861,-1.604056,-0.021145,-0.772844,6.540959,-0.689530,8.087613,0.199010,0.913104,0.129835,31.810547,44.107031,31.007812
13.861095,0.120464,-1.525256,-0.128588,-0.625897,5.003881,0.172383,8.418013,0.078753,1.103601,0.071303,31.810547,44.107031,31.007812
13.962362,-0.125847,-1.446244,-0.177958,-0.470314,2.930503,0.062249,8.350975,0.034055,1.286647,0.004257,30.738281,58.092188,32.730469
14.063889,0.394239,-1.364730,-0.161685,-0.353641,2.652775,-0.033519,8.757990,0.046826,0.922682,0.138349,31.095703,64.188281,32.041406
14.165552,0.238596,-1.278253,-0.126236,-0.203460,1.417367,0.023942,9.591172,0.064918,0.929068,0.176661,31.274414,68.670703,31.180078
14.267660,-0.119460,-1.207018,-0.062941,-0.066861,0.392649,-0.138864,9.706094,0.029798,0.822645,0.067046,32.346680,74.408203,27.734766
14.369740,0.041641,-1.195070,-0.005923,-0.031472,0.335188,-0.095768,9.639056,-0.019156,0.086202,-0.024477,31.095703,77.814844,26.184375
14.471593,0.591926,-1.205713,-0.046008,-0.017862,0.311246,0.239420,9.691728,-0.008514,0.123450,-0.046826,30.380859,77.097656,26.873438
14.573577,0.047655,-1.195041,-0.047858,-0.019905,0.253785,0.181959,9.629479,-0.048954,0.011706,-0.038312,31.631836,78.352734,25.323047
14.674813,-0.075710,-1.186077,-0.003418,0.018479,-0.134075,0.090980,9.725247,0.020220,0.030863,0.010642,31.631836,78.352734,25.323047
14.776368,0.124657,-1.199232,-0.023347,0.000758,0.105345,0.124498,9.730036,0.005321,0.011706,0.035119,31.631836,78.711328,26.356641
14.878011,0.176150,-1.178686,-0.011993,0.017143,-0.033519,0.177171,9.591172,0.023413,0.036184,0.007450,31.631836,79.069922,24.978516
14.979413,0.056414,-1.192652,-0.006826,0.003915,-0.033519,0.062249,9.576807,0.037248,0.054275,0.008514,32.167969,80.325000,27.217969
15.081389,0.157052,-1.203669,-0.019593,0.018830,-0.076614,0.220267,9.730036,0.017028,0.032991,0.008514,30.380859,80.325000,25.495313
15.183179,0.077130,-1.196272,-0.007913,0.014809,-0.076614,0.124498,9.816227,0.014899,0.028734,0.007450,31.274414,79.787109,26.012109
15.285002,0.192567,-1.195089,-0.012460,0.022035,-0.110133,0.177171,9.758766,0.022349,0.030863,0.009578,31.274414,79.787109,26.012109
15.386924,0.045130,-1.180626,-0.013544,0.017219,-0.110133,0.186748,9.591172,0.022349,0.028734,0.008514,32.167969,78.532031,25.150781
15.488229,0.351487,-1.188576,-0.025001,0.018550,-0.057461,0.248997,9.686940,0.021284,0.034055,0.008514,31.095703,77.814844,26.184375
15.589911,0.248125,-1.192032,-0.014361,0.013597,-0.014365,0.148441,9.859322,0.021284,0.032991,0.011706,31.989258,79.787109,24.289453
15.691491,0.076027,-1.221382,-0.010800,0.017016,-0.071826,0.114922,9.821015,0.020220,0.032991,0.011706,28.951172,79.249219,25.150781
15.793153,0.282084,-1.188778,-0.029923,0.014805,0.000000,0.263362,9.835380,0.018092,0.034055,0.006385,31.453125,78.173437,25.839844
15.894662,0.054088,-1.174144,-0.011897,0.021740,-0.143652,0.162806,9.629479,0.018092,0.029798,0.008514,31.453125,78.173437,25.839844
15.996242,0.106865,-1.175753,-0.006834,0.006570,-0.076614,0.114922,9.634267,0.018092,0.027670,0.010642,31.453125,78.173437,25.839844
16.098163,0.077448,-1.208112,-0.022078,0.015651,-0.043096,0.172383,9.715670,0.018092,0.030863,0.005321,30.916992,81.221484,25.667578
16.199639,0.117757,-1.188338,-0.005996,0.003765,0.019154,0.067038,9.758766,0.017028,0.026606,0.008514,31.631836,80.145703,26.356641
16.301158,0.281157,-1.199231,-0.009565,0.024894,-0.158017,0.162806,9.466673,0.018092,0.032991,0.007450,31.095703,80.325000,26.873438
16.402946,0.032149,-1.201886,-0.009285,0.024703,-0.167594,0.162806,9.643844,0.015963,0.031927,0.008514,31.274414,81.580078,26.701172
16.504202,-0.082180,-1.191517,-0.008133,0.014784,-0.076614,0.129287,9.619902,0.022349,0.030863,0.009578,31.631836,79.787109,24.633984
16.606006,-0.135468,-1.205736,-0.002631,-0.005135,-0.009577,0.052672,9.744401,0.018092,0.031927,0.008514,30.916992,80.862891,27.045703
16.707561,0.159920,-1.206041,-0.012081,0.021280,-0.110133,0.167594,9.792285,0.019156,0.032991,0.006385,30.380859,79.966406,27.562500
16.809192,-0.241906,-1.194589,-0.012279,0.014945,-0.100556,0.158017,9.758766,0.018092,0.028734,0.009578,30.380859,79.966406,26.528906
16.911061,-0.052331,-1.187890,-0.005226,0.012719,-0.028730,0.148441,9.643844,0.015963,0.031927,0.010642,31.095703,78.890625,24.117188
17.013328,0.136420,-1.189501,-0.019520,0.007628,-0.047884,0.162806,9.744401,0.019156,0.027670,0.006385,31.095703,78.890625,24.117188
17.114419,0.110928,-1.218912,-0.005230,0.016351,-0.033519,0.129287,9.595960,0.019156,0.030863,0.005321,29.844727,80.145703,24.978516
17.216233,-0.099292,-1.189120,-0.007304,0.016912,-0.143652,0.138864,9.682152,0.017028,0.027670,0.010642,30.559570,79.069922,26.701172
17.318231,0.487090,-1.202799,-0.001741,0.014614,-0.067038,0.071826,9.667786,0.018092,0.028734,0.010642,30.559570,79.069922,26.701172
17.419954,0.155218,-1.198425,-0.000970,0.015527,-0.110133,0.114922,9.662998,0.015963,0.028734,0.007450,30.916992,81.221484,25.667578
17.521761,0.038047,-1.187162,-0.012962,-0.002115,0.043096,0.114922,9.701305,0.020220,0.030863,0.008514,32.346680,81.221484,26.012109
17.623233,-0.339267,-1.203303,-0.011064,0.022529,-0.129287,0.148441,9.878476,0.023413,0.028734,0.007450,30.023438,80.683594,25.495313
17.724908,0.004587,-1.207443,-0.016474,0.006633,-0.009577,0.172383,9.658209,0.014899,0.027670,0.009578,30.023438,80.683594,25.495313
17.826565,-0.220126,-1.193412,-0.014305,0.003386,-0.047884,0.162806,9.610325,0.018092,0.029798,0.009578,30.738281,79.607812,26.528906
17.928493,-0.257768,-1.193836,-0.013453,0.013640,-0.043096,0.143652,9.730036,0.018092,0.029798,0.012771,30.738281,79.249219,25.495313
18.030245,-0.300265,-1.206509,-0.022291,0.014289,-0.090980,0.234632,9.624691,0.015963,0.029798,0.004257,29.129883,78.352734,25.667578
18.132098,0.076149,-1.193018,-0.020279,0.017689,-0.071826,0.239420,9.504981,0.014899,0.032991,0.008514,31.095703,78.890625,25.495313
18.233658,-0.354756,-1.207501,-0.018336,0.007785,-0.028730,0.100556,9.682152,0.017028,0.034055,0.007450,30.380859,79.249219,25.839844
18.335324,-0.129134,-1.209477,-0.014619,0.005603,-0.057461,0.196325,9.662998,0.018092,0.031927,0.007450,29.308594,79.607812,25.495313
18.437005,-0.338657,-1.199382,0.001082,0.019273,-0.129287,0.086191,9.686940,0.019156,0.031927,0.006385,30.380859,78.532031,26.184375
18.538567,-0.172599,-1.201842,-0.026748,0.006275,0.009577,0.186748,9.672575,0.020220,0.028734,0.005321,30.202148,78.352734,25.667578
18.639868,-0.138626,-1.220880,-0.002287,0.012663,-0.057461,0.110133,9.691728,0.018092,0.032991,0.004257,29.666016,80.683594,26.528906
18.741625,-0.389772,-1.210512,-0.022434,0.009741,-0.067038,0.196325,9.686940,0.021284,0.028734,0.007450,29.666016,80.683594,26.528906
18.843147,-0.316502,-1.208904,-0.024090,0.024688,-0.129287,0.215478,9.639056,0.021284,0.029798,0.007450,29.666016,80.683594,26.528906
18.945807,-0.190314,-1.210207,-0.012034,0.011147,-0.062249,0.129287,9.648633,0.018092,0.030863,0.008514,30.380859,78.532031,26.873438
19.046982,-0.471214,-1.183606,-0.018322,0.020181,-0.158017,0.186748,9.715670,0.019156,0.029798,0.009578,30.738281,77.456250,26.528906
19.148180,-0.268640,-1.204655,-0.007524,0.014258,-0.143652,0.158017,9.749189,0.014899,0.027670,0.008514,29.308594,79.249219,25.495313
19.249583,-0.632850,-1.219067,-0.022668,0.023231,-0.119710,0.215478,9.691728,0.017028,0.026606,0.006385,28.593750,79.249219,26.184375
19.352462,-0.096009,-1.197427,-0.008477,0.007927,-0.100556,0.138864,9.653421,0.019156,0.025541,0.009578,31.631836,78.711328,26.012109
19.455686,-0.174769,-1.200334,-0.006617,0.018473,-0.100556,0.110133,9.706094,0.015963,0.030863,0.004257,30.202148,80.504297,26.012109
19.557174,-0.327430,-1.204233,-0.020327,0.008423,-0.071826,0.153229,9.643844,0.019156,0.028734,0.007450,30.202148,80.504297,26.012109
19.659507,-0.308429,-1.209082,-0.011864,0.007550,-0.019154,0.196325,9.672575,0.014899,0.028734,0.006385,30.202148,80.145703,27.390234
19.762280,-0.267255,-1.197186,-0.014673,-0.000979,-0.023942,0.186748,9.782708,0.014899,0.028734,0.006385,30.202148,79.069922,25.667578
19.863194,-0.105696,-1.206620,-0.012686,0.021014,-0.110133,0.138864,9.662998,0.013835,0.031927,0.006385,30.202148,79.428516,25.323047
19.964769,-0.515031,-1.195037,-0.009137,-0.001873,-0.043096,0.086191,9.557653,0.015963,0.028734,0.006385,30.202148,78.352734,26.012109
20.066874,-0.287184,-1.180332,-0.016347,0.004252,-0.081403,0.134075,9.667786,0.013835,0.027670,0.007450,31.810547,79.966406,26.528906
20.168583,-0.126924,-1.190162,-0.026154,0.021008,-0.095768,0.215478,9.629479,0.021284,0.032991,0.006385,31.810547,79.966406,26.528906
20.270409,-0.456279,-1.181534,-0.017745,0.016628,-0.057461,0.220267,9.639056,0.019156,0.030863,0.006385,31.810547,79.966406,26.528906
20.372216,-0.123510,-1.201748,-0.007693,0.010001,-0.043096,0.172383,9.768343,0.020220,0.027670,0.007450,29.844727,78.352734,24.978516
20.473511,-0.395178,-1.199899,-0.017604,0.014180,-0.043096,0.205901,9.720459,0.014899,0.024477,0.005321,30.559570,79.069922,25.667578
20.575167,-0.421457,-1.190343,-0.008813,0.008962,-0.110133,0.134075,9.811438,0.017028,0.029798,0.009578,31.274414,80.504297,24.633984
20.676909,-0.237129,-1.155583,-0.013990,0.018620,-0.158017,0.177171,9.595960,0.018092,0.032991,0.008514,32.882812,77.456250,25.150781
20.778898,-0.168609,-1.202879,-0.019325,0.018768,-0.043096,0.234632,9.643844,0.014899,0.035119,0.007450,29.666016,79.966406,26.184375
20.880039,-0.324570,-1.211876,-0.011489,0.007287,-0.196325,0.134075,8.738836,0.019156,0.043633,0.008514,30.559570,80.145703,26.356641
20.981599,-0.056238,-1.166887,-0.013070,0.008271,-0.043096,0.191536,9.868899,0.011706,0.024477,0.009578,32.704102,79.069922,26.012109
21.083401,-0.452570,-1.196516,-0.017821,0.014828,-0.023942,0.191536,9.677363,0.011706,0.023413,0.006385,30.559570,79.787109,26.356641
21.184803,-0.332481,-1.209878,-0.010033,0.008040,-0.009577,0.134075,9.533711,0.010642,0.026606,0.007450,29.844727,78.352734,24.633984
21.286421,-0.089675,-1.197928,-0.005324,0.010648,-0.119710,0.100556,9.639056,0.014899,0.027670,0.006385,29.844727,78.352734,24.633984
21.388199,-0.126214,-1.202845,-0.020026,0.013847,-0.033519,0.177171,9.715670,0.013835,0.026606,0.005321,30.380859,78.890625,25.150781
21.490381,-0.061402,-1.199006,-0.009976,0.003359,0.019154,0.090980,9.610325,0.013835,0.028734,0.006385,30.380859,79.249219,26.184375
21.592325,-0.193312,-1.205831,-0.009695,0.026368,-0.129287,0.134075,9.686940,0.018092,0.030863,0.010642,30.380859,79.249219,26.184375
21.694465,-0.514045,-1.195507,-0.009863,0.021664,-0.062249,0.158017,9.825804,0.017028,0.028734,0.006385,31.453125,79.607812,26.184375
21.796119,-0.042321,-1.205122,-0.013196,-0.002130,0.000000,0.186748,9.701305,0.018092,0.026606,0.008514,29.844727,79.787109,26.356641
21.897776,0.084832,-1.192495,-0.015736,0.029609,-0.129287,0.205901,9.600749,0.019156,0.032991,0.004257,31.453125,79.607812,25.839844
21.999364,-0.120668,-1.195225,-0.019735,0.016831,-0.047884,0.177171,9.634267,0.020220,0.028734,0.004257,31.631836,80.145703,25.667578
22.100998,0.116166,-1.194245,-0.007020,0.015173,-0.143652,0.167594,9.686940,0.015963,0.030863,0.008514,30.202148,78.711328,25.667578
22.202364,-0.147041,-1.198408,-0.004915,0.009666,-0.071826,0.067038,9.734824,0.015963,0.030863,0.005321,30.380859,79.249219,25.839844
22.303898,-0.473678,-1.199942,-0.005690,0.012212,-0.081403,0.134075,9.667786,0.014899,0.028734,0.007450,31.095703,81.042187,26.528906
22.406049,-0.136133,-1.209551,-0.009250,0.014113,-0.043096,0.100556,9.629479,0.017028,0.029798,0.004257,31.095703,81.042187,26.528906
22.507300,-0.050726,-1.196138,-0.002819,0.014791,-0.124498,0.134075,9.672575,0.018092,0.029798,0.007450,31.095703,81.042187,26.528906
22.608870,-0.006353,-1.179722,-0.019743,0.016593,-0.114922,0.225055,9.792285,0.018092,0.027670,0.005321,31.631836,79.428516,25.667578
22.710720,-0.134774,-1.202961,-0.006464,0.016003,-0.071826,0.086191,9.710882,0.015963,0.026606,0.009578,29.844727,79.787109,26.356641
22.812443,0.052697,-1.209245,-0.008575,0.019249,-0.158017,0.148441,9.715670,0.013835,0.029798,0.006385,29.844727,79.787109,26.356641
22.914105,-0.137122,-1.200775,-0.008010,0.009399,-0.019154,0.090980,9.730036,0.022349,0.028734,0.008514,30.380859,79.966406,26.184375
23.015562,-0.307225,-1.217929,-0.011519,0.018002,-0.071826,0.172383,9.667786,0.015963,0.030863,0.007450,29.308594,79.966406,26.873438
23.117715,-0.283160,-1.194365,-0.014813,0.017767,-0.067038,0.162806,9.615114,0.017028,0.030863,0.005321,31.631836,80.145703,25.667578
23.218995,-0.105521,-1.199181,-0.016478,0.004881,-0.047884,0.162806,9.706094,0.015963,0.028734,0.007450,30.023438,78.890625,26.184375
23.320715,-0.105502,-1.201925,-0.009142,0.013182,-0.028730,0.138864,9.787496,0.017028,0.030863,0.009578,30.559570,78.711328,24.289453
23.422733,-0.233325,-1.192906,-0.028981,0.025470,-0.090980,0.239420,9.706094,0.013835,0.025541,0.008514,31.274414,80.504297,26.701172
23.524360,-0.208267,-1.207426,0.002369,0.008157,-0.057461,0.100556,9.562441,0.018092,0.028734,0.006385,29.308594,78.532031,26.184375
23.626423,0.074667,-1.204409,0.004412,0.011322,-0.124498,0.090980,9.658209,0.018092,0.028734,0.007450,29.487305,79.069922,24.978516
23.727917,-0.187021,-1.193884,-0.015907,0.010046,-0.100556,0.191536,9.753978,0.015963,0.026606,0.009578,30.916992,80.504297,25.323047
23.829938,-0.248477,-1.197769,-0.006284,0.006709,-0.062249,0.114922,9.773131,0.017028,0.032991,0.008514,30.916992,80.504297,25.323047
23.931399,-0.307959,-1.193605,-0.015657,0.013304,-0.124498,0.177171,9.495404,0.017028,0.032991,0.007450,30.916992,80.504297,25.323047
24.033098,-0.088331,-1.205012,-0.021210,0.001634,-0.004788,0.215478,9.749189,0.017028,0.027670,0.010642,29.844727,79.787109,26.012109
24.134953,-0.267791,-1.189983,-0.012786,0.024162,-0.086191,0.186748,9.524134,0.015963,0.029798,0.006385,31.810547,79.607812,25.495313
24.236663,-0.221566,-1.188469,-0.012198,0.017602,-0.090980,0.172383,9.629479,0.020220,0.030863,0.007450,30.738281,78.890625,26.873438
24.338341,0.062770,-1.207160,-0.007390,0.018657,-0.067038,0.162806,9.658209,0.019156,0.028734,0.005321,30.380859,79.966406,25.150781
24.439995,-0.223144,-1.196562,-0.007661,0.002175,-0.047884,0.095768,9.753978,0.017028,0.030863,0.008514,30.738281,79.966406,26.528906
24.541374,-0.061012,-1.195931,0.000315,0.010564,-0.129287,0.062249,9.859322,0.015963,0.030863,0.008514,30.738281,79.966406,26.528906
24.643291,-0.207599,-1.227651,-0.018332,0.009474,-0.033519,0.201113,9.610325,0.017028,0.029798,0.008514,27.878906,79.966406,26.528906
24.745228,-0.092540,-1.203894,-0.005184,0.008710,-0.110133,0.100556,9.911995,0.015963,0.023413,0.005321,29.487305,78.711328,26.012109
24.846525,-0.248872,-1.197895,-0.004641,0.018246,-0.071826,0.110133,9.667786,0.022349,0.031927,0.004257,31.453125,79.966406,26.528906
24.947955,-0.137308,-1.201721,-0.026804,0.020517,-0.119710,0.258574,9.677363,0.017028,0.029798,0.004257,30.380859,80.683594,25.150781
25.049800,0.075694,-1.213740,-0.025492,0.016541,-0.062249,0.258574,9.725247,0.015963,0.027670,0.008514,29.308594,79.249219,24.806250
25.151578,-0.239515,-1.214538,-0.008103,0.015924,-0.057461,0.138864,9.734824,0.015963,0.029798,0.007450,30.202148,79.069922,24.978516
25.252981,-0.447273,-1.199722,-0.005588,0.029938,-0.095768,0.138864,9.691728,0.015963,0.029798,0.008514,30.559570,79.428516,26.356641
25.354133,-0.206688,-1.200291,-0.007277,0.018725,-0.124498,0.114922,9.519346,0.018092,0.028734,0.005321,30.559570,79.428516,26.356641
25.455896,-0.044598,-1.194472,-0.008663,0.018634,-0.095768,0.124498,9.629479,0.013835,0.028734,0.003193,31.453125,79.607812,26.873438
25.558031,-0.106842,-1.215360,-0.013263,0.025173,-0.081403,0.177171,9.825804,0.019156,0.026606,0.006385,29.308594,78.532031,26.873438
25.659704,-0.486869,-1.210591,-0.012278,0.026218,-0.086191,0.181959,9.749189,0.018092,0.028734,0.006385,30.380859,80.325000,25.495313
25.761579,-0.376851,-1.188120,-0.007526,0.009142,-0.043096,0.081403,9.548076,0.019156,0.029798,0.006385,31.631836,80.145703,26.012109
25.863337,-0.204643,-1.212170,-0.004201,-0.000063,0.000000,0.090980,9.964667,-0.008514,0.020220,0.008514,30.023438,79.607812,26.528906
25.965700,-0.309971,-1.202567,-0.017392,0.004421,-0.067038,0.201113,9.605537,0.000000,0.023413,0.008514,30.023438,79.607812,26.528906
26.067107,-0.065355,-1.210327,-0.006204,0.020448,-0.110133,0.090980,9.591172,0.013835,0.024477,0.009578,30.023438,79.607812,26.528906
26.168748,-0.123009,-1.205135,-0.020309,0.012061,-0.023942,0.196325,9.591172,0.018092,0.027670,0.007450,30.023438,79.607812,26.528906
26.270734,0.040520,-1.205594,-0.018010,0.019447,-0.114922,0.158017,9.840169,0.022349,0.030863,0.006385,30.023438,79.607812,26.184375
26.372270,-0.461327,-1.204127,-0.015346,0.001551,0.000000,0.134075,9.658209,0.021284,0.029798,0.005321,30.559570,80.504297,25.667578
26.474215,-0.094876,-1.207915,-0.004844,0.022963,-0.033519,0.114922,9.777920,0.018092,0.030863,0.005321,30.559570,80.504297,25.667578
26.575272,-0.132857,-1.180311,-0.003410,0.024234,-0.181959,0.167594,9.677363,0.018092,0.026606,0.007450,31.989258,79.428516,26.012109
26.677143,-0.259082,-1.189013,-0.000397,0.002070,-0.033519,0.100556,9.624691,0.017028,0.031927,0.008514,31.095703,78.890625,25.495313
26.779034,-0.481109,-1.200846,-0.007242,0.028394,-0.067038,0.172383,9.691728,0.015963,0.031927,0.007450,30.738281,80.325000,26.528906
26.880647,0.065905,-1.195573,-0.012220,0.014744,-0.119710,0.158017,9.615114,0.017028,0.028734,0.009578,30.916992,80.862891,26.012109
26.982471,0.007646,-1.214146,-0.011948,0.018662,-0.057461,0.177171,9.696517,0.018092,0.026606,0.008514,30.380859,81.400781,26.873438
27.083817,-0.415187,-1.204996,-0.012847,0.016777,-0.071826,0.153229,9.591172,0.017028,0.027670,0.007450,30.380859,79.249219,25.839844
27.185667,-0.348116,-1.201946,-0.008823,0.014604,-0.076614,0.119710,9.720459,0.012771,0.026606,0.008514,31.095703,80.325000,26.873438
27.287794,-0.220118,-1.217123,-0.018940,0.001295,0.009577,0.158017,9.658209,0.014899,0.030863,0.007450,29.666016,81.400781,25.495313
27.389317,-0.454232,-1.187023,-0.001884,0.006916,-0.076614,0.052672,9.701305,0.018092,0.029798,0.007450,31.989258,80.145703,24.978516
27.491052,-0.334176,-1.199118,-0.017829,0.018408,-0.057461,0.191536,9.720459,0.017028,0.029798,0.009578,30.916992,79.428516,26.356641
27.592673,-0.324135,-1.200181,-0.009368,0.012452,-0.086191,0.086191,9.706094,0.013835,0.030863,0.007450,30.380859,79.249219,26.528906
27.694245,-0.433550,-1.197778,-0.018709,0.003461,0.000000,0.215478,9.753978,0.019156,0.030863,0.007450,30.380859,79.249219,26.528906
27.795817,-0.122025,-1.202924,-0.017068,0.021386,-0.067038,0.196325,9.653421,0.019156,0.028734,0.007450,30.380859,79.249219,26.528906
27.897159,-0.192284,-1.222704,-0.000167,0.018413,-0.071826,0.177171,9.682152,0.018092,0.031927,0.007450,28.772461,79.428516,24.978516
27.998250,-0.336549,-1.194331,0.002849,0.017678,-0.138864,0.071826,9.706094,0.019156,0.029798,0.005321,31.095703,79.607812,26.873438
28.099918,-0.059921,-1.203927,-0.007042,0.012300,-0.023942,0.138864,9.715670,0.017028,0.029798,0.006385,30.916992,80.145703,26.356641
28.201707,-0.067970,-1.199008,0.000486,0.017710,-0.153229,0.038307,9.624691,0.015963,0.026606,0.003193,30.916992,80.145703,26.356641
28.303714,-0.155505,-1.197385,-0.016022,0.015757,-0.095768,0.129287,9.686940,0.019156,0.029798,0.008514,30.916992,79.428516,24.978516
28.405419,-0.176298,-1.200487,-0.008707,0.021646,-0.095768,0.134075,9.725247,0.017028,0.027670,0.006385,31.095703,79.966406,25.839844
28.506486,-0.229561,-1.198008,-0.023902,0.018077,-0.100556,0.138864,9.720459,0.015963,0.027670,0.005321,31.274414,80.504297,26.012109
28.608249,0.045053,-1.204249,-0.019548,0.016954,-0.062249,0.177171,9.639056,0.018092,0.029798,0.008514,30.738281,80.325000,25.495313
28.709239,-0.244322,-1.193617,-0.004885,0.018751,-0.100556,0.100556,9.777920,0.018092,0.030863,0.010642,31.095703,78.532031,26.184375
28.810836,-0.094496,-1.193196,-0.016225,0.032622,-0.143652,0.225055,9.533711,0.018092,0.031927,0.005321,30.916992,80.862891,26.012109
28.912358,0.057490,-1.209607,-0.020559,0.017304,-0.062249,0.220267,9.643844,0.017028,0.028734,0.012771,29.487305,78.352734,25.667578
29.013881,-0.410030,-1.194229,-0.015823,0.014391,-0.119710,0.196325,9.586383,0.018092,0.029798,0.005321,30.738281,79.966406,24.806250
29.115048,-0.069775,-1.190801,-0.021966,0.014388,-0.028730,0.205901,9.773131,0.015963,0.030863,0.009578,31.274414,78.352734,25.667578
29.217128,-0.412322,-1.193677,-0.010688,0.016677,-0.129287,0.143652,9.777920,0.015963,0.027670,0.008514,31.631836,80.145703,25.667578
29.318150,-0.487112,-1.192165,-0.023890,0.018210,-0.067038,0.220267,9.552865,0.014899,0.028734,0.005321,31.631836,80.145703,25.667578
29.419610,0.139162,-1.209629,-0.006437,0.017843,-0.047884,0.153229,9.610325,0.017028,0.027670,0.004257,30.559570,80.145703,24.978516
29.521911,-0.287599,-1.200421,-0.014836,0.012566,-0.090980,0.181959,9.634267,0.017028,0.030863,0.006385,28.951172,76.739063,26.184375
29.623580,-0.164320,-1.191830,-0.008728,0.009999,-0.019154,0.095768,9.768343,0.012771,0.027670,0.005321,30.916992,79.428516,27.390234
29.724902,-0.207651,-1.197004,-0.016183,-0.006016,0.019154,0.100556,9.667786,0.014899,0.031927,0.004257,31.631836,79.428516,25.667578
29.826475,0.133453,-1.193550,-0.024682,0.008464,-0.004788,0.239420,9.701305,0.018092,0.029798,0.008514,30.738281,78.890625,25.839844
29.927943,-0.190134,-1.197134,-0.009787,0.024148,-0.186748,0.177171,9.624691,0.014899,0.031927,0.005321,30.738281,79.607812,25.839844
30.029668,0.111053,-1.207329,-0.010372,-0.000062,0.004788,0.086191,9.677363,0.018092,0.029798,0.010642,30.738281,79.607812,25.839844
30.131364,-0.146640,-1.201524,-0.006263,0.004129,-0.014365,0.071826,9.629479,0.017028,0.026606,0.003193,30.738281,80.325000,25.839844
30.233718,-0.391039,-1.184871,-0.021034,0.018393,-0.081403,0.162806,9.667786,0.019156,0.025541,0.010642,32.346680,80.145703,26.356641
30.335856,-0.044588,-1.187587,-0.013439,0.005816,-0.047884,0.129287,9.672575,0.017028,0.029798,0.008514,32.346680,80.145703,26.356641
30.437266,-0.498217,-1.212125,-0.005951,0.016080,-0.081403,0.100556,9.706094,0.015963,0.027670,0.010642,29.666016,78.173437,26.184375
30.538851,-0.157989,-1.218948,-0.016262,0.017994,-0.028730,0.220267,9.878476,0.013835,0.026606,0.011706,29.844727,79.787109,24.978516
30.640784,0.010806,-1.187852,-0.011063,0.008050,-0.004788,0.119710,9.768343,0.017028,0.029798,0.006385,30.916992,78.352734,26.356641
30.742534,-0.331501,-1.216015,-0.016861,0.006729,-0.047884,0.158017,9.552865,0.018092,0.029798,0.006385,29.129883,80.145703,27.390234
30.843930,-0.371448,-1.195509,-0.013289,0.015806,-0.086191,0.158017,9.734824,0.018092,0.027670,0.005321,30.202148,79.428516,26.701172
30.945538,-0.269397,-1.208445,-0.016971,0.020342,-0.062249,0.191536,9.677363,0.017028,0.026606,0.008514,30.380859,79.966406,25.495313
31.046865,-0.089118,-1.191996,-0.000777,0.012507,-0.090980,0.138864,9.739612,0.017028,0.026606,0.006385,31.810547,81.042187,25.495313
31.148141,-0.304023,-1.199847,-0.018228,0.019075,-0.057461,0.201113,9.672575,0.018092,0.027670,0.005321,30.916992,79.428516,26.012109
31.249330,-0.269889,-1.178819,-0.016045,0.008635,0.023942,0.148441,9.706094,0.015963,0.027670,0.005321,33.061523,79.787109,26.701172
31.350928,-0.250049,-1.201680,-0.017087,0.000348,-0.009577,0.143652,9.773131,0.017028,0.028734,0.007450,31.095703,79.966406,25.150781
31.452244,-0.059864,-1.194190,-0.020618,0.002509,0.023942,0.196325,9.591172,0.014899,0.028734,0.007450,31.095703,79.966406,25.150781
31.554363,-0.035166,-1.196487,-0.014755,0.006968,-0.071826,0.143652,9.777920,0.017028,0.030863,0.006385,31.095703,79.966406,25.150781
31.655365,-0.130889,-1.202671,-0.008143,0.018936,-0.062249,0.172383,9.715670,0.018092,0.026606,0.007450,31.095703,79.966406,25.150781
31.756930,-0.490495,-1.195697,0.000090,0.026976,-0.158017,0.181959,9.610325,0.015963,0.032991,0.009578,30.738281,79.249219,24.461719
31.858305,-0.008704,-1.193579,-0.011978,0.009931,-0.071826,0.134075,9.739612,0.018092,0.030863,0.008514,31.095703,80.325000,25.839844
31.960168,-0.001707,-1.203781,-0.012439,0.008981,-0.067038,0.153229,9.672575,0.019156,0.028734,0.006385,30.380859,80.683594,27.217969
32.061219,-0.060814,-1.194316,-0.020165,0.007167,-0.067038,0.220267,9.648633,0.015963,0.029798,0.005321,30.380859,79.607812,26.528906
32.162769,-0.238942,-1.192058,-0.022108,0.005586,-0.009577,0.201113,9.605537,0.017028,0.029798,0.007450,31.095703,79.249219,26.528906
32.264292,0.137170,-1.210229,-0.004110,0.020313,-0.129287,0.090980,9.576807,0.015963,0.030863,0.005321,30.202148,80.504297,27.734766
32.366367,0.192646,-1.195628,-0.018476,-0.001540,-0.009577,0.172383,9.768343,0.015963,0.029798,0.007450,31.095703,79.966406,26.528906
32.467657,-0.044969,-1.194006,-0.005620,0.011233,-0.076614,0.076614,9.653421,0.017028,0.029798,0.006385,31.095703,79.966406,26.528906
32.569045,-0.308227,-1.192715,-0.022466,0.009527,-0.052672,0.225055,9.634267,0.018092,0.027670,0.011706,31.095703,79.966406,26.528906
32.670459,-0.131933,-1.208038,-0.009124,-0.001278,-0.009577,0.138864,9.696517,0.019156,0.028734,0.007450,29.666016,79.607812,24.117188
32.771969,-0.106584,-1.194415,-0.009405,0.005745,-0.090980,0.143652,9.730036,0.015963,0.028734,0.006385,29.666016,77.456250,26.184375
32.872952,-0.198974,-1.217256,-0.013456,0.016443,-0.100556,0.191536,9.572018,0.018092,0.031927,0.009578,28.593750,78.890625,25.839844
32.974564,-0.427438,-1.200331,-0.013397,0.022133,-0.076614,0.153229,9.821015,0.020220,0.026606,0.007450,31.453125,80.683594,25.150781
33.075966,-0.259767,-1.199219,-0.023184,0.008947,-0.028730,0.119710,9.706094,0.015963,0.028734,0.006385,31.453125,79.607812,26.528906
33.177530,-0.196864,-1.210712,-0.009157,0.016376,-0.067038,0.114922,9.600749,0.021284,0.029798,0.006385,30.202148,80.145703,25.667578
33.279019,-0.057126,-1.195721,-0.010677,0.019097,-0.057461,0.134075,9.811438,0.015963,0.031927,0.008514,31.453125,79.249219,26.184375
33.380239,-0.307402,-1.197949,-0.021758,0.002453,-0.009577,0.225055,9.701305,0.018092,0.029798,0.006385,31.274414,79.428516,25.667578
33.481910,-0.316676,-1.189694,0.000137,0.011716,-0.100556,0.052672,9.634267,0.020220,0.028734,0.008514,31.631836,79.787109,27.390234
33.583581,-0.223381,-1.212172,-0.005179,0.018613,-0.090980,0.124498,9.706094,0.018092,0.027670,0.007450,29.666016,79.249219,25.495313
33.685546,0.037869,-1.202514,-0.004753,0.009985,-0.033519,0.124498,9.682152,0.017028,0.029798,0.006385,30.559570,79.428516,25.667578
33.787232,-0.120890,-1.204343,-0.016220,0.009231,-0.004788,0.134075,9.806650,0.017028,0.030863,0.004257,30.559570,79.428516,25.667578
33.888454,0.357682,-1.200733,-0.003760,0.015070,-0.086191,0.129287,9.730036,0.015963,0.027670,0.008514,30.559570,79.428516,25.667578
33.990875,0.129887,-1.180986,-0.018901,0.018008,0.014365,0.177171,9.605537,0.017028,0.028734,0.009578,32.167969,78.173437,25.495313
34.091507,-0.279726,-1.185819,-0.007802,0.013499,-0.062249,0.071826,9.821015,0.014899,0.027670,0.005321,31.453125,79.607812,24.806250
34.193325,-0.168476,-1.199484,-0.002630,0.007932,-0.052672,0.052672,9.524134,0.012771,0.027670,0.007450,30.916992,80.862891,26.012109
34.295010,-0.336230,-1.203877,-0.015259,0.017620,-0.090980,0.158017,9.787496,0.017028,0.026606,0.007450,30.916992,80.862891,26.012109
34.396449,-0.338006,-1.201965,-0.020052,0.004171,-0.023942,0.158017,9.777920,0.018092,0.026606,0.005321,31.274414,80.145703,26.356641
34.497800,-0.082241,-1.196384,-0.019160,0.007816,-0.052672,0.201113,9.730036,0.022349,0.034055,0.007450,30.380859,79.249219,25.150781
34.599608,0.180793,-1.197843,-0.013194,0.016552,-0.129287,0.239420,9.639056,0.022349,0.028734,0.006385,30.916992,79.428516,26.012109
34.700611,-0.017863,-1.176582,-0.001900,0.010842,-0.076614,0.153229,9.586383,0.017028,0.026606,0.009578,31.989258,79.069922,25.667578
34.802332,-0.329917,-1.210899,-0.017591,0.014574,-0.019154,0.148441,9.629479,0.015963,0.027670,0.008514,30.380859,79.966406,26.528906
34.903877,-0.221290,-1.197403,-0.014730,0.008951,0.000000,0.153229,9.710882,0.017028,0.029798,0.009578,30.380859,78.890625,24.806250
35.005301,-0.336467,-1.206460,-0.005294,0.014997,-0.071826,0.100556,10.117896,0.017028,0.026606,0.005321,30.738281,80.325000,25.150781
35.106390,-0.177135,-1.214433,-0.006542,0.021338,-0.114922,0.134075,9.643844,0.015963,0.029798,0.008514,30.023438,81.042187,26.528906
35.209430,-0.058976,-1.190482,-0.027403,0.010819,-0.014365,0.186748,9.619902,0.012771,0.029798,0.007450,31.631836,78.711328,26.356641
35.309804,-0.288683,-1.186740,-0.016047,0.006585,0.000000,0.143652,9.710882,0.021284,0.027670,0.004257,31.631836,78.711328,26.356641
35.411445,-0.220752,-1.181328,-0.019852,0.010866,-0.057461,0.215478,9.758766,0.015963,0.028734,0.008514,31.631836,78.711328,26.356641
35.513321,-0.128300,-1.201065,-0.006965,0.022909,-0.162806,0.110133,9.701305,0.014899,0.024477,0.005321,30.023438,79.607812,25.839844
35.614989,-0.118411,-1.199377,-0.007923,0.011578,-0.023942,0.124498,9.730036,0.020220,0.029798,0.007450,31.631836,80.504297,26.356641
35.716701,-0.154858,-1.198972,-0.012294,0.010060,-0.014365,0.143652,9.639056,0.019156,0.032991,0.006385,30.559570,79.428516,26.701172
35.818597,-0.141402,-1.196353,-0.013372,0.004965,-0.014365,0.143652,9.706094,0.022349,0.030863,0.006385,30.559570,79.428516,26.701172
35.920090,-0.289921,-1.200173,-0.014151,0.025705,-0.110133,0.177171,9.763554,0.014899,0.029798,0.011706,30.559570,78.711328,25.667578
36.021734,-0.212300,-1.191288,-0.020865,0.023525,-0.129287,0.138864,9.816227,0.019156,0.029798,0.007450,31.095703,78.890625,26.873438
36.123641,-0.341786,-1.179177,-0.023830,0.017091,-0.062249,0.186748,9.701305,0.019156,0.028734,0.001064,32.346680,79.069922,24.289453
36.225289,-0.090061,-1.201231,-0.025757,0.008219,-0.043096,0.181959,9.624691,0.015963,0.030863,0.006385,30.023438,78.890625,24.806250
36.327546,-0.080819,-1.187891,-0.009291,0.031110,-0.153229,0.162806,9.696517,0.018092,0.029798,0.007450,31.095703,79.966406,25.150781
36.428686,-0.174555,-1.206430,-0.020140,0.016942,-0.057461,0.162806,9.528923,0.017028,0.030863,0.009578,30.738281,80.325000,24.117188
36.530462,-0.042738,-1.212240,-0.019590,0.007030,-0.067038,0.143652,9.691728,0.018092,0.030863,0.007450,29.844727,80.862891,26.356641
36.632301,-0.007357,-1.188721,-0.009382,0.019482,-0.138864,0.167594,9.691728,0.018092,0.027670,0.009578,30.738281,79.966406,25.495313
36.734113,-0.221555,-1.213587,-0.010971,0.020582,-0.028730,0.114922,9.739612,0.020220,0.031927,0.007450,30.559570,80.504297,24.633984
36.835952,-0.217832,-1.198600,-0.001531,0.012425,-0.129287,0.114922,9.514557,0.020220,0.026606,0.008514,30.559570,80.504297,24.633984
36.937724,-0.268492,-1.221006,-0.016585,0.011725,-0.009577,0.153229,9.696517,0.014899,0.029798,0.009578,29.844727,81.221484,25.323047
37.039322,-0.300856,-1.199848,-0.002405,0.013495,-0.067038,0.081403,9.753978,0.019156,0.026606,0.008514,31.095703,79.966406,26.528906
37.140626,-0.271008,-1.223365,-0.015408,0.009914,0.014365,0.134075,9.720459,0.020220,0.029798,0.006385,28.236328,79.607812,25.150781
37.242554,0.005925,-1.202658,-0.016923,0.009666,0.000000,0.177171,9.648633,0.015963,0.032991,0.008514,30.738281,79.966406,25.150781
37.344440,0.132276,-1.206867,-0.007101,0.012537,-0.057461,0.119710,9.682152,0.019156,0.030863,0.005321,30.380859,79.966406,25.839844
37.445823,0.025936,-1.193531,-0.014963,0.002899,-0.019154,0.134075,9.777920,0.017028,0.031927,0.009578,30.916992,79.428516,26.012109
37.547659,-0.432869,-1.191577,-0.003706,0.021746,-0.086191,0.148441,9.734824,0.018092,0.032991,0.007450,31.631836,79.787109,26.356641
37.649413,0.143454,-1.198707,-0.016242,0.014989,-0.076614,0.138864,9.634267,0.019156,0.029798,0.008514,29.666016,80.325000,26.184375
37.750167,0.255294,-1.214035,-0.006927,0.026841,-0.138864,0.191536,9.830592,0.020220,0.029798,0.006385,29.666016,80.325000,26.184375
37.851778,-0.131926,-1.212558,-0.005097,0.019618,-0.081403,0.138864,9.677363,0.018092,0.031927,0.008514,30.023438,80.325000,26.184375
37.953513,-0.086483,-1.189952,-0.015580,0.024819,-0.158017,0.215478,9.653421,0.014899,0.030863,0.007450,30.916992,77.994141,26.701172
38.055019,-0.064966,-1.204185,-0.008273,0.019815,-0.086191,0.134075,9.768343,0.019156,0.027670,0.005321,30.559570,79.428516,24.978516
38.156946,-0.145394,-1.198473,0.003374,0.012841,-0.076614,0.076614,9.686940,0.021284,0.030863,0.007450,31.453125,80.683594,25.839844
38.259087,-0.250177,-1.198714,-0.012967,0.019760,-0.086191,0.162806,9.667786,0.019156,0.030863,0.005321,31.453125,80.683594,25.839844
38.360409,-0.218127,-1.192880,-0.003595,0.001281,-0.028730,0.062249,9.648633,0.018092,0.028734,0.006385,31.453125,80.683594,25.839844
38.462615,-0.345263,-1.201893,-0.011812,0.007478,-0.067038,0.143652,9.734824,0.014899,0.030863,0.007450,30.023438,79.607812,25.150781
38.565148,-0.097675,-1.198069,-0.003936,0.006541,-0.057461,0.067038,9.749189,0.017028,0.026606,0.007450,30.380859,79.249219,26.528906
38.666380,-0.213072,-1.202248,-0.011150,0.019157,-0.081403,0.172383,9.730036,0.017028,0.029798,0.005321,30.738281,79.966406,27.562500
38.768188,-0.161996,-1.199447,-0.011638,0.026059,-0.119710,0.172383,9.701305,0.019156,0.029798,0.009578,31.095703,79.966406,26.184375
38.872440,-0.204882,-1.205765,-0.013083,0.011992,-0.023942,0.158017,9.691728,0.022349,0.029798,0.006385,30.738281,80.325000,27.217969
38.975210,-0.234515,-1.190012,-0.004390,0.006398,-0.047884,0.134075,9.648633,0.018092,0.028734,0.008514,31.989258,79.428516,26.012109
39.075418,0.198659,-1.196857,-0.002408,0.019873,-0.134075,0.124498,9.720459,0.015963,0.027670,0.006385,31.453125,81.759375,25.150781
39.177331,-0.197959,-1.215736,-0.018759,0.014690,-0.057461,0.229843,9.643844,0.014899,0.029798,0.006385,28.951172,78.890625,25.495313
39.278517,-0.276946,-1.207196,-0.014874,0.012871,-0.071826,0.167594,9.730036,0.020220,0.030863,0.007450,29.666016,78.532031,27.217969
39.379788,-0.364216,-1.197885,-0.010675,0.034038,-0.177171,0.225055,9.720459,0.018092,0.027670,0.008514,30.559570,79.069922,26.012109
39.481090,-0.003364,-1.216305,-0.013425,0.024155,-0.129287,0.177171,9.648633,0.018092,0.030863,0.007450,29.844727,81.221484,28.423828
39.582453,-0.165849,-1.197900,-0.014680,0.015301,-0.124498,0.201113,9.725247,0.014899,0.035119,0.005321,30.559570,79.787109,25.667578
39.683845,-0.066315,-1.205043,-0.008543,0.008241,-0.114922,0.153229,9.677363,0.018092,0.029798,0.006385,29.844727,80.504297,24.978516
39.785178,-0.116088,-1.215158,-0.016114,0.017756,-0.071826,0.181959,9.715670,0.021284,0.028734,0.009578,29.844727,80.504297,24.978516
39.886719,-0.196106,-1.190371,-0.014467,0.018562,-0.138864,0.196325,9.701305,0.019156,0.034055,0.007450,31.631836,80.145703,26.356641
39.988552,-0.056568,-1.199635,-0.014615,0.015830,-0.124498,0.114922,9.686940,0.015963,0.028734,0.006385,30.023438,79.966406,25.839844
40.090457,-0.215778,-1.214081,-0.017765,0.018287,-0.071826,0.181959,9.648633,0.019156,0.028734,0.007450,28.951172,78.173437,27.562500
40.192344,-0.266927,-1.191447,0.000127,0.015548,-0.158017,0.086191,9.706094,0.017028,0.030863,0.006385,30.559570,78.352734,26.012109
40.293456,-0.248552,-1.202459,-0.021177,0.008124,-0.095768,0.177171,9.643844,0.014899,0.026606,0.010642,29.666016,79.607812,26.528906
40.395050,0.197728,-1.207520,-0.008334,0.016145,-0.086191,0.119710,9.586383,0.018092,0.028734,0.004257,30.202148,79.428516,26.701172
40.496324,-0.161358,-1.200506,-0.011258,0.018515,-0.081403,0.153229,9.662998,0.021284,0.032991,0.003193,30.559570,79.069922,27.734766
40.597750,-0.102316,-1.209349,-0.011832,-0.005322,-0.028730,0.191536,9.600749,0.023413,0.030863,0.006385,29.844727,79.787109,27.390234
40.699125,-0.151466,-1.209172,-0.003992,0.014900,-0.110133,0.100556,9.696517,0.019156,0.031927,0.007450,29.844727,79.787109,27.390234
40.800370,0.052902,-1.205585,-0.015039,0.010139,-0.057461,0.177171,9.715670,0.018092,0.028734,0.006385,29.844727,79.787109,27.390234
40.902002,-0.155296,-1.202818,-0.002817,0.009822,-0.086191,0.095768,9.543288,0.013835,0.029798,0.006385,30.559570,80.862891,26.356641
41.002970,0.165598,-1.207648,-0.012356,0.009983,-0.057461,0.100556,9.801862,0.018092,0.027670,0.006385,30.559570,80.862891,25.667578
41.104809,0.017221,-1.180321,0.005620,0.021984,-0.095768,0.100556,9.658209,0.014899,0.026606,0.008514,32.346680,79.428516,26.012109
41.206116,-0.010249,-1.184080,-0.005231,0.030733,-0.167594,0.129287,9.725247,0.015963,0.031927,0.004257,31.274414,79.428516,26.012109
41.307925,0.020939,-1.181066,-0.020583,0.012070,-0.047884,0.234632,9.734824,0.019156,0.032991,0.005321,31.989258,79.787109,26.701172
41.409518,-0.128931,-1.205689,-0.015067,0.011767,-0.023942,0.191536,9.725247,0.015963,0.028734,0.007450,30.023438,79.607812,26.528906
41.511073,-0.065107,-1.195201,-0.005416,0.006585,-0.076614,0.114922,9.730036,0.019156,0.026606,0.008514,31.095703,80.683594,25.495313
41.612734,-0.002564,-1.198100,-0.015053,0.004892,0.067038,0.162806,9.710882,0.015963,0.028734,0.007450,31.095703,80.683594,25.495313
41.713928,-0.076937,-1.199413,-0.013777,0.020440,-0.114922,0.162806,9.677363,0.019156,0.028734,0.005321,31.095703,80.683594,25.495313
41.814882,-0.015387,-1.201644,-0.015521,0.015640,-0.081403,0.158017,9.744401,0.021284,0.028734,0.005321,30.738281,79.966406,25.495313
41.916639,-0.122023,-1.185286,-0.014696,0.022994,-0.076614,0.124498,9.653421,0.020220,0.030863,0.005321,32.525391,79.966406,25.839844
42.017548,-0.301590,-1.189708,-0.019200,0.021840,-0.095768,0.205901,9.777920,0.015963,0.029798,0.006385,31.095703,78.173437,27.217969
42.118676,0.176222,-1.217712,-0.016591,0.006144,-0.033519,0.114922,9.658209,0.015963,0.027670,0.009578,28.951172,79.249219,27.217969
42.220241,-0.021873,-1.194049,-0.012031,0.023528,-0.071826,0.148441,9.873688,0.018092,0.028734,0.004257,31.274414,79.787109,25.323047
42.321473,0.032761,-1.190128,-0.001361,0.011971,-0.110133,0.062249,9.629479,0.015963,0.026606,0.008514,30.916992,78.711328,26.701172
42.423380,0.040173,-1.204996,-0.021987,0.016637,-0.062249,0.143652,9.600749,0.019156,0.028734,0.007450,31.095703,80.683594,26.873438
42.525026,0.166602,-1.207057,-0.016753,0.020456,-0.023942,0.201113,9.595960,0.019156,0.030863,0.008514,31.095703,80.683594,26.873438
42.626210,0.174081,-1.196082,-0.001767,0.001079,-0.047884,0.067038,9.610325,0.015963,0.030863,0.010642,31.095703,80.683594,26.873438
42.727783,0.184131,-1.200590,-0.009083,0.006102,-0.081403,0.143652,9.725247,0.018092,0.029798,0.008514,29.844727,79.069922,25.323047
42.828697,0.055198,-1.213315,0.000552,0.006285,-0.009577,0.124498,9.706094,0.018092,0.028734,0.008514,30.380859,79.966406,26.184375
42.930233,-0.029848,-1.194417,-0.022716,0.016225,-0.033519,0.239420,9.629479,0.015963,0.029798,0.005321,31.274414,79.069922,27.390234
43.031500,-0.042231,-1.206440,-0.007821,0.008696,-0.019154,0.172383,9.706094,0.017028,0.030863,0.009578,30.916992,80.862891,26.701172
43.132928,0.181667,-1.215561,-0.021769,0.018212,-0.033519,0.201113,9.562441,0.017028,0.027670,0.004257,29.844727,79.787109,26.356641
43.234385,-0.141430,-1.192039,-0.009093,0.020816,-0.181959,0.119710,9.653421,0.014899,0.031927,0.006385,31.274414,79.787109,26.012109
43.335711,0.068134,-1.206178,-0.002119,0.014553,-0.081403,0.110133,9.696517,0.014899,0.027670,0.003193,30.559570,80.504297,25.667578
43.437001,0.018352,-1.198336,-0.014266,0.015093,-0.129287,0.181959,9.610325,0.011706,0.034055,0.006385,30.559570,80.504297,25.667578
43.539002,0.124369,-1.192570,-0.008421,0.010095,-0.057461,0.143652,9.662998,0.017028,0.029798,0.004257,31.274414,79.787109,26.012109
43.640320,-0.321867,-1.197033,-0.002308,0.017883,-0.134075,0.134075,9.710882,0.019156,0.027670,0.004257,30.916992,80.504297,26.356641
43.741987,0.068733,-1.205138,-0.024458,0.009117,-0.009577,0.253785,9.615114,0.013835,0.027670,0.007450,30.202148,80.504297,25.323047
43.843837,0.137178,-1.198764,-0.015813,0.022316,-0.148441,0.215478,9.591172,0.012771,0.031927,0.006385,31.274414,80.862891,26.012109
43.945407,-0.118814,-1.200802,-0.011483,0.013857,-0.090980,0.124498,9.706094,0.008514,0.030863,0.003193,30.559570,79.428516,24.633984
44.046454,-0.030021,-1.204292,-0.006169,0.000844,-0.067038,0.114922,9.667786,0.012771,0.028734,0.007450,30.202148,80.145703,25.323047
44.148091,-0.129165,-1.194560,-0.002031,0.001128,-0.047884,0.057461,9.639056,0.013835,0.027670,0.006385,30.202148,77.994141,26.701172
44.249657,-0.010874,-1.203368,-0.018182,0.017372,-0.028730,0.177171,9.504981,0.014899,0.027670,0.007450,30.202148,77.994141,26.701172
44.351457,-0.128391,-1.215175,-0.013595,-0.001507,-0.014365,0.186748,9.648633,0.017028,0.031927,0.009578,30.202148,80.504297,24.289453
44.452678,-0.144287,-1.183472,-0.015802,0.006104,-0.081403,0.167594,9.734824,0.020220,0.029798,0.006385,30.559570,77.276953,26.012109
44.554331,-0.309185,-1.202224,-0.011477,0.004544,-0.014365,0.124498,9.888053,0.018092,0.029798,0.007450,30.559570,80.504297,24.633984
44.655976,-0.289100,-1.198487,-0.006435,0.017650,-0.167594,0.110133,9.610325,0.015963,0.030863,0.006385,30.916992,79.787109,25.667578
44.756988,0.193610,-1.199692,-0.008877,0.012067,-0.090980,0.095768,9.653421,0.018092,0.028734,0.008514,30.916992,79.787109,25.667578
44.858459,-0.605002,-1.198669,-0.017666,0.012736,-0.076614,0.114922,9.801862,0.015963,0.028734,0.009578,30.916992,79.787109,25.667578
44.959624,-0.224210,-1.191960,-0.017287,0.000079,0.033519,0.196325,9.715670,0.017028,0.028734,0.007450,31.095703,79.249219,25.495313
45.061159,0.027434,-1.205693,-0.010508,0.005988,-0.014365,0.110133,9.797073,0.019156,0.031927,0.005321,29.487305,78.711328,25.323047
45.162709,0.163406,-1.213615,-0.012393,0.021809,-0.067038,0.177171,9.696517,0.014899,0.027670,0.005321,30.380859,81.042187,26.184375
45.264120,0.029924,-1.209077,-0.008192,0.025246,-0.138864,0.143652,9.595960,0.018092,0.027670,0.008514,30.023438,79.607812,25.495313
45.365797,-0.122743,-1.187174,-0.009573,0.005613,-0.124498,0.153229,9.653421,0.019156,0.026606,0.007450,30.738281,78.890625,26.528906
45.467465,-0.333647,-1.188739,-0.001234,0.003667,-0.028730,0.162806,9.696517,0.019156,0.026606,0.004257,30.916992,79.069922,26.012109
45.568977,-0.304586,-1.205514,-0.001884,0.011893,-0.110133,0.043096,9.667786,0.018092,0.029798,0.005321,30.202148,79.787109,25.323047
45.670399,0.181634,-1.187973,0.004089,0.006376,-0.047884,0.090980,9.725247,0.017028,0.027670,0.007450,31.810547,81.042187,26.184375
45.772007,-0.083340,-1.188601,-0.004568,0.006046,-0.143652,0.167594,9.662998,0.018092,0.029798,0.007450,30.916992,79.069922,26.356641
45.873424,0.105852,-1.196950,-0.007191,-0.002270,-0.009577,0.119710,9.658209,0.017028,0.025541,0.007450,30.738281,79.607812,24.806250
45.975068,0.357149,-1.198241,-0.010025,0.005230,-0.019154,0.110133,9.734824,0.017028,0.028734,0.010642,30.380859,79.607812,27.217969
46.076981,0.259058,-1.204335,-0.017445,0.024958,-0.114922,0.220267,9.801862,0.018092,0.028734,0.008514,30.380859,79.607812,27.217969
46.178265,-0.070465,-1.204786,0.005578,0.016062,-0.110133,0.052672,9.677363,0.019156,0.027670,0.010642,30.380859,79.607812,27.217969
