Time, Altitude, Yaw, Pitch, Roll, Ax, Ay, Az, Pitch_rate, Roll_rate,Yaw_rate, Magx, Magy, Magz0.760606,-0.215225,-0.167875,0.055589,0.026463,-0.047884,0.186748,9.629479,0.017028,0.027670,0.011706,35.027344,80.325000,25.150781
0.860837,-0.050541,-0.352562,0.111863,0.034691,-0.090980,0.263362,9.691728,0.017028,0.036184,0.008514,31.989258,79.069922,24.289453
0.960959,-0.173881,-0.534177,0.151247,0.025317,-0.086191,0.177171,9.753978,0.015963,0.026606,0.006385,32.704102,80.862891,24.978516
1.061038,-0.356906,-0.711317,0.165169,0.005159,-0.100556,0.225055,9.701305,0.014899,0.028734,0.003193,33.240234,81.759375,23.772656
1.161966,-0.311380,-0.880378,0.147974,-0.014801,-0.100556,0.177171,9.787496,0.017028,0.051083,0.006385,34.669922,81.042187,25.495313
1.264490,-0.440485,-1.035601,0.099967,-0.023177,-0.153229,0.239420,9.725247,0.017028,0.062789,0.004257,34.133789,81.580078,23.600391
1.366368,-0.387770,-1.170600,0.032874,-0.014457,-0.210690,0.239420,9.849746,0.027670,0.173469,-0.021284,33.418945,81.221484,24.633984
1.468063,-0.384331,-1.177572,0.019995,0.000841,-0.110133,0.086191,9.686940,0.012771,-0.003193,0.010642,33.240234,79.966406,23.428125
1.569651,-0.048445,-1.158737,0.014132,-0.023328,0.062249,0.440533,9.830592,0.022349,-0.003193,0.009578,34.848633,81.221484,24.978516
1.671526,-0.470087,-1.170061,0.026976,-0.022039,-0.177171,0.229843,9.739612,0.013835,0.008514,0.012771,33.240234,81.042187,24.117188
1.773308,-0.495737,-1.167509,0.028178,-0.021047,-0.215478,0.258574,9.725247,0.012771,-0.004257,0.013835,33.240234,81.042187,24.117188
1.874337,-0.425362,-1.171649,0.013570,-0.007038,-0.081403,0.248997,9.983821,0.015963,-0.011706,0.012771,33.240234,81.042187,24.117188
1.975527,-0.518561,-1.182726,0.020302,-0.027349,-0.043096,0.253785,9.816227,0.015963,-0.012771,0.014899,33.240234,81.042187,24.117188
2.077816,-0.059702,-1.158766,0.017686,-0.006376,-0.076614,0.158017,9.682152,0.015963,0.035119,0.008514,35.027344,81.042187,24.806250
2.179852,-0.424402,-1.172473,-0.022552,-0.015217,1.144428,0.000000,9.615114,0.015963,0.038312,-0.078753,33.597656,82.117969,24.806250
2.281691,-0.535623,-1.164150,0.011175,-0.008282,-0.086191,0.225055,9.677363,0.015963,0.034055,0.006385,33.597656,79.607812,23.772656
2.383319,-0.444450,-1.175955,0.013431,-0.010146,-0.043096,0.129287,9.782708,0.014899,0.035119,0.007450,32.882812,80.325000,25.495313
2.484627,-0.409521,-1.179606,0.010463,-0.024526,0.407014,0.387861,10.146627,0.019156,-0.006385,-0.027670,32.882812,80.325000,25.495313
2.586462,-0.399070,-1.168405,0.005342,-0.018932,-0.009577,0.205901,9.643844,0.014899,0.031927,0.009578,33.418945,80.145703,26.012109
2.688119,-0.402321,-1.155018,-0.002232,-0.017028,0.110133,0.114922,9.686940,0.020220,0.051083,-0.031927,35.384766,81.042187,24.806250
2.789651,-0.580617,-1.154963,0.020101,-0.010363,-0.143652,0.201113,9.730036,0.020220,0.032991,0.006385,35.206055,81.221484,23.944922
2.890819,-0.335887,-1.155719,0.011538,-0.032095,-0.067038,0.272939,9.710882,0.017028,0.027670,0.006385,35.206055,82.297266,24.289453
2.992540,-0.507350,-1.147801,0.036220,-0.021528,-0.201113,0.316035,9.787496,0.019156,0.024477,0.007450,35.384766,79.607812,24.461719
3.094067,-0.453241,-1.183118,0.009589,-0.005632,-0.100556,0.191536,9.677363,0.019156,0.029798,0.006385,32.167969,79.966406,23.772656
3.196050,-0.506341,-1.150805,0.015277,-0.007446,-0.071826,0.124498,9.605537,0.017028,0.032991,0.006385,35.563477,79.787109,24.633984
3.297321,-0.481647,-1.153984,0.004037,-0.017678,0.038307,0.172383,9.658209,0.017028,0.029798,0.006385,34.491211,79.069922,24.978516
3.399480,-0.385138,-1.147909,0.003203,-0.019473,0.004788,0.186748,9.806650,0.017028,0.028734,0.011706,34.491211,79.069922,24.978516
3.500857,-0.549210,-1.154741,0.034718,-0.016243,-0.205901,0.263362,9.619902,0.017028,0.031927,0.009578,34.491211,79.069922,24.978516
3.601734,-0.542597,-1.162425,0.012427,-0.009081,-0.086191,0.167594,9.696517,0.020220,0.030863,0.007450,35.206055,80.145703,26.356641
3.703148,-0.436751,-1.157467,0.014617,-0.014056,-0.076614,0.229843,9.706094,0.017028,0.027670,0.007450,34.848633,80.862891,24.289453
3.804896,-0.570581,-1.153533,0.013295,-0.019305,-0.071826,0.244209,9.758766,0.014899,0.030863,-0.005321,35.206055,81.221484,25.667578
3.906828,-0.217075,-1.148361,0.015902,0.001326,-0.095768,0.114922,9.662998,0.018092,0.027670,0.001064,35.742188,80.325000,26.184375
4.008055,-0.497431,-1.149835,0.022822,-0.024443,-0.100556,0.306458,9.653421,0.017028,0.031927,0.003193,35.742188,80.325000,26.184375
4.109830,-0.645654,-1.161564,0.015516,-0.003598,-0.114922,0.114922,9.710882,0.017028,0.030863,0.004257,34.491211,80.504297,25.667578
4.210962,-0.585252,-1.165718,0.029887,0.002133,-0.517148,-0.378284,9.524134,0.021284,0.038312,0.004257,34.133789,80.504297,24.289453
4.312289,-0.577996,-1.171322,0.017997,-0.013464,-0.057461,0.186748,9.753978,0.019156,0.028734,0.005321,33.597656,80.325000,24.117188
4.414054,-0.606194,-1.151872,0.007624,-0.017196,-0.019154,0.181959,9.586383,0.019156,0.027670,0.005321,35.206055,80.504297,23.944922
4.515745,-0.517746,-1.159310,0.001430,-0.016635,0.047884,0.167594,9.639056,0.019156,0.030863,0.006385,34.848633,80.862891,24.289453
4.616979,-0.713319,-1.157177,0.014467,-0.018087,-0.081403,0.134075,9.667786,0.015963,0.029798,0.009578,34.848633,79.069922,23.600391
4.718591,-0.750745,-1.148163,0.009641,-0.011865,-0.047884,0.148441,9.758766,0.014899,0.027670,0.007450,35.206055,79.787109,24.289453
4.819719,-0.677270,-1.141680,0.023908,-0.006871,-0.110133,0.181959,9.715670,0.017028,0.028734,0.003193,35.206055,79.787109,24.289453
4.921282,-1.105842,-1.147330,0.009552,-0.019328,-0.033519,0.239420,9.706094,0.019156,0.029798,0.006385,35.206055,79.787109,24.289453
5.022872,-0.670983,-1.138886,0.023967,-0.001259,0.000000,-0.210690,9.677363,0.009578,-0.029798,0.020220,36.278320,80.504297,26.701172
5.124377,-0.753847,-1.167851,0.046961,0.006850,-0.502782,0.158017,9.773131,0.010642,-0.020220,0.031927,33.597656,81.042187,24.117188
5.225666,-0.991160,-1.147201,-0.000752,-0.025056,0.225055,0.119710,9.725247,0.006385,0.011706,0.011706,35.920898,80.145703,26.012109
5.327160,-0.607593,-1.155134,0.012407,-0.013420,-0.114922,0.215478,9.686940,-0.008514,-0.011706,0.002128,34.312500,79.966406,24.117188
5.428437,-0.598525,-1.163565,-0.015877,-0.033261,0.421379,0.248997,9.543288,0.013835,0.020220,-0.023413,34.312500,79.607812,23.772656
5.529721,-0.772179,-1.148922,0.008409,0.005630,-0.100556,0.009577,9.696517,0.011706,-0.125578,-0.171340,35.563477,78.711328,25.323047
5.631183,-0.841545,-1.147557,-0.058714,-0.037501,0.617704,0.181959,9.572018,0.017028,-0.685360,0.002128,35.920898,76.918359,26.012109
5.732763,-0.581406,-1.165366,-0.125441,-0.063502,1.364695,0.129287,9.605537,0.013835,-0.448038,0.007450,35.920898,76.918359,26.012109
5.833921,-0.616757,-1.149826,-0.136552,-0.080084,1.580173,0.196325,9.605537,0.021284,-0.322460,0.008514,37.886719,73.870312,27.217969
5.935497,-0.495769,-1.174650,-0.184410,-0.104286,2.063802,0.201113,9.385271,0.015963,-0.384185,-0.001064,36.993164,72.973828,27.734766
6.037400,-0.723165,-1.171233,-0.235291,-0.117022,2.475605,0.263362,9.437943,-0.017028,-0.329910,-0.104294,37.350586,70.105078,28.079297
6.138960,-0.587271,-1.205000,-0.289702,-0.116824,2.906561,0.110133,9.203311,-0.020220,-0.304368,-0.104294,34.133789,67.236328,28.079297
6.240476,-0.682126,-1.177443,-0.304078,-0.150259,3.213019,0.196325,9.030929,0.013835,-0.213909,0.000000,37.529297,65.981250,27.907031
6.341957,-0.817184,-1.178825,-0.343274,-0.162786,3.433285,0.196325,8.877700,-0.018092,-0.216038,-0.076624,37.529297,64.546875,29.285156
6.443289,-0.628422,-1.183972,-0.372279,-0.157795,3.849876,0.110133,8.868123,-0.007450,-0.103230,-0.044697,37.529297,63.829687,28.251563
6.544694,-0.794670,-1.196200,-0.378451,-0.168473,3.926491,0.124498,8.963891,0.012771,-0.156441,0.001064,38.065430,62.933203,30.146484
6.645758,-0.677520,-1.213353,-0.398256,-0.163622,4.113238,0.201113,8.748413,0.013835,-0.190496,0.006385,38.065430,62.933203,30.146484
6.747634,-0.824791,-1.225529,-0.429848,-0.164514,4.381389,0.138864,8.705317,0.013835,-0.172404,0.004257,38.065430,62.933203,30.146484
6.848710,-0.877682,-1.166145,-0.427709,-0.187838,4.414908,0.114922,8.805874,0.018092,-0.110679,0.006385,38.958984,58.809375,27.217969
6.950320,-0.738156,-1.223566,-0.478524,-0.169745,4.716577,0.138864,8.566454,0.015963,-0.161762,0.001064,37.350586,59.347266,29.801953
7.051828,-0.942733,-1.201114,-0.500988,-0.181963,4.817134,0.086191,8.283938,0.015963,-0.138349,0.003193,38.601562,57.016406,28.940625
7.152996,-0.701888,-1.235934,-0.498697,-0.175925,4.860229,0.129287,8.418013,-0.027670,-0.100037,-0.067046,37.171875,57.016406,29.629687
7.254024,-0.390216,-1.232280,-0.521277,-0.187232,5.008670,0.143652,8.245631,0.005321,-0.118129,-0.008514,37.886719,55.940625,28.251563
7.355350,-0.829909,-1.241373,-0.547860,-0.193829,5.281609,0.153229,8.092402,0.017028,-0.089395,0.004257,37.171875,56.299219,28.940625
7.456966,-0.426217,-1.273004,-0.555823,-0.192724,5.453991,0.196325,8.063671,0.017028,-0.050019,0.005321,37.171875,56.299219,28.940625
7.557889,-0.306557,-1.258218,-0.538471,-0.188987,5.396531,0.258574,8.748413,0.028734,0.015963,-0.078753,36.814453,54.864844,28.251563
7.659325,-0.689986,-1.268680,-0.579553,-0.185920,5.525817,0.181959,8.034941,-0.085138,-0.068110,-0.139413,35.920898,53.968359,28.423828
7.760943,-0.478850,-1.240505,-0.590736,-0.206762,5.664681,0.134075,7.829039,0.015963,-0.143670,0.000000,38.958984,53.430469,29.285156
7.862357,-0.296735,-1.246304,-0.593219,-0.201999,5.631162,0.124498,7.809886,-0.018092,-0.399084,-0.040441,38.601562,53.071875,29.285156
7.963943,-0.289590,-1.293325,-0.689908,-0.185823,6.258443,0.114922,7.431602,0.013835,-0.443782,0.003193,38.601562,52.354687,27.907031
8.065656,-0.480962,-1.349685,-0.725142,-0.159030,6.641515,0.124498,7.192182,0.011706,-0.377800,0.003193,38.780273,49.665234,29.457422
8.166944,-0.199847,-1.382062,-0.803039,-0.140026,7.010222,0.067038,6.622362,0.007450,-0.553397,0.001064,37.529297,46.258594,27.907031
8.268178,-0.631861,-1.493104,-0.869339,-0.065767,7.527370,0.081403,6.368576,-0.017028,-0.460809,-0.021284,37.529297,46.258594,27.907031
8.369801,-0.677807,-1.563004,-0.914384,-0.006775,7.680599,0.076614,5.803545,0.017028,-0.219230,0.006385,37.529297,46.258594,27.907031
8.470844,-0.346222,-1.507182,-0.947752,-0.072499,7.814674,0.234632,5.693412,0.019156,-0.183047,0.004257,39.137695,39.624609,26.012109
8.572282,-0.660484,-1.553489,-0.965106,-0.028962,8.006210,0.086191,5.540183,0.017028,-0.191560,0.002128,37.171875,39.445312,25.150781
8.673885,-0.429115,-1.663981,-0.984910,0.053696,8.188170,0.244209,5.310339,0.015963,-0.276698,0.003193,36.457031,38.728125,26.873438
8.775283,-0.470609,-1.775441,-1.033458,0.173442,8.374917,0.038307,4.946421,0.013835,-0.095780,0.006385,39.852539,36.397266,26.701172
8.876777,-0.699733,-1.683169,-1.038537,0.091646,8.279149,0.062249,4.994305,0.018092,-0.063853,0.004257,38.601562,37.293750,24.117188
8.978507,-0.588457,-1.694139,-1.040001,0.094487,8.513781,0.143652,4.869806,0.012771,-0.283084,0.003193,38.780273,36.038672,24.978516
9.080351,-0.304885,-1.900240,-1.084914,0.288332,8.810662,0.110133,4.256891,0.011706,-0.452295,0.001064,38.780273,36.038672,24.978516
9.181477,-0.378939,-2.035947,-1.109411,0.395176,8.882488,0.181959,3.979163,0.015963,-0.083009,0.003193,37.708008,32.452734,23.600391
9.282827,-0.488323,-2.016419,-1.120831,0.396961,8.858546,0.143652,3.749320,0.017028,-0.158569,0.001064,36.457031,31.914844,22.050000
9.384214,-0.296617,-2.075378,-1.134741,0.456590,8.939949,0.090980,3.615245,0.013835,-0.304368,0.004257,39.316406,32.632031,22.739062
9.485928,-0.612909,-2.285058,-1.147778,0.658189,9.279926,0.071826,3.074155,0.009578,-0.311818,0.004257,38.244141,31.556250,22.739062
9.586777,-0.286480,-2.349117,-1.177096,0.719465,9.260772,0.354342,2.834735,-0.084074,-0.421433,-0.027670,38.958984,29.404687,19.982813
9.688234,-0.270631,-2.544602,-1.158690,0.928758,9.572018,0.100556,2.226608,0.018092,-0.080881,0.004257,38.958984,29.404687,19.982813
9.789396,-0.463575,-2.666485,-1.136625,1.052988,9.600749,0.114922,1.987187,0.017028,0.007450,0.004257,38.958984,29.404687,19.982813
9.891148,-0.220959,-2.683512,-1.133550,1.071622,9.457097,0.090980,1.857900,0.022349,-0.002128,-0.002128,39.137695,25.639453,18.776953
9.992733,-0.487015,-2.712628,-1.111033,1.090250,9.605537,0.143652,1.920150,0.018092,-0.006385,-0.003193,36.278320,25.280859,18.432422
10.094073,-0.181495,-2.710542,-1.120489,1.078275,9.605537,0.167594,1.948880,0.014899,0.020220,0.005321,38.780273,25.280859,18.432422
10.195448,-0.275649,-2.739289,-1.129833,1.109806,9.543288,0.186748,1.843535,0.017028,0.035119,0.009578,38.958984,25.101562,18.604688
10.296948,-0.509543,-2.687121,-1.162618,1.054027,9.572018,0.158017,2.044648,0.013835,0.022349,0.004257,38.780273,24.922266,17.398828
10.398169,-0.335553,-2.648808,-1.182595,1.010665,9.543288,0.287304,1.896208,-0.012771,0.021284,-0.003193,39.316406,25.818750,16.882031
10.499932,-0.364252,-2.660084,-1.155441,1.040856,9.476250,-0.019154,1.972822,-0.050019,0.029798,-0.005321,39.495117,24.563672,17.398828
10.601353,-0.250673,-2.648949,-1.195901,1.040348,9.528923,0.090980,1.924938,0.015963,0.019156,0.009578,39.673828,26.894531,16.882031
10.702957,-0.644124,-2.678253,-1.175482,1.054205,9.495404,0.172383,1.805228,0.018092,0.030863,0.006385,39.673828,25.101562,17.571094
10.804205,-0.353642,-2.688888,-1.158189,1.074039,9.528923,0.134075,1.958457,0.021284,0.023413,0.012771,40.209961,23.129297,17.054297
10.905618,-0.506784,-2.678031,-1.153327,1.074377,9.610325,0.090980,1.862689,0.017028,0.031927,0.006385,40.746094,25.460156,17.915625
11.007004,-0.584361,-2.654534,-1.154749,1.030765,9.619902,0.134075,2.063802,0.014899,0.037248,0.009578,38.958984,26.535937,18.260156
11.107693,-0.721758,-2.684057,-1.157572,1.061656,9.576807,0.177171,1.910573,0.012771,0.039376,0.008514,38.958984,26.535937,18.260156
11.209275,-0.809527,-2.689727,-1.157824,1.070396,9.576807,0.100556,1.924938,0.018092,0.022349,0.005321,38.958984,26.535937,18.260156
11.310298,-0.602432,-2.690444,-1.158369,1.070257,9.538499,0.081403,2.006341,0.017028,0.014899,0.005321,38.422852,24.563672,17.054297
11.411475,-0.297739,-2.702055,-1.158252,1.082776,9.543288,0.095768,1.877054,0.018092,0.031927,0.004257,38.422852,24.563672,17.054297
11.513165,-0.402619,-2.645983,-1.168745,1.025572,9.548076,0.148441,2.054225,0.019156,0.025541,0.006385,39.673828,25.460156,17.226562
11.614560,-0.358053,-2.677777,-1.161644,1.063101,9.595960,0.124498,1.944092,0.020220,0.023413,0.006385,39.316406,24.384375,17.226562
11.715190,-0.408345,-2.686017,-1.155806,1.051361,9.519346,0.220267,1.905785,0.015963,0.024477,0.008514,38.244141,25.818750,17.915625
11.816797,-0.278212,-2.680319,-1.141779,1.067333,9.600749,0.124498,1.872266,0.019156,0.042569,0.005321,38.780273,25.639453,17.743359
11.918088,-0.566058,-2.672367,-1.151490,1.054704,9.552865,0.100556,1.991976,0.019156,0.019156,0.008514,38.780273,25.639453,17.743359
12.019356,-0.491140,-2.661135,-1.167093,1.039686,9.600749,0.134075,1.915361,0.020220,0.038312,0.005321,39.852539,24.205078,16.709766
12.120723,-0.340514,-2.703246,-1.133779,1.076169,9.677363,0.186748,1.953669,0.017028,0.036184,0.006385,39.673828,24.742969,18.949219
12.222100,-0.509327,-2.683127,-1.165211,1.059985,9.576807,0.095768,2.030283,0.019156,0.011706,0.006385,39.316406,25.818750,17.571094
12.323159,-0.176698,-2.681959,-1.145865,1.060808,9.533711,0.153229,1.853112,0.015963,0.014899,0.008514,40.031250,22.950000,17.226562
12.424569,-0.542985,-2.709247,-1.167943,1.086775,9.672575,0.172383,1.891419,0.017028,-0.001064,0.004257,38.780273,24.922266,16.709766
12.525812,-0.224630,-2.699950,-1.162771,1.083101,9.576807,0.114922,1.781286,0.015963,0.007450,0.006385,38.780273,24.922266,16.709766
12.627158,-0.100931,-2.697194,-1.163280,1.073647,9.643844,0.215478,1.757344,0.014899,0.048954,0.006385,38.780273,24.922266,16.709766
12.728336,-0.403917,-2.657536,-1.149207,1.044958,9.595960,0.100556,1.843535,0.017028,0.031927,0.007450,37.708008,25.280859,18.087891
12.829402,-0.370474,-2.731305,-1.147884,1.110678,9.581595,0.067038,1.948880,0.012771,0.026606,0.009578,39.852539,24.205078,16.709766
12.930899,-0.607043,-2.668144,-1.163397,1.047110,9.610325,0.129287,1.920150,0.021284,0.035119,0.007450,39.852539,24.205078,16.709766
13.032133,-0.520527,-2.704252,-1.138914,1.089802,9.605537,0.067038,1.848324,0.015963,0.018092,0.007450,38.244141,24.742969,17.571094
13.133934,-0.484526,-2.664507,-1.178291,1.058351,9.581595,0.090980,1.738190,0.015963,0.035119,0.009578,39.137695,24.922266,16.365234
13.235228,-0.468009,-2.710391,-1.177899,1.083103,9.605537,0.148441,1.867477,0.017028,0.034055,0.006385,39.673828,24.025781,16.537500
13.336421,-0.323191,-2.736490,-1.139747,1.116405,9.548076,0.114922,1.838747,0.012771,0.032991,0.006385,39.137695,23.846484,17.743359
13.437884,-0.488148,-2.673654,-1.201367,1.059783,9.662998,0.095768,1.838747,0.015963,0.029798,0.006385,37.708008,25.280859,15.331641
13.539238,-0.200595,-2.647501,-1.209734,1.034238,9.600749,0.114922,1.838747,0.018092,0.050019,0.007450,38.422852,25.998047,16.020703
13.640856,-0.035183,-2.662888,-1.138326,1.038054,9.605537,0.124498,2.001553,0.017028,0.057468,0.008514,39.316406,24.742969,18.260156
13.742807,-0.344924,-2.672728,-1.151347,1.057324,9.624691,0.148441,1.872266,0.017028,0.035119,0.007450,39.495117,24.563672,17.054297
13.844610,-0.441496,-2.686004,-1.192180,1.068918,9.495404,0.134075,1.829170,0.018092,0.029798,0.001064,39.673828,25.101562,16.192969
13.946858,-0.575131,-2.622516,-1.203998,0.992267,9.581595,0.162806,1.896208,0.015963,0.026606,0.009578,38.601562,25.460156,16.192969
14.048723,-0.449680,-2.620146,-1.203750,1.006724,9.600749,0.100556,1.920150,0.017028,0.028734,0.005321,38.601562,25.460156,16.192969
14.150535,-0.263716,-2.595989,-1.194977,0.982458,9.485827,0.090980,2.025495,0.020220,0.023413,0.008514,38.601562,25.460156,16.192969
14.252897,-0.178043,-2.636161,-1.182583,1.014715,9.639056,0.148441,1.905785,0.017028,0.030863,0.005321,39.673828,24.384375,16.882031
14.354346,-0.019908,-2.658988,-1.153708,1.039647,9.629479,0.095768,2.030283,0.020220,0.034055,0.005321,38.958984,23.667188,16.882031
14.456958,-0.376778,-2.648872,-1.165471,1.017156,9.552865,0.153229,1.963245,0.017028,0.032991,0.004257,39.673828,25.101562,17.226562
14.558805,-0.570333,-2.641583,-1.165333,1.019974,9.615114,0.172383,1.924938,0.019156,0.032991,0.007450,40.388672,25.101562,17.571094
14.661265,0.099076,-2.686622,-1.173769,1.059267,9.682152,0.215478,1.924938,0.019156,0.028734,0.007450,39.137695,23.846484,16.365234
14.762972,-0.516585,-2.672055,-1.179902,1.045467,9.552865,0.201113,1.896208,0.020220,0.001064,0.007450,39.137695,24.563672,16.709766
14.865170,-0.363670,-2.750717,-1.173373,1.121315,9.777920,0.215478,1.719037,0.020220,-0.105358,-0.042569,41.282227,25.998047,17.398828
14.967094,-0.291039,-2.733951,-1.191603,1.102852,9.610325,0.248997,1.771709,0.018092,0.039376,0.009578,39.673828,24.742969,14.814844
15.069366,-0.008152,-2.613082,-1.204617,1.010673,9.878476,-0.617704,1.575385,0.022349,0.007450,0.001064,39.137695,25.639453,17.743359
15.171251,-0.413764,-2.587987,-1.170983,0.972861,9.471462,0.114922,2.451662,0.020220,0.782205,0.013835,38.244141,25.460156,19.293750
15.273410,-0.465681,-2.411207,-1.175640,0.795425,9.662998,0.052672,2.504335,0.232001,0.353322,0.076624,38.244141,25.460156,19.293750
15.374873,-0.181736,-2.423898,-1.147007,0.790515,9.749189,-0.062249,3.088520,-0.350130,0.877985,-0.155377,38.065430,27.073828,21.533203
15.476305,-0.543932,-2.219866,-1.109208,0.568914,8.738836,0.028730,3.916914,0.106422,0.006385,0.045762,38.065430,27.073828,21.533203
15.578381,-0.582650,-2.126653,-1.134025,0.485645,9.337386,0.775721,3.773262,0.061725,-0.221359,0.010642,38.065430,27.073828,21.533203
15.679809,-0.458562,-2.235751,-1.182879,0.589069,9.117120,0.914585,-0.995988,0.915233,-0.804554,0.379928,39.673828,31.556250,21.016406
15.781414,-0.377876,-2.376758,-1.102073,0.757577,5.559336,2.571373,-1.522712,0.960995,-1.573988,0.225616,38.065430,28.508203,22.222266
15.883113,-0.459310,-2.395308,-1.116580,0.756184,9.562441,0.134075,2.255338,0.021284,-0.569360,0.005321,35.027344,24.742969,21.360938
15.984691,-0.585350,-2.755411,-1.109947,1.149239,9.710882,0.172383,0.675165,0.022349,-0.485286,-0.002128,35.206055,20.619141,18.776953
16.086532,-0.436851,-3.014651,-1.037422,1.409538,9.758766,0.229843,0.579397,0.023413,-0.716223,-0.001064,35.027344,20.798437,15.159375
16.188399,-0.347207,3.138610,-0.966350,1.546936,9.821015,0.201113,0.071826,0.041505,-0.051083,0.013835,34.848633,17.391797,12.230859
16.290363,-0.529899,3.124669,-0.934521,1.577211,9.763554,0.124498,-0.047884,0.037248,0.039376,0.009578,35.742188,17.571094,12.058594
16.391591,-0.580232,3.116452,-0.962849,1.570524,9.797073,0.225055,-0.047884,0.123450,0.042569,0.009578,34.312500,18.288281,12.058594
16.493315,-0.493463,-3.125861,-0.950530,1.540213,9.844957,0.201113,0.095768,0.013835,-0.041505,0.017028,34.491211,17.750391,13.608984
16.594722,-0.269787,3.067148,-0.916320,1.618596,9.782708,0.196325,-0.047884,0.020220,0.133028,0.005321,33.240234,19.364062,11.714063
16.695830,-0.028920,3.135056,-1.001415,1.554269,9.787496,0.229843,0.052672,0.015963,0.009578,0.010642,33.240234,19.364062,11.714063
16.797873,-0.147936,3.119113,-1.006861,1.586003,9.739612,0.172383,-0.134075,0.018092,0.025541,0.008514,33.240234,19.364062,11.714063
16.900029,-0.737569,3.127983,-1.009474,1.561159,9.782708,0.172383,0.004788,0.013835,0.055340,0.007450,33.240234,19.364062,11.714063
17.001524,-0.515116,3.134124,-0.953250,1.557886,9.816227,0.239420,-0.057461,0.015963,0.077688,0.005321,33.955078,17.571094,12.058594
17.103541,-0.512085,3.126896,-0.932788,1.575581,9.830592,0.181959,-0.038307,0.019156,0.027670,0.009578,34.669922,17.929688,13.092187
17.205379,-0.648734,3.105582,-0.907201,1.582858,9.878476,0.258574,-0.062249,0.017028,0.034055,0.006385,33.955078,16.495313,12.403125
17.307318,-0.722472,3.120245,-0.944604,1.578620,9.797073,0.124498,-0.014365,0.015963,0.052147,0.005321,35.384766,17.929688,12.058594
17.408885,-0.605310,3.122354,-0.885361,1.572362,9.806650,0.201113,-0.043096,0.018092,-0.014899,0.011706,35.384766,16.136719,13.436719
17.510369,-0.499664,3.075849,-0.923030,1.619374,9.744401,0.181959,-0.191536,0.023413,-0.083009,0.014899,33.955078,17.571094,11.369531
17.612461,-0.361064,3.118205,-0.934904,1.574520,9.873688,0.215478,-0.014365,0.018092,0.078753,0.002128,35.384766,17.571094,12.747656
17.714317,-0.669738,3.131902,-0.946354,1.557198,9.725247,0.191536,0.014365,0.013835,0.001064,0.012771,33.597656,18.646875,12.747656
17.816200,-0.648004,3.100400,-0.958124,1.586509,9.825804,0.201113,0.004788,0.014899,0.030863,0.011706,34.491211,18.826172,12.575391
17.917961,-0.700031,3.123390,-0.976892,1.581327,9.792285,0.191536,0.004788,0.014899,0.020220,0.010642,33.776367,18.826172,12.230859
18.019146,-0.857169,3.114810,-0.991840,1.570720,9.811438,0.244209,0.000000,0.019156,0.028734,0.007450,34.491211,19.184766,12.230859
18.120767,-0.597122,3.115027,-0.994564,1.581154,9.830592,0.162806,0.038307,0.015963,0.018092,0.008514,34.491211,19.184766,12.230859
18.222229,-0.665128,3.132510,-0.990535,1.557598,9.749189,0.220267,0.019154,0.015963,0.163891,-0.003193,34.491211,19.184766,12.230859
18.323842,-0.677649,-3.119768,-1.000651,1.530562,9.787496,0.229843,0.177171,0.013835,0.738572,0.014899,34.491211,19.543359,13.608984
18.425178,-0.454586,-2.903434,-1.106793,1.303731,7.364564,-3.007117,0.359130,-0.064918,1.400519,0.108551,34.491211,24.563672,19.810547
18.527748,-0.804378,-2.820496,-1.056264,1.173118,9.591172,0.253785,1.991976,0.015963,0.057468,0.008514,34.491211,24.563672,19.810547
18.629263,-1.029717,-2.798373,-1.027789,1.153452,9.481039,0.177171,2.078167,0.021284,0.312882,0.009578,33.776367,22.412109,19.121484
18.731487,-0.824118,-2.667200,-1.041504,1.007632,9.260772,0.196325,2.643199,0.014899,0.587452,0.011706,34.491211,22.770703,20.499609
18.832395,-0.862486,-2.474391,-1.068261,0.817444,9.279926,0.114922,3.347094,0.048954,0.853508,0.022349,32.346680,27.073828,22.566797
18.933823,-1.173636,-2.175039,-1.043066,0.489482,8.647856,0.512359,4.333505,0.432075,1.477143,0.249028,33.418945,28.508203,25.667578
19.035348,-1.208715,-1.820086,-0.944875,0.144775,7.383718,0.253785,6.234501,0.017028,1.702759,0.014899,32.167969,34.425000,27.907031
19.137470,-0.999009,-1.568623,-0.814390,-0.114029,5.219360,-0.359130,7.192182,-0.008514,2.316816,0.042569,33.240234,44.107031,31.352344
19.239351,-0.917048,-1.430977,-0.652600,-0.282769,3.878607,0.100556,9.303868,-0.020220,1.417547,-0.052147,31.810547,56.657812,32.385938
19.340653,-0.910534,-1.400452,-0.518262,-0.295903,3.026271,0.545878,10.534487,0.011706,1.274941,-0.057468,32.167969,66.698437,31.352344
19.442617,-1.438561,-1.384816,-0.406963,-0.223412,4.108450,0.397437,9.763554,-0.030863,0.076624,-0.118129,32.167969,66.698437,31.352344
19.544263,-0.980806,-1.332891,-0.297134,-0.168850,1.364695,-0.536301,8.068460,-0.052147,1.431382,-0.040441,32.167969,66.698437,31.352344
19.645226,-0.978937,-1.272617,-0.159428,-0.193083,0.248997,0.306458,9.399636,-0.062789,-0.035119,0.071303,34.133789,76.201172,26.012109
19.746904,-0.915868,-1.228342,-0.068807,-0.092060,0.105345,0.134075,9.619902,0.015963,0.054275,0.006385,35.742188,79.607812,25.150781
19.848151,-1.166263,-1.176821,0.007553,-0.024781,0.057461,0.225055,9.773131,0.023413,0.047890,0.010642,33.597656,80.325000,26.184375
19.949435,-1.099615,-1.154160,0.006459,0.003154,-0.019154,0.110133,10.036493,0.043633,0.061725,0.268185,35.742188,79.966406,24.461719
20.051130,-1.069539,-1.152543,-0.000386,-0.045068,0.330400,0.392649,10.860099,0.017028,0.035119,0.002128,33.955078,79.607812,23.428125
20.152493,-1.077964,-1.170311,0.001803,-0.030274,-0.004788,0.354342,9.691728,0.017028,0.054275,0.018092,34.312500,81.400781,25.150781
20.254554,-1.354431,-1.166289,0.005501,-0.010200,-0.019154,0.143652,9.715670,0.010642,0.001064,0.007450,34.312500,81.400781,25.150781
20.356663,-1.319917,-1.176302,-0.010400,-0.021075,0.287304,0.153229,9.749189,0.011706,0.006385,-0.109615,34.133789,81.938672,24.289453
20.458239,-1.458659,-1.161971,0.019207,-0.008938,-0.153229,0.172383,9.528923,0.014899,0.029798,0.004257,33.240234,78.173437,22.739062
20.560028,-1.110655,-1.158591,0.001934,-0.025512,0.014365,0.186748,9.701305,0.019156,0.027670,0.005321,34.669922,78.890625,24.461719
20.661571,-1.083398,-1.149582,0.009332,-0.024018,-0.047884,0.229843,9.619902,0.018092,0.032991,0.006385,35.384766,80.683594,24.806250
20.763712,-1.040369,-1.158639,0.023358,-0.022096,-0.086191,0.248997,9.677363,0.015963,0.030863,0.005321,35.027344,80.325000,23.083594
20.865777,-1.197977,-1.156333,0.012420,-0.018003,0.272939,0.057461,9.706094,0.019156,0.040441,-0.101101,35.027344,80.325000,23.083594
20.967032,-1.039563,-1.152500,0.009889,-0.010251,-0.071826,0.158017,9.763554,0.013835,0.011706,0.006385,35.027344,80.325000,23.083594
21.069051,-1.308028,-1.150013,0.020368,-0.010390,-0.196325,0.191536,9.691728,0.014899,0.028734,0.004257,35.563477,80.145703,25.667578
21.170692,-1.083614,-1.150763,0.034373,-0.013866,-0.143652,0.181959,9.648633,0.015963,0.030863,0.007450,35.206055,79.428516,24.289453
21.272097,-0.883174,-1.157503,0.029811,-0.018486,-0.158017,0.253785,9.572018,0.015963,0.025541,0.005321,35.206055,80.862891,24.978516
21.374092,-1.085583,-1.169413,0.011242,-0.021761,-0.043096,0.205901,9.548076,0.017028,0.029798,0.005321,33.955078,81.042187,24.461719
21.476243,-0.780009,-1.148242,0.014409,-0.020916,-0.090980,0.181959,9.610325,0.018092,0.038312,0.007450,34.848633,78.711328,24.978516
21.578012,-1.303010,-1.162092,0.040574,-0.031551,-0.402226,0.531513,10.122685,0.047890,0.286276,-0.006385,33.418945,80.862891,23.944922
21.679774,-1.134261,-1.161923,0.072617,-0.041484,-0.325611,-0.478840,11.449072,0.026606,1.329216,0.063853,32.346680,84.090234,21.877734
21.781339,-0.948071,-1.192286,0.245426,-0.054912,-2.533065,0.430956,10.596737,-0.040441,2.040118,-0.024477,31.631836,85.883203,12.575391
21.883723,-1.300383,-1.267024,0.402714,-0.111733,-4.620809,-0.421379,7.987057,-0.105358,2.100779,0.101101,27.521484,87.855469,2.756250
21.984918,-1.169106,-1.360521,0.541828,-0.166220,-6.703765,-0.565032,5.702988,-0.043633,1.659126,0.100037,24.483398,88.751953,-4.306641
22.086815,-1.117686,-1.460823,0.687464,-0.194400,-7.436390,-0.646434,4.740519,-0.041505,0.902462,-0.135156,24.483398,88.751953,-4.306641
22.188284,-0.727192,-1.547768,0.811451,-0.225567,-8.810662,-0.426168,3.811569,-0.209652,1.346244,0.062789,24.483398,88.751953,-4.306641
22.289980,-0.996650,-1.652916,0.975464,-0.282230,-9.174581,-0.277727,2.978387,0.144734,1.486721,0.167083,24.483398,88.751953,-4.306641
22.391783,-0.687493,-1.927824,1.098269,-0.512069,-9.586383,-0.316035,1.197101,-0.035119,1.221729,0.160698,22.338867,84.448828,-18.432422
22.493100,-0.732136,-2.327556,1.194005,-0.876093,-9.337386,0.067038,-0.699107,0.145799,0.510828,0.072367,23.232422,81.400781,-23.772656
22.595031,-0.603794,-2.778029,1.251549,-1.282400,-9.457097,-0.263362,-1.197101,0.061725,0.354387,0.081945,26.449219,81.042187,-25.150781
22.696774,-0.653321,3.030464,1.238163,-1.684503,-9.892841,-0.019154,-0.962469,0.034055,0.200074,0.138349,28.057617,81.938672,-28.079297
22.797990,-0.717962,2.829138,1.199727,-1.932821,-9.816227,0.263362,-1.302446,0.011706,0.068110,0.065982,29.487305,80.862891,-26.701172
22.899504,-0.635309,2.916708,1.197986,-1.836212,-9.797073,0.220267,-0.986411,0.069175,0.174533,0.173469,29.308594,79.607812,-27.217969
23.000940,-0.770164,2.859358,1.205289,-1.913807,-9.998186,0.464475,-1.192312,0.063853,0.108551,0.020220,30.738281,79.249219,-26.184375
23.102540,-1.022211,2.813909,1.199706,-1.941841,-9.768343,0.186748,-1.201889,0.077688,0.074496,0.032991,30.202148,80.504297,-25.323047
23.204205,-0.752092,2.831977,1.221574,-1.941438,-9.686940,0.301669,-1.244985,0.059597,0.020220,0.023413,31.631836,80.504297,-24.633984
23.305955,-0.922511,2.844827,1.227154,-1.908941,-9.921572,0.153229,-1.019930,0.034055,0.052147,0.021284,31.631836,81.938672,-24.289453
23.407686,-0.791195,2.834005,1.196261,-1.918666,-9.706094,0.196325,-1.216254,0.013835,0.118129,0.019156,32.346680,80.145703,-26.356641
23.509660,-0.456895,2.804895,1.204496,-1.957171,-9.907206,0.306458,-1.426944,-0.008514,0.047890,0.023413,32.882812,81.759375,-25.839844
23.610935,-0.510693,2.826733,1.209329,-1.914403,-9.797073,0.215478,-1.134852,0.022349,0.064918,0.027670,31.989258,80.504297,-25.667578
23.712106,-0.838772,2.791106,1.194009,-1.983755,-9.691728,0.330400,-1.513135,0.007450,0.032991,0.017028,31.989258,80.504297,-25.667578
23.813358,-0.521518,2.790472,1.195530,-1.979929,-9.801862,0.253785,-1.498770,0.003193,0.038312,0.029798,31.989258,80.504297,-25.667578
23.914562,-0.768706,2.828277,1.203219,-1.950692,-9.691728,0.397437,-1.288080,0.005321,0.031927,0.026606,31.989258,80.504297,-25.667578
24.015839,-0.752183,2.844429,1.198412,-1.927470,-9.730036,0.292093,-1.292869,0.003193,0.024477,-0.003193,31.989258,80.504297,-25.667578
24.117792,-0.455626,2.817341,1.187244,-1.946947,-9.682152,0.253785,-1.441309,0.000000,-0.007450,-0.024477,30.559570,80.862891,-27.045703
24.219277,-0.702057,2.809536,1.185615,-2.003101,-10.002975,0.670376,-1.589750,0.047890,-0.212845,-0.004257,30.559570,80.862891,-27.045703
24.320496,-0.467619,2.766738,1.229834,-2.053646,-9.552865,0.938527,-1.642422,-0.087266,-2.012448,-0.048954,30.559570,80.862891,-27.045703
24.421967,-0.478079,0.496748,1.498194,1.970022,-8.580819,0.272939,4.046201,-0.061725,-4.701743,0.129835,27.342773,82.655859,-21.188672
24.523325,-0.882661,-0.215885,1.222316,1.269938,-5.573701,-0.057461,8.058883,0.490607,-2.215715,-0.127707,24.662109,88.572656,-8.613281
24.624739,-0.549001,-0.322042,1.063509,1.147115,-4.017470,0.229843,9.509769,0.186239,-1.943273,0.166019,25.198242,89.827734,1.894922
24.726328,-0.878610,-0.416294,0.885557,1.043390,-2.705448,0.445322,9.461885,-0.113872,-1.655933,-0.075560,27.521484,88.931250,9.646875
24.827667,-0.884260,-0.487492,0.762431,0.960565,-1.345541,0.560243,10.314221,0.042569,-1.282390,-0.128771,31.274414,85.166016,19.810547
24.929620,-0.789251,-0.624416,0.653362,0.783533,-0.368707,0.641646,9.773131,-0.145799,-0.323524,0.068110,30.559570,81.221484,23.600391
25.031082,-0.665290,-0.750670,0.575677,0.600531,-0.052672,0.248997,9.706094,0.021284,0.068110,0.006385,33.418945,80.145703,25.667578
25.132494,-0.567026,-0.861889,0.488461,0.432781,-0.153229,0.229843,9.662998,0.017028,0.035119,0.010642,33.597656,80.683594,24.806250
25.234765,-0.735451,-0.955552,0.373912,0.277386,-0.153229,0.138864,9.591172,0.021284,0.044697,0.008514,33.597656,80.325000,25.839844
25.336787,-0.740569,-1.033613,0.237480,0.136736,0.014365,0.258574,9.864111,0.024477,0.074496,0.008514,33.418945,80.145703,24.289453
25.437814,-0.947274,-1.106036,0.093561,0.024400,-0.177171,0.215478,9.730036,0.013835,0.041505,0.118129,33.240234,82.117969,25.150781
25.539998,-0.877060,-1.177809,0.023231,-0.006637,-0.181959,0.086191,9.667786,0.020220,0.030863,0.007450,33.240234,82.117969,25.150781
25.641435,-0.506773,-1.185581,0.025427,-0.000889,-0.244209,0.148441,9.730036,0.014899,0.030863,0.005321,32.346680,82.655859,24.289453
25.742728,-0.580095,-1.180114,0.026599,-0.025426,-0.153229,0.263362,9.629479,0.021284,0.028734,0.009578,32.525391,80.325000,24.461719
25.844449,-0.624113,-1.175855,0.021328,-0.022406,-0.119710,0.239420,9.763554,0.015963,0.026606,0.005321,33.061523,80.504297,26.012109
25.946306,-0.299721,-1.157106,0.032265,-0.015330,-0.181959,0.229843,9.658209,0.015963,0.030863,0.007450,34.312500,78.890625,24.806250
26.047484,-0.366536,-1.185370,0.011039,-0.021477,-0.043096,0.239420,9.730036,0.014899,0.029798,0.007450,31.989258,80.504297,26.012109
26.148375,-0.502130,-1.175585,0.016247,-0.012624,-0.143652,0.225055,9.658209,0.018092,0.029798,0.006385,32.346680,80.145703,24.978516
26.250460,-0.630301,-1.171965,0.019572,-0.016775,-0.090980,0.220267,9.624691,0.020220,0.027670,0.006385,33.418945,81.221484,25.667578
26.352233,-0.618926,-1.171545,0.014159,-0.012406,-0.124498,0.181959,9.634267,0.020220,0.029798,0.007450,32.704102,79.787109,25.323047
26.454172,-0.920333,-1.183615,0.024847,-0.015493,-0.167594,0.225055,9.720459,0.015963,0.032991,0.008514,32.525391,80.683594,24.806250
26.555551,-0.845216,-1.177204,0.025934,-0.031358,-0.071826,0.215478,9.662998,0.017028,0.038312,0.009578,33.240234,80.683594,25.839844
26.657392,-0.482836,-1.167818,0.031372,-0.010634,-0.181959,0.191536,9.696517,0.013835,0.029798,0.003193,34.133789,81.580078,24.633984
26.759486,-0.332211,-1.168744,0.010710,-0.030497,-0.095768,0.282516,9.691728,0.019156,0.027670,0.006385,33.776367,80.504297,26.356641
26.860427,-0.414698,-1.170594,0.029510,-0.024028,-0.143652,0.301669,9.543288,0.018092,0.030863,0.006385,33.776367,80.504297,26.356641
26.962032,-0.443969,-1.186204,0.010280,-0.017196,-0.052672,0.196325,9.696517,0.017028,0.029798,0.003193,32.167969,81.400781,24.461719
27.064003,-0.394276,-1.185820,0.009087,-0.013359,-0.086191,0.177171,9.643844,0.019156,0.027670,0.009578,31.810547,80.683594,25.495313
27.166014,-0.595757,-1.177089,0.028426,-0.008175,-0.162806,0.153229,9.533711,0.015963,0.029798,0.006385,33.240234,80.325000,23.772656
27.267790,-0.574915,-1.182850,0.014839,-0.025664,-0.086191,0.263362,9.629479,0.014899,0.023413,0.010642,32.346680,81.221484,26.012109
27.369364,-0.746267,-1.178609,0.019003,-0.011482,-0.162806,0.258574,9.734824,0.020220,0.029798,0.052147,32.525391,81.759375,25.495313
27.470852,-0.390918,-1.169825,0.023058,-0.015151,-0.148441,0.220267,9.710882,0.019156,0.025541,0.006385,33.776367,82.297266,24.633984
27.571499,-0.388090,-1.191985,0.009970,-0.022408,-0.043096,0.215478,9.730036,0.017028,0.027670,0.011706,31.810547,81.400781,24.117188
27.672892,-0.597892,-1.172894,0.020366,-0.019794,-0.148441,0.229843,9.792285,0.018092,0.031927,0.006385,33.240234,81.042187,24.806250
27.774956,-0.315259,-1.183959,0.012268,-0.007516,-0.134075,0.167594,9.610325,0.015963,0.029798,0.005321,31.989258,80.862891,25.323047
27.876542,-0.425569,-1.162085,0.022717,-0.018962,-0.081403,0.234632,9.639056,0.017028,0.027670,0.008514,34.133789,79.069922,24.978516
27.978073,-0.154234,-1.189294,0.020726,-0.013574,-0.153229,0.177171,9.643844,0.019156,0.028734,0.007450,31.989258,80.504297,26.356641
28.079771,-0.562106,-1.169636,0.026768,-0.016206,-0.129287,0.215478,9.816227,0.018092,0.031927,0.007450,33.418945,79.069922,24.978516
28.181231,-0.564563,-1.188571,0.011556,-0.019155,-0.081403,0.225055,9.629479,0.018092,0.024477,0.008514,32.167969,81.400781,25.150781
28.282474,-0.283584,-1.164122,0.029397,-0.008386,-0.210690,0.177171,9.543288,0.011706,0.036184,0.006385,33.418945,79.428516,25.667578
