Time, Altitude, Yaw, Pitch, Roll, Ax, Ay, Az, Pitch_rate, Roll_rate,Yaw_rate, Magx, Magy, Magz0.798393,-0.343986,0.015727,-0.106349,0.143329,0.866701,-0.512359,10.204087,0.003193,-0.021284,-0.001064,27.856055,1.571484,33.243750
0.898532,-0.217284,0.086160,-0.237329,0.291738,0.790087,-0.632069,10.194511,0.017028,0.021284,0.005321,27.505664,2.269922,34.593750
0.998616,-0.219126,0.182377,-0.365121,0.445174,0.900220,-0.512359,10.175357,0.014899,-0.001064,0.010642,28.732031,3.841406,34.762500
1.098844,-0.319699,0.310292,-0.455698,0.616127,0.770933,-0.603339,10.228029,0.012771,0.001064,0.010642,26.980078,0.349219,32.737500
1.199836,-0.259973,0.443679,-0.469906,0.783457,0.871489,-0.478840,10.074801,0.013835,0.003193,0.009578,26.104102,0.523828,33.918750
1.301495,-0.312679,0.545110,-0.427794,0.934346,0.895431,-0.574608,10.122685,0.014899,0.000000,0.012771,27.856055,1.920703,34.256250
1.402710,-0.385919,0.615944,-0.353997,1.074509,0.852336,-0.612916,10.065224,0.013835,0.007450,0.008514,27.155273,2.269922,34.256250
1.504665,-0.367078,0.657068,-0.251472,1.202045,0.833182,-0.555455,10.089166,0.012771,0.007450,0.010642,27.330469,1.396875,32.062500
1.605934,-0.233867,0.673541,-0.132475,1.328343,0.957681,-0.560243,10.160992,0.011706,0.001064,0.007450,28.206445,1.920703,32.906250
1.707751,-0.297343,0.662908,-0.002972,1.460082,0.900220,-0.545878,10.165780,0.011706,-0.006385,0.005321,27.155273,1.571484,33.581250
1.809246,-0.481147,0.622953,0.128791,1.599111,0.876278,-0.545878,9.998186,0.017028,0.003193,0.010642,27.155273,1.571484,33.581250
1.911082,-0.325589,0.555839,0.248826,1.757130,0.794875,-0.526724,10.323798,0.014899,0.013835,0.007450,27.505664,1.222266,33.243750
2.012900,-0.621964,0.460761,0.346874,1.934913,0.814029,-0.569820,10.050859,0.017028,0.020220,0.013835,27.505664,1.222266,33.243750
2.114900,-0.744238,0.340993,0.416663,2.129346,0.842759,-0.550666,10.103531,0.013835,0.005321,0.020220,26.454492,2.269922,33.243750
2.216637,-0.596580,0.207264,0.443187,2.338850,0.991199,-0.608127,10.132261,0.020220,0.023413,0.020220,27.680859,0.698437,32.737500
2.318201,-0.509942,0.070156,0.428376,2.550438,0.785298,-0.541090,10.137050,0.015963,0.001064,0.020220,27.680859,1.746094,32.737500
2.420100,-0.467030,-0.058644,0.378013,2.748939,0.890643,-0.483629,10.108319,0.013835,0.005321,0.012771,26.279297,3.492187,33.412500
2.521761,-0.723689,-0.156681,0.272777,2.921012,0.828394,-0.512359,10.108319,0.026606,0.038312,0.017028,27.680859,2.095312,32.737500
2.623534,-0.749203,-0.199722,0.115796,3.043121,0.828394,-0.560243,10.180145,0.011706,0.023413,0.014899,27.680859,2.095312,32.737500
2.725660,-0.669268,-0.174166,0.067954,3.077081,0.871489,-0.550666,10.184934,0.047890,0.052147,0.022349,27.680859,2.444531,33.750000
2.827713,-0.422488,-0.192616,0.080763,3.062477,0.871489,-0.608127,10.093954,0.011706,-0.011706,0.015963,25.928906,3.142969,32.400000
2.929776,-0.332332,-0.171737,0.044033,3.092711,0.593762,-0.459687,10.122685,0.002128,-0.021284,0.005321,28.031250,3.142969,33.075000
3.031707,-0.378486,-0.155351,0.053078,3.079445,0.641646,-0.407014,10.194511,0.013835,-0.003193,-0.002128,26.279297,2.095312,34.087500
3.132942,-0.564401,-0.148252,0.086296,3.064198,0.828394,-0.804452,10.022128,-0.032991,-0.061725,0.025541,27.856055,1.571484,33.581250
3.234316,-0.853984,-0.140607,0.078535,3.058770,0.914585,-0.574608,10.007763,-0.051083,-0.102166,0.013835,27.856055,1.571484,33.581250
3.335932,-0.509153,-0.141069,0.069909,3.042816,0.938527,-0.660800,10.122685,0.010642,0.006385,0.027670,28.381641,0.000000,33.075000
3.436947,-0.599664,-0.106599,0.077381,3.033658,1.216254,-0.651223,9.955091,0.048954,0.058532,0.031927,27.505664,0.174609,32.906250
3.539575,-0.617889,-0.065985,0.037864,3.102183,0.373495,-0.301669,10.117896,0.034055,0.047890,-0.007450,27.505664,0.174609,32.906250
3.641258,-0.305254,-0.170366,0.074790,3.061402,1.058237,-0.574608,9.983821,-0.012771,-0.032991,0.009578,28.031250,2.095312,32.737500
3.742487,-0.735655,-0.141518,0.064491,3.068789,0.952892,-0.512359,10.031705,0.005321,-0.015963,0.015963,26.980078,1.047656,31.725000
3.844437,-0.398880,-0.131699,0.071785,3.065502,0.933739,-0.675165,10.146627,0.003193,-0.003193,0.011706,27.155273,3.317578,33.243750
3.945606,-0.694328,-0.195181,0.074964,3.039039,0.943315,-0.593762,10.113108,0.071303,0.076624,0.012771,27.155273,1.222266,34.256250
4.047010,-0.367740,-0.146665,0.065290,3.067951,1.053449,-0.526724,10.093954,0.022349,0.006385,0.007450,27.330469,2.444531,33.412500
4.148820,-0.442719,-0.170876,0.082017,3.055040,1.015142,-0.656011,10.194511,0.005321,-0.031927,0.022349,27.330469,2.444531,33.412500
4.250399,-0.443842,-0.158753,0.064757,3.051794,0.919373,-0.569820,10.113108,-0.062789,-0.096844,0.028734,28.381641,2.095312,33.075000
4.351753,-0.362693,-0.138437,0.135428,3.068910,0.842759,-1.474828,10.769119,0.163891,-0.037248,0.036184,26.279297,1.047656,32.400000
4.453148,-0.680282,-0.149730,0.056728,3.078770,0.665588,-0.584185,9.811438,0.041505,0.011706,-0.007450,26.980078,1.746094,34.087500
4.554477,-0.315071,-0.157745,0.062122,3.075630,0.780510,-0.507571,9.974244,0.000000,-0.030863,-0.009578,26.980078,1.746094,34.087500
4.656261,-0.313328,-0.125042,0.057233,3.058615,0.852336,-0.478840,10.002975,-0.030863,-0.056404,0.007450,26.629687,1.047656,32.737500
4.757426,-0.461161,-0.166611,0.078077,3.056050,1.077391,-0.665588,10.180145,0.037248,0.084074,0.019156,27.680859,1.396875,33.412500
4.859564,-0.805051,-0.141836,0.060097,3.089110,0.828394,-0.833182,10.299856,-0.192625,0.218166,-0.005321,28.556836,2.968359,32.568750
4.960968,-0.573818,-0.132801,0.072892,3.133652,0.416591,-0.694318,10.371682,0.093652,-0.058532,-0.013835,27.330469,4.539844,33.075000
5.062426,-0.501082,-0.210870,0.071255,3.076419,0.909797,-0.541090,10.002975,0.174533,-0.126643,0.096844,27.330469,4.539844,33.075000
5.163415,-0.938713,-0.282530,0.093925,3.077345,0.823605,-0.746991,9.931148,0.042569,0.361836,0.053211,26.629687,4.889062,33.075000
5.264937,-0.746506,-0.206622,-0.006124,-3.136499,-0.124498,0.004788,10.323798,0.184111,0.224551,0.000000,26.629687,4.889062,33.075000
5.366433,-0.875105,-0.284146,-0.019720,-3.138969,0.368707,0.153229,9.605537,0.054275,0.002128,0.103230,26.454492,9.603516,32.231250
5.468238,-0.549079,-0.391549,-0.023094,3.100289,0.383072,0.493206,10.036493,0.015963,0.025541,-0.104294,25.578516,9.778125,30.375000
5.569998,-0.923994,-0.387961,0.018543,3.115730,0.263362,0.000000,10.180145,0.006385,0.087266,0.059597,23.125781,8.730469,31.387500
5.670612,-0.573746,-0.360880,0.009933,3.121450,0.325611,0.062249,10.031705,-0.163891,0.002128,0.160698,24.877734,9.079687,29.700000
5.772386,-0.745614,-0.377904,0.043619,3.121950,0.426168,-0.292093,10.256760,-0.055340,-0.005321,-0.015963,25.928906,9.079687,30.037500
5.873727,-0.618314,-0.344278,0.021170,3.141250,-0.090980,-0.148441,10.127473,-0.030863,-0.052147,-0.031927,28.031250,9.778125,30.037500
5.974968,-0.521755,-0.322530,0.030309,3.120258,0.162806,-0.253785,10.031705,-0.015963,-0.173469,-0.015963,28.732031,8.381250,30.037500
6.076867,-0.803970,-0.364252,0.083984,3.105477,0.785298,-0.603339,10.247183,-0.047890,-0.004257,0.047890,27.856055,8.905078,29.868750
6.178080,-0.547725,-0.293809,0.083254,3.103655,0.555455,-0.713472,10.223241,-0.029798,0.027670,-0.026606,27.856055,7.158984,29.531250
6.279449,-0.670556,-0.294928,0.067360,3.091680,0.660800,-0.531513,10.156203,0.098973,0.074496,-0.011706,27.505664,7.158984,30.881250
6.381056,-0.554044,-0.304942,0.043537,3.090210,0.593762,-0.287304,10.180145,0.081945,0.085138,-0.008514,27.505664,7.158984,30.881250
6.482599,-0.708106,-0.305650,0.054128,-3.138989,0.325611,-0.526724,10.055647,-0.018092,0.084074,0.000000,26.980078,9.428906,31.050000
6.584599,-0.502548,-0.350688,0.029430,-3.132559,0.038307,-0.320823,10.323798,-0.008514,0.052147,-0.012771,28.031250,10.825781,31.050000
6.686291,-0.433750,-0.355683,0.030200,3.138594,0.153229,-0.263362,10.156203,0.008514,-0.006385,0.019156,28.556836,11.000391,31.218750
6.788060,-0.491146,-0.371346,0.062933,3.118000,0.430956,-0.646434,10.405200,-0.109615,-0.131964,-0.012771,27.680859,8.730469,31.050000
6.889901,-0.489857,-0.316075,0.070078,3.124064,0.373495,-0.617704,10.323798,0.002128,-0.022349,0.054275,27.680859,8.730469,31.050000
6.991261,-0.766391,-0.339809,0.068853,3.119589,0.143652,-0.799663,10.017340,0.131964,-0.304368,-0.081945,27.505664,8.905078,30.543750
7.092888,-0.496634,-0.362474,0.086117,3.101698,0.775721,-0.622492,10.089166,-0.094716,0.079817,0.190496,27.505664,8.905078,30.543750
7.194674,-0.116552,-0.271402,0.058171,3.134613,0.158017,-0.574608,9.888053,0.051083,0.189432,0.021284,29.432813,7.333594,30.712500
7.296044,-0.436372,-0.323401,0.079589,-3.122090,0.105345,-0.885855,10.548853,0.036184,0.116000,-0.040441,28.907227,9.952734,30.881250
7.397591,-0.618566,-0.314425,0.106444,-3.127601,0.158017,-1.082179,10.036493,0.005321,0.150056,0.053211,27.505664,9.254297,30.206250
7.498925,-0.338006,-0.301263,0.050279,-3.107199,-0.225055,-0.584185,9.753978,0.063853,0.073431,0.048954,28.206445,10.301953,30.543750
7.600427,-0.446401,-0.356725,0.048406,-3.139513,0.493206,-0.277727,10.285490,0.433139,-0.195817,-0.325653,29.257617,11.349609,27.843750
7.701318,-0.164683,-0.381184,0.041107,-3.127805,-0.215478,-0.469264,9.916783,0.250093,-0.040441,-0.157505,29.257617,11.349609,27.843750
7.803180,-0.384328,-0.404692,0.030064,3.109245,0.823605,-0.134075,13.469779,-0.128771,0.035119,0.052147,26.454492,11.000391,27.506250
7.904272,-0.491323,-0.383063,-0.038727,-3.120907,-0.272939,0.359130,10.342951,0.081945,0.053211,0.010642,27.680859,11.873437,28.012500
8.006163,-0.460690,-0.420608,0.057173,3.139065,0.162806,-0.632069,9.892841,-0.108551,-0.107487,0.097909,27.330469,12.222656,27.337500
8.107741,-0.275983,-0.382925,0.037733,3.133662,0.143652,-0.335188,10.295067,0.126643,0.090459,-0.137285,28.031250,11.175000,26.325000
8.209494,-0.684097,-0.371937,0.001955,-3.119624,0.090980,-0.416591,10.122685,-0.130900,-0.061725,-0.203267,26.804883,11.698828,26.493750
8.310812,-0.504806,-0.424898,0.019822,-3.122520,-0.076614,-0.225055,10.917560,-0.500185,0.854572,-0.276698,25.578516,12.921094,27.337500
8.412372,-0.269095,-0.394935,0.062133,-2.906141,-2.240973,-1.805228,8.657433,-1.536740,2.043311,0.270313,25.578516,12.921094,27.337500
8.513487,-0.240201,-0.256709,0.214452,-2.737923,-3.864241,-3.385401,8.164228,-1.195124,0.507635,-0.001064,25.578516,12.921094,27.337500
8.615713,-0.569279,-0.438862,0.232703,-2.647358,-3.251326,-3.787627,8.523358,-0.568296,-0.279891,-0.394827,44.149219,30.032812,25.987500
8.717090,-0.292758,-0.534177,0.320167,-2.538395,-3.342306,-4.721366,7.402872,-0.781141,-0.006385,-0.225616,48.704297,31.080469,21.937500
8.817675,-0.100952,-0.602891,0.451512,-2.425429,-3.447650,-5.679046,6.100426,-0.594901,-0.592773,-0.023413,53.960156,29.683594,20.250000
8.919685,-0.300704,-0.667211,0.541844,-2.411599,-1.881843,-7.943961,7.139509,-0.436332,-0.291597,0.696003,59.741602,27.064453,16.368750
9.021372,-0.675821,-0.647307,0.505634,-2.505137,-3.380613,-6.502652,7.934384,0.478901,-0.233065,-0.653434,64.471875,27.239062,10.125000
9.123078,-0.502560,-0.674804,0.537761,-2.434759,-2.930503,-7.225701,6.521805,-0.661947,-0.305432,0.288405,66.048633,28.461328,12.318750
9.224146,-0.079030,-0.712206,0.508968,-2.362257,-3.174711,-7.412448,6.426037,-0.340552,-0.024477,-0.260735,66.048633,28.461328,12.318750
9.325912,-0.323657,-0.830804,0.531830,-2.312585,-2.470816,-7.580042,5.774814,-1.055710,-0.330974,-0.488479,70.078125,27.588281,3.712500
9.426877,-0.568187,-0.972139,0.610771,-2.213365,-1.795651,-7.996634,4.726154,-0.985472,-0.151120,-0.360772,72.180469,23.746875,-2.362500
9.527893,-0.422665,-1.149413,0.625161,-2.039567,-1.723825,-9.174581,2.810793,-0.949288,-0.213909,-0.297983,72.355664,21.476953,-9.281250
9.629684,0.007839,-1.290566,0.545349,-1.945438,-1.101333,-9.485827,2.451662,-0.884370,-0.058532,-0.289469,73.932422,18.508594,-15.525000
9.731251,-0.414443,-1.375746,0.489507,-1.871050,-0.861913,-9.773131,1.149217,-0.360772,-0.008514,-0.105358,74.983594,18.159375,-22.950000
9.833596,-0.293121,-1.408780,0.369322,-1.849394,-0.703895,-9.758766,0.852336,-0.401213,-0.076624,-0.232001,73.056445,18.333984,-24.468750
9.934717,-0.108286,-1.462798,0.221052,-1.821468,-0.483629,-9.653421,1.029507,-0.222423,-0.034055,-0.041505,73.056445,18.333984,-24.468750
10.036161,-0.702404,-1.471761,0.063684,-1.789537,-0.746991,-9.567230,0.914585,-0.251157,-0.026606,-0.104294,73.056445,18.333984,-24.468750
10.137731,-0.301682,-1.531468,-0.098681,-1.755154,-0.181959,-10.141838,0.593762,-0.143670,-0.052147,-0.042569,73.757227,16.937109,-26.493750
10.239353,-0.268214,-1.552992,-0.259496,-1.724787,0.057461,-9.619902,0.162806,-0.319267,-0.008514,-0.008514,72.706055,15.889453,-28.856250
10.341386,-0.431438,-1.526818,-0.429829,-1.686818,-0.201113,-9.763554,-0.100556,-0.163891,0.036184,-0.020220,75.684375,14.317969,-29.362500
10.443116,-0.194242,-1.530826,-0.604901,-1.658873,-0.301669,-9.538499,-0.067038,-0.017028,-0.010642,0.041505,73.406836,16.238672,-30.543750
10.544649,-0.131304,-1.509269,-0.756428,-1.609979,-0.526724,-9.787496,-0.148441,-0.042569,-0.014899,0.003193,73.932422,16.413281,-29.700000
10.645912,-0.359396,-1.528492,-0.899173,-1.585384,-0.339977,-9.782708,-0.081403,0.004257,0.002128,-0.042569,73.932422,16.413281,-29.700000
10.749414,-0.402831,-1.539635,-1.009376,-1.565591,-0.100556,-9.658209,-0.105345,-0.047890,0.044697,0.004257,73.757227,16.238672,-30.206250
10.850133,-0.027611,-1.541489,-1.074017,-1.572890,-0.344765,-9.753978,-0.062249,-0.007450,-0.007450,0.027670,73.582031,14.317969,-31.387500
10.951505,-0.126748,-1.450619,-1.083125,-1.466325,-0.301669,-9.859322,-0.464475,-0.020220,0.001064,-0.017028,73.231641,15.365625,-31.387500
11.052906,-0.279188,-1.497270,-1.098259,-1.504500,-0.162806,-9.686940,-0.292093,0.042569,-0.004257,0.041505,72.530859,15.016406,-30.712500
11.154731,-0.255436,-1.547340,-1.089524,-1.567408,-0.296881,-9.739612,-0.047884,-0.029798,-0.004257,-0.001064,72.706055,15.191016,-31.893750
11.255887,-0.297219,-1.508374,-1.095589,-1.532899,-0.244209,-9.811438,-0.201113,0.007450,0.001064,0.009578,72.881250,14.667187,-30.712500
11.357566,-0.130782,-1.514635,-1.120432,-1.541290,-0.186748,-9.763554,-0.167594,-0.001064,-0.011706,0.034055,74.633203,14.667187,-33.412500
11.458985,-0.322134,-1.489571,-1.122081,-1.510827,-0.311246,-9.763554,-0.272939,-0.007450,0.006385,0.024477,72.706055,14.841797,-31.893750
11.560563,-0.156612,-1.488101,-1.110223,-1.514675,-0.316035,-9.734824,-0.186748,-0.007450,0.003193,0.009578,72.530859,15.016406,-33.075000
11.661850,-0.401700,-1.476842,-1.122376,-1.503133,-0.258574,-9.667786,-0.325611,0.005321,0.010642,0.008514,71.479687,15.016406,-32.737500
11.763858,0.049350,-1.436359,-1.135463,-1.466110,-0.258574,-9.782708,-0.450110,-0.004257,0.007450,0.020220,71.654883,14.841797,-33.581250
11.865494,-0.119291,-1.474939,-1.134757,-1.487107,-0.258574,-9.639056,-0.320823,0.009578,0.014899,0.019156,73.582031,14.667187,-32.400000
11.966747,-0.201425,-1.456094,-1.123815,-1.466357,-0.306458,-9.768343,-0.397437,-0.008514,-0.008514,0.011706,74.282813,16.413281,-33.412500
12.068616,-0.282734,-1.498915,-1.109148,-1.512386,-0.220267,-9.696517,-0.320823,-0.002128,-0.001064,0.008514,74.282813,16.413281,-33.412500
12.169858,-0.138517,-1.435735,-1.105221,-1.457435,-0.311246,-9.744401,-0.454898,0.013835,-0.007450,0.022349,72.005273,16.238672,-33.581250
12.271524,-0.271666,-1.454867,-1.147857,-1.461364,-0.047884,-9.734824,-0.507571,0.007450,0.002128,0.015963,74.282813,13.619531,-32.062500
12.373238,-0.341850,-1.471116,-1.154051,-1.475286,-0.229843,-9.806650,-0.354342,0.008514,0.000000,0.011706,72.706055,14.492578,-33.918750
12.475621,-0.423891,-1.463820,-1.118961,-1.478249,-0.196325,-9.686940,-0.440533,0.001064,0.011706,-0.003193,73.757227,16.587891,-34.256250
12.576883,-0.085910,-1.437827,-1.149675,-1.453458,-0.205901,-9.744401,-0.440533,0.005321,0.015963,0.006385,74.107617,15.191016,-34.593750
12.678526,-0.390756,-1.461232,-1.165591,-1.459423,-0.162806,-9.701305,-0.454898,0.007450,0.003193,0.007450,72.706055,13.794141,-32.906250
12.780577,-0.451065,-1.466835,-1.145879,-1.480715,-0.234632,-9.677363,-0.320823,0.017028,0.002128,0.004257,73.582031,16.064062,-35.100000
12.882301,-0.436146,-1.431496,-1.150574,-1.445077,-0.158017,-9.859322,-0.541090,0.014899,0.008514,0.021284,73.582031,16.064062,-35.100000
12.983360,-0.327483,-1.413573,-1.143012,-1.435158,-0.263362,-9.763554,-0.584185,-0.006385,-0.010642,0.019156,73.582031,15.365625,-34.087500
13.084701,-0.180743,-1.418969,-1.124485,-1.422858,-0.263362,-9.758766,-0.584185,0.021284,0.005321,0.021284,73.406836,16.587891,-33.581250
13.185308,0.098916,-1.425098,-1.128480,-1.436371,-0.205901,-9.701305,-0.569820,0.005321,-0.003193,0.020220,70.778906,15.016406,-32.400000
13.287400,-0.480069,-1.432821,-1.169958,-1.426781,-0.043096,-9.639056,-0.536301,-0.023413,0.005321,0.001064,73.056445,14.143359,-33.918750
13.389162,-0.108529,-1.354480,-1.187143,-1.353808,-0.210690,-9.734824,-0.761356,0.018092,0.015963,0.030863,73.056445,14.143359,-33.918750
13.490472,-0.455759,-1.385161,-1.160610,-1.409633,-0.344765,-9.701305,-0.603339,0.002128,0.004257,0.021284,74.633203,15.714844,-34.762500
13.592233,-0.379184,-1.390456,-1.157774,-1.387688,-0.181959,-9.758766,-0.675165,0.004257,-0.010642,0.015963,72.881250,15.365625,-35.100000
13.693913,-0.419455,-1.397448,-1.163572,-1.410991,-0.138864,-9.648633,-0.636858,0.021284,0.010642,0.003193,74.282813,15.365625,-33.412500
13.795454,-0.208480,-1.408130,-1.145594,-1.411566,-0.282516,-9.777920,-0.584185,0.004257,0.014899,0.021284,74.107617,15.889453,-34.256250
13.897284,-0.256874,-1.398720,-1.170798,-1.414785,-0.095768,-9.734824,-0.646434,-0.001064,-0.006385,0.024477,73.406836,14.492578,-34.256250
13.999020,-0.331418,-1.403123,-1.165136,-1.418660,-0.239420,-9.806650,-0.603339,0.034055,0.011706,0.023413,72.180469,15.714844,-35.100000
14.100735,-0.549120,-1.415650,-1.168054,-1.422382,-0.023942,-9.567230,-0.560243,-0.008514,-0.003193,0.017028,71.654883,14.143359,-34.931250
14.201834,-0.520949,-1.364653,-1.187973,-1.366055,-0.215478,-9.624691,-0.708684,0.000000,0.017028,0.019156,71.654883,14.143359,-34.931250
14.303363,-0.690961,-1.374512,-1.181536,-1.372286,-0.210690,-9.744401,-0.699107,-0.013835,0.010642,0.017028,72.005273,14.143359,-34.593750
14.404934,-0.604313,-1.330054,-1.178721,-1.358046,-0.296881,-9.691728,-0.703895,-0.010642,0.004257,0.001064,70.603711,14.492578,-35.943750
14.507310,-0.409415,-1.343054,-1.162270,-1.349285,-0.129287,-9.686940,-0.833182,0.000000,-0.001064,-0.010642,74.458008,15.540234,-35.606250
14.608665,-0.663522,-1.387480,-1.163989,-1.384186,-0.201113,-9.658209,-0.852336,0.014899,0.017028,0.035119,72.706055,15.540234,-32.906250
14.709676,-0.405448,-1.362780,-1.161351,-1.373973,-0.100556,-9.648633,-0.799663,-0.013835,-0.003193,0.011706,74.983594,15.016406,-33.750000
14.811561,-0.624299,-1.379771,-1.154330,-1.385561,-0.215478,-9.720459,-0.770933,0.011706,0.008514,0.020220,73.056445,15.540234,-32.568750
14.913223,-0.540216,-1.388507,-1.144996,-1.389567,-0.162806,-9.572018,-0.761356,0.006385,0.001064,0.011706,74.107617,15.889453,-34.256250
15.014612,-0.492079,-1.381348,-1.181311,-1.396867,-0.239420,-9.725247,-0.617704,0.007450,0.012771,0.028734,73.056445,14.143359,-34.593750
15.116494,-0.727870,-1.398821,-1.188871,-1.414178,-0.215478,-9.672575,-0.675165,-0.010642,0.006385,0.014899,73.056445,14.143359,-34.593750
15.218032,-0.653186,-1.370640,-1.169117,-1.363021,-0.225055,-9.753978,-0.732626,-0.007450,-0.002128,0.001064,72.706055,15.540234,-34.256250
15.320091,-0.875927,-1.364307,-1.169964,-1.369839,-0.201113,-9.710882,-0.837971,0.013835,0.013835,0.015963,71.830078,14.317969,-33.412500
15.421190,-0.341531,-1.359828,-1.174754,-1.354855,-0.244209,-9.643844,-0.742203,0.018092,0.010642,0.029798,73.582031,16.413281,-34.762500
15.523137,-0.337502,-1.418258,-1.142184,-1.427178,-0.215478,-9.739612,-0.579397,0.002128,0.008514,0.011706,73.582031,16.413281,-34.762500
15.624420,-0.568398,-1.370735,-1.145452,-1.389455,-0.368707,-9.672575,-0.656011,0.015963,0.015963,0.022349,73.231641,15.714844,-33.750000
15.726297,-0.517070,-1.397694,-1.162000,-1.406666,-0.229843,-9.648633,-0.603339,-0.015963,0.019156,0.013835,73.406836,15.191016,-34.256250
15.827568,-0.882537,-1.334345,-1.159994,-1.334374,-0.268151,-9.792285,-0.837971,-0.025541,0.004257,0.009578,73.406836,15.191016,-34.593750
15.929528,-0.760684,-1.347188,-1.172278,-1.354281,-0.201113,-9.701305,-0.790087,0.025541,0.010642,0.020220,73.406836,15.191016,-34.593750
16.030981,-0.567917,-1.338507,-1.177144,-1.347533,-0.258574,-9.682152,-0.833182,0.000000,0.003193,0.018092,74.282813,14.667187,-35.437500
16.132186,-0.568831,-1.339495,-1.156235,-1.343012,-0.220267,-9.792285,-0.871489,0.027670,0.012771,0.024477,73.406836,15.540234,-33.918750
16.233999,-0.381770,-1.298445,-1.182811,-1.313663,-0.220267,-9.691728,-0.943315,0.023413,0.014899,0.018092,73.406836,13.444922,-34.593750
16.335251,-0.532554,-1.351984,-1.150114,-1.341667,-0.114922,-9.686940,-0.885855,0.002128,0.008514,0.019156,73.757227,16.587891,-33.918750
16.436866,-0.709044,-1.334070,-1.167056,-1.350318,-0.359130,-9.682152,-0.890643,0.011706,0.015963,0.020220,74.282813,14.667187,-35.100000
16.538799,-0.797839,-1.369230,-1.191078,-1.386149,-0.234632,-9.639056,-0.766145,-0.003193,0.012771,0.010642,72.355664,13.794141,-36.281250
16.640318,-0.441131,-1.330410,-1.172247,-1.321175,-0.244209,-9.639056,-0.852336,-0.002128,0.007450,0.024477,73.231641,15.714844,-33.075000
16.741947,-0.617928,-1.331092,-1.159879,-1.354686,-0.325611,-9.710882,-0.861913,0.021284,0.011706,0.017028,73.406836,14.841797,-34.931250
16.843055,-0.293857,-1.300107,-1.163518,-1.317127,-0.344765,-9.682152,-0.986411,0.006385,0.006385,0.015963,74.633203,15.016406,-34.425000
16.944619,-0.633087,-1.312992,-1.167926,-1.333306,-0.282516,-9.725247,-0.938527,0.026606,0.007450,0.021284,73.231641,15.714844,-35.437500
17.046364,-0.230189,-1.305478,-1.162420,-1.300716,-0.248997,-9.725247,-1.000776,0.002128,0.008514,0.020220,73.231641,15.714844,-35.437500
17.147842,-0.497158,-1.308810,-1.166307,-1.324139,-0.229843,-9.658209,-0.976834,0.010642,0.003193,0.017028,74.983594,15.714844,-35.775000
17.249430,-0.729425,-1.331364,-1.153610,-1.345186,-0.339977,-9.629479,-0.876278,0.015963,0.000000,0.015963,74.983594,15.714844,-35.775000
17.350732,-0.923001,-1.332313,-1.152664,-1.339699,-0.215478,-9.648633,-1.000776,0.017028,0.004257,0.014899,74.282813,15.365625,-33.750000
17.452384,-0.629697,-1.322048,-1.157527,-1.342059,-0.301669,-9.648633,-0.914585,0.006385,0.000000,0.009578,73.757227,15.540234,-35.268750
17.554632,-0.490892,-1.280539,-1.176530,-1.291314,-0.359130,-9.782708,-1.024718,0.011706,0.002128,0.029798,72.881250,13.968750,-34.087500
17.655788,-0.758496,-1.300611,-1.175264,-1.319496,-0.359130,-9.648633,-0.938527,0.010642,0.014899,0.026606,74.458008,14.492578,-35.943750
17.757382,-0.512595,-1.291182,-1.182885,-1.300226,-0.263362,-9.629479,-0.948104,0.005321,0.008514,0.018092,72.530859,13.968750,-34.762500
17.859337,-0.477689,-1.341905,-1.181256,-1.358117,-0.407014,-9.773131,-0.809240,0.012771,0.010642,0.027670,72.530859,13.968750,-34.762500
17.960578,-0.678309,-1.308318,-1.170496,-1.312087,-0.282516,-9.610325,-0.938527,0.014899,0.006385,0.007450,74.458008,14.492578,-35.268750
18.062938,-0.788141,-1.346035,-1.148362,-1.351457,-0.296881,-9.686940,-0.823605,0.007450,0.020220,0.013835,73.056445,15.889453,-34.931250
18.164189,-0.437585,-1.306734,-1.170300,-1.327424,-0.268151,-9.686940,-0.948104,-0.002128,-0.002128,0.012771,73.056445,15.540234,-36.281250
18.265800,-0.553369,-1.328292,-1.165336,-1.353790,-0.402226,-9.662998,-0.785298,0.021284,0.011706,0.018092,75.684375,14.667187,-35.100000
18.368081,-0.590874,-1.329117,-1.170498,-1.338983,-0.292093,-9.734824,-0.837971,0.025541,-0.005321,0.017028,73.582031,14.317969,-34.087500
18.469052,-0.608239,-1.326908,-1.172633,-1.337175,-0.320823,-9.615114,-0.756568,0.001064,0.012771,0.008514,73.231641,15.714844,-35.437500
18.571138,-0.613038,-1.317475,-1.152905,-1.320021,-0.325611,-9.672575,-0.938527,0.009578,0.000000,0.006385,73.231641,15.714844,-35.437500
18.673176,-0.684686,-1.310646,-1.160829,-1.320086,-0.162806,-9.615114,-1.091756,-0.013835,0.004257,0.006385,73.231641,15.714844,-35.437500
18.774240,-0.793409,-1.305559,-1.165519,-1.317860,-0.296881,-9.725247,-0.861913,0.025541,0.009578,0.018092,73.056445,15.191016,-34.593750
18.875513,-0.779381,-1.340193,-1.164759,-1.364049,-0.311246,-9.691728,-0.809240,0.008514,0.006385,0.011706,73.406836,15.191016,-35.268750
18.977315,-0.623888,-1.309097,-1.183965,-1.319130,-0.320823,-9.528923,-0.905008,0.003193,0.014899,0.021284,74.808398,15.540234,-35.268750
19.078397,-0.912803,-1.328762,-1.168180,-1.355175,-0.478840,-9.686940,-0.818817,0.020220,0.004257,0.005321,72.005273,14.492578,-35.943750
19.180010,-0.813003,-1.313627,-1.202467,-1.324864,-0.239420,-9.749189,-0.785298,0.015963,-0.012771,0.011706,73.406836,14.492578,-37.631250
19.281282,-1.095344,-1.274465,-1.202962,-1.274802,-0.186748,-9.548076,-0.986411,0.009578,-0.002128,0.013835,73.406836,14.492578,-37.631250
19.383406,-0.619111,-1.316680,-1.156372,-1.317652,-0.316035,-9.739612,-0.981623,-0.001064,-0.003193,0.011706,74.633203,16.064062,-34.425000
19.484781,-0.578126,-1.315774,-1.163957,-1.337185,-0.344765,-9.710882,-0.914585,0.019156,0.006385,0.015963,73.757227,15.889453,-35.943750
19.586557,-0.588611,-1.292442,-1.170140,-1.315766,-0.306458,-9.730036,-0.962469,0.007450,0.002128,0.023413,74.633203,15.016406,-35.100000
19.688414,-0.868082,-1.327441,-1.160700,-1.312189,-0.181959,-9.629479,-0.924162,0.004257,0.008514,0.008514,73.582031,16.064062,-34.087500
19.790095,-0.888625,-1.284405,-1.139166,-1.284024,-0.292093,-9.586383,-1.096544,-0.007450,0.008514,0.019156,73.582031,16.064062,-34.087500
19.891186,-0.486669,-1.337618,-1.156704,-1.355717,-0.311246,-9.677363,-0.799663,0.006385,0.001064,0.023413,73.406836,15.191016,-35.606250
19.992783,-0.549968,-1.333482,-1.153957,-1.339073,-0.387861,-9.581595,-0.847547,0.019156,-0.011706,0.009578,74.458008,15.191016,-34.931250
20.095150,-0.869488,-1.255899,-1.170374,-1.279423,-0.282516,-9.643844,-1.077391,0.002128,-0.007450,0.028734,74.458008,15.191016,-34.931250
20.196299,-1.000342,-1.257615,-1.173639,-1.277059,-0.239420,-9.600749,-1.072602,0.022349,0.011706,0.029798,74.633203,15.714844,-35.437500
20.297409,-0.864593,-1.333022,-1.157005,-1.355847,-0.383072,-9.710882,-0.814029,0.018092,0.013835,0.023413,73.231641,14.667187,-33.412500
20.398831,-1.107043,-1.308107,-1.144993,-1.343269,-0.450110,-9.662998,-0.952892,0.018092,-0.006385,0.000000,73.231641,14.667187,-33.412500
20.500664,-0.763865,-1.302567,-1.171146,-1.314233,-0.205901,-9.749189,-1.048660,0.010642,-0.002128,0.001064,73.406836,15.889453,-35.943750
20.601957,-1.101813,-1.287697,-1.187372,-1.288711,-0.316035,-9.653421,-0.967257,0.034055,0.019156,0.038312,74.282813,15.016406,-37.125000
20.703273,-0.824963,-1.283237,-1.191114,-1.322545,-0.454898,-9.691728,-0.924162,0.005321,-0.003193,0.013835,74.107617,13.095703,-35.606250
20.804622,-0.708640,-1.277244,-1.180642,-1.291516,-0.325611,-9.667786,-0.928950,0.030863,-0.003193,0.001064,75.509180,14.143359,-34.256250
20.905764,-0.694326,-1.281867,-1.180565,-1.295527,-0.244209,-9.653421,-1.024718,0.017028,0.009578,0.030863,74.808398,15.191016,-34.931250
21.007409,-0.674363,-1.293512,-1.139218,-1.321516,-0.459687,-9.624691,-1.000776,0.018092,-0.001064,0.015963,73.406836,15.191016,-33.918750
21.109216,-0.833404,-1.315054,-1.149083,-1.314989,-0.248997,-9.605537,-1.005565,-0.008514,0.010642,0.014899,75.333984,16.762500,-34.762500
21.210572,-0.950782,-1.324047,-1.145835,-1.337920,-0.268151,-9.648633,-0.861913,0.011706,0.014899,0.010642,73.056445,15.889453,-35.943750
21.312394,-0.689006,-1.349439,-1.163701,-1.358779,-0.215478,-9.739612,-0.833182,-0.006385,-0.005321,-0.011706,74.633203,15.016406,-36.112500
21.413531,-0.562419,-1.305899,-1.177607,-1.313367,-0.148441,-9.639056,-1.019930,0.020220,0.035119,0.043633,72.355664,15.191016,-33.918750
21.514653,-0.833570,-1.317878,-1.139762,-1.348869,-0.512359,-9.600749,-0.828394,0.015963,0.021284,0.025541,72.355664,15.191016,-33.918750
21.616234,-0.707585,-1.261105,-1.171958,-1.275388,-0.387861,-9.696517,-1.082179,0.018092,-0.006385,0.015963,74.633203,13.619531,-34.762500
21.717522,-0.739639,-1.307741,-1.186131,-1.302101,-0.201113,-9.653421,-0.976834,0.101101,0.019156,0.044697,74.458008,15.191016,-33.918750
21.819378,-0.902152,-1.349022,-1.160825,-1.355803,-0.344765,-9.696517,-0.790087,0.122386,0.042569,0.060661,74.808398,17.635547,-33.918750
21.920523,-0.880560,-1.380831,-1.108128,-1.407058,-0.454898,-9.773131,-0.703895,0.125578,0.012771,0.070239,72.881250,15.365625,-34.425000
22.022213,-0.959092,-1.366879,-1.120010,-1.396752,-0.440533,-9.911995,-0.684742,0.338423,0.035119,-0.026606,72.881250,15.365625,-34.425000
22.123551,-0.836565,-1.418880,-1.123651,-1.453539,-0.636858,-10.251972,-0.641646,1.521841,0.045762,-0.200074,75.509180,15.540234,-33.243750
22.225478,-0.509743,-1.905224,-1.104070,-1.885073,0.541090,-9.576807,1.115698,1.511198,0.120257,0.008514,74.458008,14.143359,-30.881250
22.326821,-0.837750,-2.123704,-0.998679,-2.227601,-0.517148,-9.318233,4.740519,2.283825,0.197946,0.907783,72.881250,12.571875,-19.237500
22.427941,-0.609681,-2.117933,-0.870797,-2.355970,-1.661576,-7.369353,6.234501,2.572230,-0.703452,0.863086,71.304492,17.635547,-6.581250
22.529554,-0.675876,-2.056212,-0.706125,-2.381382,-1.134852,-6.368576,7.335834,1.867714,-1.090830,0.572553,67.625391,21.651562,5.737500
22.630989,-0.713178,-2.047560,-0.523357,-2.443329,-0.775721,-5.137957,8.667010,2.119935,-1.446281,-0.055340,60.967969,19.905469,12.825000
22.732915,-0.715220,-2.120470,-0.378503,-2.551927,0.976834,-1.283292,10.256760,0.846058,0.197946,-0.736443,60.967969,19.905469,12.825000
22.834861,-0.431783,-2.088762,-0.324683,-2.601661,2.197877,-1.910573,9.437943,0.217102,0.007450,-0.107487,42.572461,9.952734,21.431250
22.936460,-0.526216,-2.021287,-0.263284,-2.650533,0.234632,-0.823605,10.467450,0.376735,0.121322,0.438460,40.995703,11.175000,23.962500
23.038115,-0.811891,-1.946273,-0.235139,-2.682238,-0.627281,-0.876278,10.299856,-0.040441,0.379928,-0.128771,38.893359,12.222656,24.300000
23.140209,-0.996233,-1.932445,-0.187616,-2.706476,-0.938527,-0.421379,10.079589,-0.253285,-0.031927,-0.590644,39.243750,13.619531,24.975000
23.241172,-0.943055,-1.885034,-0.125101,-2.721122,0.565032,-1.048660,9.998186,-0.112808,-0.032991,0.106422,39.243750,13.619531,24.975000
23.343222,-0.637917,-1.786382,-0.074403,-2.744887,0.239420,-1.584961,9.782708,0.175597,0.146863,0.325653,38.192578,11.873437,24.637500
23.444208,-0.736834,-1.681389,-0.025469,-2.805984,0.407014,-1.297657,9.715670,0.078753,-0.091523,0.207524,36.615820,13.794141,25.143750
23.546449,-0.731977,-1.593680,0.024686,-2.864957,0.177171,-1.824382,10.261548,0.171340,0.135156,-0.189432,38.192578,14.667187,24.975000
23.647724,-0.435201,-1.534230,0.054213,-2.956073,0.215478,0.023942,10.778696,0.256478,0.002128,-0.324588,38.192578,14.667187,24.975000
23.750857,-0.611301,-1.473949,0.082043,-3.050790,-0.062249,-0.234632,9.921572,-0.075560,-0.043633,-0.276698,36.090234,12.571875,25.312500
23.852451,-0.723444,-1.387886,0.110458,-3.113966,0.205901,-0.493206,10.050859,-0.147927,0.029798,-0.044697,36.090234,12.571875,25.312500
23.953977,-1.005897,-1.305174,0.121717,3.088658,0.143652,-0.296881,10.486603,0.068110,0.120257,-0.283084,32.586328,10.127344,27.000000
24.056072,-0.739266,-1.195373,0.111098,3.014496,0.225055,-0.263362,10.352528,-0.034055,-0.109615,-0.015963,30.308789,12.048047,26.493750
24.157182,-0.805521,-1.069781,0.100178,2.969122,0.177171,-0.612916,9.806650,-0.085138,-0.007450,-0.026606,29.608008,12.746484,27.168750
24.258720,-0.577491,-0.942693,0.072556,2.958380,-0.349553,-0.727837,10.505757,0.030863,0.029798,0.010642,30.308789,11.000391,26.831250
24.360303,-0.594560,-0.819814,0.052648,2.954042,0.507571,-0.555455,10.026917,-0.080881,-0.376735,-0.107487,31.009570,12.746484,26.493750
24.462294,-0.595501,-0.680895,0.055784,2.966388,0.545878,-0.344765,10.256760,0.091523,-0.288405,-0.042569,31.359961,10.301953,25.481250
24.564288,-0.691821,-0.514774,0.098932,3.000449,1.082179,-1.010353,10.797849,-0.390570,-0.218166,0.229872,30.659180,8.206641,24.468750
24.665882,-0.559394,-0.323019,0.129773,3.049906,0.991199,-1.149217,9.940725,0.122386,0.055340,0.088331,32.936719,7.682812,23.625000
24.766963,-0.549526,-0.269231,0.061649,3.120302,0.368707,-0.550666,10.658986,0.531048,0.091523,-0.166019,35.564648,9.254297,24.131250
24.868410,-0.474980,-0.295615,0.128932,3.141117,0.430956,-1.187524,9.730036,0.071303,-0.078753,0.217102,35.039062,10.825781,23.962500
24.969458,-0.509753,-0.302739,0.072381,3.009256,1.379060,-0.196325,10.266337,-0.365029,-1.125949,0.356515,34.513477,7.508203,22.443750
25.071116,-0.686261,-0.284754,0.246955,2.920875,2.868254,-1.881843,9.902418,0.048954,-0.697067,-0.141542,34.513477,7.508203,22.443750
25.172969,-0.423381,-0.136619,0.261875,2.873873,2.973598,-2.288857,9.619902,-0.001064,-0.255414,0.197946,37.141406,3.492187,16.537500
25.274766,-0.447660,-0.019412,0.229751,2.814521,3.280056,-2.068590,9.093178,0.180918,-0.146863,0.348001,37.141406,-1.047656,15.187500
25.376206,-0.347739,-0.034838,0.161820,2.859846,2.403778,-1.082179,10.127473,-1.101472,0.095780,-0.172404,40.645313,-0.698437,12.825000
25.478327,-0.534119,-0.118071,0.053422,2.872750,2.624045,-0.205901,10.500968,1.355822,0.590644,-0.460809,39.068555,1.222266,13.668750
25.579710,-0.329181,-0.124859,-0.049915,2.920605,1.987187,0.732626,8.537723,0.271377,0.277763,-0.407598,39.068555,1.222266,13.668750
25.681110,-0.365987,-0.189249,-0.002532,2.909634,2.609680,0.359130,9.639056,-0.063853,0.395891,-0.202203,28.031250,2.095312,19.912500
25.782701,-0.516266,-0.202386,-0.050564,2.967710,1.886631,1.312023,8.791508,0.269249,-0.630021,0.295854,29.608008,3.666797,19.743750
25.884692,-0.588625,-0.208992,0.010076,2.850261,2.461239,-0.033519,9.686940,0.068110,-1.224922,-0.517213,30.133594,-0.349219,17.887500
25.986413,-0.621828,-0.108825,0.094873,2.576395,5.966351,-0.268151,8.925584,-0.029798,-2.020962,0.356515,27.680859,-7.333594,7.087500
26.087849,-0.533181,0.073145,-0.020915,2.331586,8.379706,1.824382,7.752425,0.484222,-1.490978,-0.623635,31.009570,-14.492578,-8.606250
26.188785,-0.545317,0.171175,-0.184999,2.135918,7.551312,0.244209,5.372589,-0.335231,-2.088008,0.308625,33.287109,-14.317969,-25.987500
26.290557,-0.479374,0.242801,-0.306422,2.010931,8.825027,-1.230620,3.371036,-0.737507,-1.107857,0.019156,35.039062,-15.016406,-39.825000
26.391794,-0.477492,0.287482,-0.466866,1.920636,10.362105,-2.111686,3.174711,0.050019,-0.187303,0.035119,34.688672,-13.270312,-46.237500
26.494205,-0.243187,0.275246,-0.643625,1.925581,8.595184,-0.689530,2.533065,-0.227744,-0.357579,-0.417176,34.688672,-13.270312,-46.237500
26.595160,-0.737465,0.263798,-0.819041,1.834114,9.495404,-0.900220,1.197101,-0.086202,-0.738572,0.161762,31.009570,-15.191016,-47.418750
26.696604,-0.551172,0.106306,-1.007398,1.612261,9.720459,-0.675165,0.248997,-0.056404,-0.625764,-0.086202,29.958398,-13.444922,-51.468750
26.798571,-0.314845,0.024337,-1.034342,1.531836,10.098743,-0.608127,-0.220267,0.027670,-0.295854,-0.096844,29.958398,-13.444922,-51.468750
26.899689,-0.660970,0.091064,-1.109100,1.654498,9.916783,-0.057461,0.349553,0.047890,0.015963,-0.020220,28.381641,-11.175000,-58.050000
27.001407,-0.555185,0.168658,-1.151798,1.714486,10.127473,-0.383072,0.612916,0.068110,0.038312,0.184111,25.928906,-12.571875,-59.400000
27.102913,-0.597378,0.081006,-1.122947,1.576925,9.988609,-0.756568,0.067038,0.028734,-0.120257,0.013835,27.680859,-13.619531,-59.400000
27.204953,-0.775934,0.057521,-1.093371,1.584904,9.773131,-0.450110,0.052672,0.069175,0.015963,-0.128771,30.483984,-11.873437,-59.737500
27.306693,-0.475623,0.104132,-1.133927,1.640111,9.595960,-0.488417,0.397437,0.035119,-0.068110,0.075560,27.505664,-11.698828,-59.568750
27.408146,-0.282269,0.075058,-1.128663,1.601365,9.840169,-0.474052,0.100556,0.036184,-0.006385,0.034055,27.505664,-12.397266,-58.893750
27.509907,-0.354940,0.086357,-1.128456,1.597200,9.945514,-0.569820,0.100556,0.056404,0.045762,0.029798,27.505664,-12.397266,-58.893750
27.611715,-0.624482,0.104174,-1.112902,1.632320,9.878476,-0.478840,0.234632,0.023413,0.035119,0.062789,29.257617,-13.444922,-59.906250
27.713714,-0.483966,0.116796,-1.115969,1.636268,9.821015,-0.550666,0.292093,0.012771,0.008514,0.030863,28.907227,-12.048047,-60.581250
27.814674,-0.319001,0.097568,-1.105779,1.618113,9.902418,-0.545878,0.201113,0.010642,-0.024477,0.015963,29.958398,-12.048047,-60.918750
27.916669,-0.678836,0.081620,-1.114415,1.601235,9.806650,-0.450110,0.129287,0.030863,-0.017028,-0.009578,28.732031,-11.175000,-59.737500
28.018247,-0.807250,0.036178,-1.134998,1.571877,9.792285,-0.402226,-0.009577,0.001064,-0.040441,0.008514,27.680859,-10.825781,-60.750000
28.120147,-0.550588,0.033719,-1.138935,1.561100,9.840169,-0.421379,-0.043096,0.013835,0.003193,0.013835,27.680859,-10.825781,-60.750000
28.221703,-0.463642,0.056832,-1.114455,1.582426,9.878476,-0.526724,-0.004788,0.052147,-0.019156,-0.008514,28.031250,-13.270312,-59.062500
28.323346,-0.551485,0.067000,-1.111499,1.592125,9.701305,-0.459687,0.090980,0.043633,-0.043633,0.001064,29.432813,-12.571875,-60.412500
28.424323,-0.632903,0.019489,-1.142740,1.526544,9.955091,-0.536301,-0.148441,0.011706,-0.032991,0.007450,27.856055,-13.444922,-62.268750
28.525594,-0.654571,0.031673,-1.124711,1.545354,9.777920,-0.550666,-0.038307,-0.013835,-0.017028,0.015963,27.856055,-12.397266,-59.568750
28.627408,-0.513653,0.014625,-1.134115,1.542173,9.859322,-0.383072,-0.076614,0.018092,-0.003193,-0.004257,28.556836,-11.000391,-59.906250
28.728544,-0.551739,0.028068,-1.119636,1.537726,9.782708,-0.512359,-0.105345,0.020220,0.006385,0.021284,28.556836,-11.000391,-59.906250
28.830938,-0.609480,0.082653,-1.110916,1.610718,9.768343,-0.478840,0.124498,0.017028,-0.015963,0.036184,28.907227,-12.397266,-59.906250
28.932486,-0.736556,0.036630,-1.111717,1.558136,9.959879,-0.474052,-0.043096,0.005321,0.026606,-0.015963,28.907227,-12.397266,-59.906250
29.033819,-0.725509,0.066936,-1.133708,1.590299,9.806650,-0.426168,0.038307,0.004257,0.022349,0.004257,28.206445,-12.397266,-59.906250
29.134657,-0.522665,-0.016811,-1.134127,1.505231,9.797073,-0.450110,-0.196325,0.017028,-0.012771,0.039376,27.155273,-12.397266,-59.906250
29.237264,-0.500182,-0.027315,-1.131395,1.487044,9.911995,-0.474052,-0.344765,0.023413,0.003193,0.003193,27.330469,-12.571875,-59.737500
29.338723,-0.697847,0.036678,-1.115476,1.570288,9.902418,-0.445322,-0.028730,0.006385,-0.031927,0.024477,28.556836,-13.444922,-60.243750
29.440038,-0.649160,0.003737,-1.113827,1.525003,9.801862,-0.474052,-0.229843,0.035119,-0.025541,0.017028,28.556836,-13.444922,-60.243750
29.542202,-0.658830,0.067349,-1.131259,1.583942,9.806650,-0.531513,0.100556,0.032991,0.017028,0.048954,27.856055,-11.349609,-60.581250
29.642716,-0.503527,0.048236,-1.101368,1.558517,9.878476,-0.612916,-0.114922,0.013835,-0.031927,0.032991,29.783203,-12.222656,-60.750000
29.744715,-0.708583,0.015568,-1.133617,1.515206,9.888053,-0.632069,-0.258574,0.008514,0.015963,-0.004257,26.980078,-12.222656,-59.737500
29.846187,-0.634691,0.039999,-1.117463,1.553553,9.945514,-0.545878,-0.143652,0.032991,-0.037248,0.044697,29.082422,-12.921094,-60.750000
29.947443,-0.549139,-0.014805,-1.125829,1.501764,9.801862,-0.469264,-0.292093,0.009578,-0.028734,-0.011706,27.155273,-12.048047,-58.893750
30.048681,-0.604900,0.012128,-1.130251,1.517399,9.849746,-0.550666,-0.234632,0.011706,-0.001064,0.038312,27.155273,-12.048047,-58.893750
30.150531,-0.626195,-0.006003,-1.132941,1.506282,9.773131,-0.459687,-0.220267,0.008514,0.014899,0.000000,26.980078,-12.222656,-60.075000
30.251786,-0.746255,0.003690,-1.096844,1.507029,9.883264,-0.579397,-0.244209,0.011706,0.011706,0.023413,29.608008,-12.746484,-59.231250
30.353902,-0.552232,-0.003373,-1.096830,1.500475,9.797073,-0.622492,-0.301669,0.000000,-0.007450,0.012771,29.082422,-12.571875,-60.412500
30.456255,-0.483803,-0.010201,-1.134944,1.515814,9.734824,-0.373495,-0.234632,0.022349,0.028734,0.024477,27.505664,-13.444922,-60.581250
30.557663,-0.707696,0.040204,-1.101436,1.546294,10.007763,-0.694318,-0.181959,0.025541,-0.028734,0.057468,28.907227,-12.048047,-59.231250
30.658997,-0.601852,0.015281,-1.113429,1.512305,9.773131,-0.665588,-0.248997,-0.005321,0.019156,0.000000,28.907227,-12.397266,-60.918750
30.760377,-0.700262,0.000749,-1.111644,1.505467,9.806650,-0.603339,-0.335188,0.011706,-0.005321,0.026606,29.257617,-12.746484,-60.581250
30.861705,-0.632640,-0.016113,-1.109493,1.490939,9.921572,-0.550666,-0.373495,-0.004257,0.027670,0.013835,29.257617,-12.746484,-60.581250
30.962599,-0.664117,0.038195,-1.086325,1.558447,9.792285,-0.426168,-0.167594,0.036184,0.044697,0.013835,30.308789,-13.095703,-59.568750
31.064560,-0.714442,0.027114,-1.127898,1.528702,9.911995,-0.684742,-0.167594,0.019156,0.015963,0.034055,26.804883,-15.540234,-60.243750
31.166487,-0.448718,0.064103,-1.129251,1.575412,9.792285,-0.593762,0.004788,0.008514,0.043633,0.003193,28.206445,-11.349609,-61.256250
31.267889,-0.601725,0.030874,-1.128791,1.545288,9.773131,-0.612916,-0.100556,0.017028,-0.001064,0.015963,28.206445,-11.349609,-61.256250
31.369640,-0.538961,0.067748,-1.121143,1.572265,9.959879,-0.632069,-0.004788,0.029798,0.037248,0.019156,28.206445,-12.048047,-59.568750
31.470788,-0.530284,0.001011,-1.101279,1.532530,9.720459,-0.402226,-0.158017,0.031927,0.031927,-0.021284,29.257617,-13.095703,-59.231250
31.572738,-0.721765,0.047491,-1.136416,1.542917,9.950302,-0.713472,-0.138864,0.018092,0.035119,0.038312,26.980078,-12.571875,-60.075000
31.674099,-0.842085,0.108445,-1.112606,1.616504,9.801862,-0.684742,0.205901,0.028734,0.173469,-0.034055,28.206445,-12.746484,-58.556250
31.775899,-0.686972,0.121423,-1.102371,1.667401,9.864111,-0.430956,0.387861,0.024477,0.131964,0.005321,29.082422,-15.365625,-58.725000
31.877205,-0.839513,0.123981,-1.101192,1.631766,9.830592,-0.718260,0.196325,0.023413,0.074496,-0.011706,29.082422,-15.365625,-58.725000
31.978482,-0.384931,0.148530,-1.110486,1.687588,9.892841,-0.454898,0.517148,0.002128,0.076624,0.002128,27.330469,-14.667187,-56.362500
32.079988,-0.618710,0.153919,-1.105936,1.689650,9.873688,-0.493206,0.521936,0.068110,0.109615,0.010642,27.505664,-15.540234,-56.193750
32.181268,-0.551566,0.219095,-1.082875,1.750622,9.854534,-0.565032,0.785298,0.088331,0.302240,-0.068110,28.031250,-15.365625,-54.000000
32.282854,-0.763890,0.288022,-1.084974,1.844790,9.768343,-0.363919,1.177947,0.029798,0.176661,-0.002128,27.155273,-15.540234,-53.156250
32.384279,-0.912280,0.333591,-1.076974,1.889126,9.787496,-0.469264,1.417367,0.008514,0.087266,-0.057468,27.155273,-15.540234,-53.156250
32.485413,-0.927581,0.286126,-1.084232,1.841936,9.888053,-0.445322,1.216254,-0.002128,0.150056,0.010642,27.155273,-15.540234,-53.156250
32.587842,-0.439427,0.356265,-1.065850,1.933202,9.864111,-0.306458,1.637634,-0.007450,0.234129,0.002128,27.680859,-16.762500,-52.650000
32.689434,-0.975387,0.386607,-1.031976,1.973959,9.763554,-0.325611,2.001553,0.051083,0.488479,-0.090459,28.206445,-19.381641,-50.118750
32.790529,-0.669556,0.495188,-1.002780,2.120402,9.504981,-0.220267,2.638410,0.003193,0.707709,-0.135156,26.804883,-18.333984,-46.743750
32.891986,-0.828294,0.580640,-0.908094,2.242303,9.390059,-0.320823,3.921702,-0.240515,0.713030,-0.014899,26.454492,-20.429297,-39.656250
32.993266,-0.775950,0.647827,-0.798257,2.388982,9.595960,0.421379,4.410119,-0.767306,0.953545,0.028734,26.104102,-21.826172,-34.256250
33.094906,-1.145820,0.711785,-0.769327,2.489903,8.197746,0.244209,5.506664,-0.091523,1.512263,-0.388442,26.104102,-21.826172,-34.256250
33.195703,-0.738744,0.757706,-0.601031,2.633482,7.455544,0.268151,7.445967,-0.184111,1.797475,-0.302240,18.395508,-20.778516,-14.006250
33.298185,-0.513810,0.746417,-0.444169,2.788987,5.616797,0.363919,8.518570,-0.319267,0.774755,0.046826,16.468359,-17.460938,0.000000
33.399198,-0.714422,0.648855,-0.285246,2.830863,4.180276,0.191536,8.834604,-0.200074,0.930132,0.176661,18.045117,-11.349609,6.581250
33.501010,-0.801067,0.529955,-0.182380,2.887299,3.706224,-0.172383,9.337386,-0.186239,0.345873,0.296919,20.673047,-6.984375,10.462500
33.602477,-0.884285,0.371198,-0.103695,2.889738,3.801992,-0.512359,9.394847,-0.056404,0.321396,0.007450,20.673047,-6.984375,10.462500
33.704495,-0.839298,0.212477,-0.044239,2.851878,3.600879,-0.287304,9.696517,0.025541,0.338423,-0.023413,22.600195,-4.365234,15.356250
33.806527,-0.823920,0.035008,0.018100,2.863602,3.107674,-0.301669,9.902418,0.068110,0.222423,0.030863,22.600195,-4.365234,15.356250
33.907395,-0.383666,-0.066389,0.023507,2.858037,2.753332,-0.062249,9.667786,0.019156,0.123450,-0.015963,22.074609,-3.142969,16.875000
34.009244,-0.545099,-0.094741,0.050278,2.884119,2.676717,-0.253785,9.806650,-0.035119,0.145799,0.034055,21.549023,-2.269922,16.368750
34.110530,-0.647201,-0.125488,0.056417,2.870033,2.753332,-0.215478,9.773131,0.007450,0.141542,-0.005321,19.446680,-1.920703,17.381250
34.212454,-0.589121,-0.096912,0.055476,2.882600,2.542642,-0.325611,9.801862,-0.014899,0.138349,-0.036184,22.600195,-1.920703,17.718750
34.314257,-0.941049,-0.161366,0.055571,2.932245,2.130839,-0.229843,10.055647,0.031927,0.290533,0.007450,19.972266,-0.349219,17.887500
34.415742,-0.239446,-0.211175,0.060851,2.965944,1.853112,-0.158017,10.022128,0.081945,0.338423,0.010642,20.497852,0.873047,20.756250
34.517448,-0.605587,-0.295742,0.056607,2.964456,1.877054,-0.062249,9.878476,0.011706,0.025541,-0.041505,21.373828,2.793750,22.950000
34.621204,-0.588956,-0.264789,0.059506,2.966813,1.771709,-0.181959,10.156203,0.013835,0.032991,-0.024477,20.147461,1.920703,22.443750
34.722910,-0.767402,-0.364274,0.061886,2.994160,1.651999,-0.062249,9.902418,0.007450,0.015963,-0.019156,20.497852,4.714453,23.118750
34.826256,-0.316757,-0.315684,0.077327,2.966149,1.819593,-0.234632,10.022128,0.008514,0.011706,0.014899,20.322656,2.444531,23.287500
34.926219,-0.695165,-0.258229,0.053406,2.990434,1.695095,-0.124498,10.156203,0.017028,0.060661,0.015963,21.198633,1.920703,21.768750
35.029029,-0.603340,-0.279095,0.061880,3.016355,1.608904,-0.205901,9.979033,0.023413,0.001064,0.012771,20.497852,3.666797,23.456250
35.130011,-0.710550,-0.286607,0.049103,2.973179,1.704672,-0.023942,10.022128,0.015963,-0.005321,0.006385,22.249805,2.619141,21.768750
35.231817,-0.736047,-0.291933,0.041048,3.000511,1.570596,-0.043096,10.165780,0.003193,0.012771,-0.003193,20.848242,2.968359,23.456250
35.333487,-0.592949,-0.307761,0.059721,3.012439,1.527501,-0.129287,10.093954,0.013835,-0.007450,-0.011706,21.023438,3.142969,24.300000
35.435204,-0.791213,-0.318693,0.061166,2.994494,1.709460,-0.067038,9.878476,0.003193,-0.038312,0.013835,21.023438,3.142969,24.300000
35.536972,-0.357690,-0.319901,0.093398,2.990585,1.838747,-0.330400,9.969456,0.000000,0.011706,0.025541,21.023438,3.142969,24.300000
35.638902,-0.062844,-0.241020,0.054294,2.980707,1.628057,-0.172383,10.175357,0.011706,0.067046,0.039376,19.096289,0.873047,24.806250
35.740834,-0.577597,-0.328362,0.067562,2.991897,1.632846,-0.158017,10.060435,-0.003193,0.019156,0.061725,19.621875,3.492187,23.625000
35.842178,-0.571496,-0.291115,0.069475,2.977124,1.728614,-0.258574,10.017340,-0.003193,0.019156,0.042569,20.322656,2.793750,22.275000
35.943284,-0.471353,-0.215948,0.049201,3.007763,1.551443,-0.201113,10.074801,0.010642,0.038312,0.005321,21.724219,1.396875,23.287500
36.045254,-0.524606,-0.225432,0.067308,2.987117,1.556231,-0.282516,10.141838,0.001064,0.010642,0.015963,21.899414,1.920703,23.456250
36.146909,-0.793218,-0.279115,0.061838,3.000360,1.685518,-0.239420,10.204087,0.002128,-0.035119,-0.001064,20.848242,2.619141,22.781250
36.248146,-0.265397,-0.360300,0.086403,3.003940,1.628057,-0.311246,9.854534,0.010642,0.047890,0.027670,21.023438,4.539844,23.287500
36.348986,-0.243668,-0.247109,0.080907,2.998523,1.623269,-0.450110,10.175357,0.023413,0.051083,0.006385,22.775391,2.793750,22.612500
36.450572,-0.304003,-0.298624,0.067496,3.013507,1.383849,-0.306458,10.103531,0.047890,0.032991,0.011706,21.724219,3.841406,24.975000
36.551910,-0.724175,-0.310045,0.065082,3.002333,1.503559,-0.196325,10.017340,0.015963,0.017028,0.029798,20.848242,3.317578,25.818750
36.653087,-0.292134,-0.303776,0.060432,3.006434,1.412579,-0.196325,10.036493,0.004257,0.015963,0.026606,20.848242,3.317578,25.818750
36.754789,-0.318978,-0.317425,0.068387,3.021491,1.431733,-0.263362,10.103531,-0.001064,0.021284,0.036184,20.673047,3.841406,22.950000
36.856073,-0.516820,-0.343720,0.075209,3.021917,1.403002,-0.253785,9.921572,-0.024477,-0.032991,0.001064,20.848242,4.714453,24.806250
36.958359,-0.533540,-0.323849,0.092595,2.997695,1.613692,-0.416591,9.983821,0.017028,-0.005321,0.011706,21.373828,3.841406,23.287500
37.059381,-0.507615,-0.294295,0.074455,3.007242,1.422156,-0.368707,10.070012,0.008514,0.100037,0.021284,22.775391,4.190625,22.275000
37.161140,-0.511703,-0.277722,0.061153,3.049833,1.043872,-0.373495,10.122685,-0.006385,0.279891,0.122386,22.775391,4.190625,22.275000
37.263108,-0.329929,-0.265335,0.039631,3.072991,0.770933,-0.215478,10.256760,0.025541,0.379928,0.045762,22.775391,4.190625,22.275000
37.363942,-0.601121,-0.295568,0.057173,3.080135,0.651223,-0.339977,9.902418,0.078753,0.107487,0.042569,22.425000,5.587500,25.312500
37.465080,-0.364123,-0.355346,0.041554,3.105996,0.430956,-0.253785,9.888053,0.084074,0.304368,0.080881,21.023438,6.635156,26.325000
37.566788,-0.813171,-0.392347,0.034983,-3.118771,0.023942,-0.550666,10.563218,0.145799,0.245836,0.073431,23.300977,10.301953,27.843750
37.668007,-0.434090,-0.410094,-0.012118,-3.141041,-0.134075,0.014365,10.098743,0.081945,-0.063853,-0.103230,20.497852,9.254297,28.518750
37.769325,-0.556232,-0.356627,-0.003262,-3.116692,-0.143652,-0.004788,9.935937,0.022349,0.038312,-0.008514,21.549023,8.206641,28.856250
37.870865,-0.314759,-0.359383,0.005471,-3.127364,-0.071826,-0.086191,10.309432,0.012771,-0.028734,0.008514,21.549023,8.206641,28.856250
37.972439,-0.441568,-0.413553,0.006637,3.134206,0.124498,-0.019154,10.098743,0.007450,0.014899,0.034055,22.249805,9.952734,27.168750
38.074329,-0.687940,-0.394547,0.000745,3.139052,-0.124498,-0.033519,10.031705,0.015963,-0.001064,0.020220,21.373828,8.381250,29.025000
38.175665,-0.534080,-0.396328,0.005829,3.140418,-0.033519,-0.086191,10.213664,0.014899,-0.001064,0.018092,21.549023,9.603516,28.518750
38.277049,-0.545086,-0.340927,-0.001097,-3.133729,-0.071826,0.009577,10.338163,0.007450,0.010642,0.040441,22.074609,8.032031,27.337500
38.378650,-0.631990,-0.338789,-0.012161,-3.138785,-0.105345,0.114922,10.093954,-0.053211,0.048954,0.054275,22.074609,8.032031,27.337500
38.480204,-0.475903,-0.320155,0.037526,-3.078142,-0.402226,-0.526724,10.711658,-0.207524,-0.106422,0.207524,22.600195,9.254297,29.868750
38.581439,-0.366930,-0.368027,-0.013986,-3.086257,-0.689530,0.684742,9.730036,0.348001,0.880113,-0.068110,21.373828,10.127344,28.687500
38.682980,-0.458508,-0.404693,-0.093933,-3.018213,-1.307234,-0.023942,10.548853,0.148991,0.875857,0.216038,20.497852,14.492578,29.868750
38.784069,-0.445869,-0.425060,-0.142125,-2.918395,-1.723825,0.603339,9.897630,0.192625,0.798168,-0.020220,19.972266,21.651562,32.400000
38.884950,-0.620676,-0.517575,-0.213838,-2.857994,-2.973598,0.603339,9.615114,0.226680,0.768370,-0.120257,17.169141,28.985156,31.725000
38.986849,-0.293488,-0.638323,-0.327415,-2.850127,-3.883395,0.809240,8.882488,0.226680,0.660883,-0.180918,17.169141,28.985156,31.725000
39.088683,-0.480736,-0.621352,-0.390526,-2.805150,-5.080496,0.871489,8.987833,0.078753,0.562975,-0.078753,17.169141,28.985156,31.725000
39.189950,-0.520155,-0.746484,-0.453582,-2.766014,-5.233725,0.732626,8.465897,-0.030863,0.441653,0.059597,15.066797,40.160156,32.400000
39.291219,-0.398442,-0.796752,-0.536902,-2.792271,-5.645528,0.933739,7.939173,0.001064,0.489543,0.062789,15.066797,42.255469,33.075000
39.393335,-0.698085,-0.835563,-0.624284,-2.792113,-6.019023,1.206678,7.417237,0.026606,0.334166,0.100037,14.716406,46.795312,31.387500
39.493833,-0.719325,-0.839689,-0.690335,-2.752226,-6.694188,1.024718,6.981492,0.000000,0.400148,0.018092,16.117969,50.287500,31.050000
39.595109,-0.473765,-0.844520,-0.711205,-2.738626,-7.105991,1.077391,7.211335,0.037248,0.216038,-0.053211,15.066797,53.081250,31.725000
39.696960,-0.385358,-0.855849,-0.696681,-2.756160,-7.139509,0.991199,7.091625,0.061725,0.222423,0.052147,15.066797,53.081250,31.725000
39.798939,-0.746385,-0.844942,-0.723570,-2.732227,-7.053318,1.067814,6.780379,0.022349,0.101101,0.059597,15.767578,53.779687,30.375000
39.899890,-0.670621,-0.797871,-0.710629,-2.707408,-7.345411,1.019930,7.043741,0.022349,-0.005321,0.023413,17.869922,55.176562,31.050000
40.001602,-0.635803,-0.814611,-0.705600,-2.722115,-7.000646,1.201889,6.976704,0.010642,-0.043633,0.012771,15.942773,56.398828,30.543750
40.102967,-0.728363,-0.852901,-0.712341,-2.744268,-7.254431,1.024718,7.043741,0.047890,-0.078753,0.002128,16.293164,55.351172,32.231250
40.204411,-0.438084,-0.878597,-0.690407,-2.782244,-6.823475,1.144428,7.354988,0.068110,-0.228808,0.014899,16.293164,55.351172,32.231250
40.306241,-0.380804,-0.901420,-0.655335,-2.815310,-6.651092,0.885855,7.412448,0.054275,-0.639599,0.029798,15.942773,50.112891,31.893750
40.407255,-0.546967,-0.985944,-0.550280,-2.946784,-5.066131,1.134852,7.833828,0.041505,-0.840737,0.108551,15.942773,43.826953,31.893750
40.509275,-0.396044,-1.056885,-0.479221,-2.990118,-4.898537,1.072602,8.987833,-0.041505,-0.865214,-0.006385,15.241992,41.731641,32.231250
40.610662,-0.353316,-1.094935,-0.439757,-3.048134,-4.486734,1.091756,9.299079,-0.029798,-0.794976,0.037248,15.241992,41.731641,32.231250
40.711710,-0.438650,-1.173696,-0.283966,3.135518,-2.001553,1.465251,9.346963,0.111744,-1.670832,-0.141542,15.241992,41.731641,32.231250
40.812968,-0.445170,-1.106048,-0.062141,3.089406,-0.507571,0.665588,10.055647,-0.226680,-1.210023,0.144734,15.066797,26.540625,29.025000
40.914323,-0.501525,-1.026453,0.065727,3.066343,-1.101333,-4.548983,9.691728,-0.345873,-0.979086,-0.212845,14.366016,15.714844,27.000000
41.016328,-0.509628,-0.933305,0.116409,2.954320,0.617704,-0.119710,10.927136,-0.187303,-0.379928,-0.056404,17.694727,6.460547,24.468750
41.116976,-0.559978,-0.810332,0.133629,2.891737,1.699883,-0.483629,10.371682,-0.291597,-0.204331,-0.025541,17.344336,2.968359,22.443750
41.218301,-0.836040,-0.672486,0.090114,2.913020,1.647211,-0.531513,11.262325,0.031927,0.319267,0.357579,17.344336,2.968359,22.443750
41.319805,-0.600676,-0.473927,0.073133,2.991016,0.847547,-0.373495,10.754754,0.068110,0.243707,0.657691,19.621875,4.190625,22.612500
41.420918,-0.653936,-0.356301,0.094381,3.028292,1.211466,-0.641646,10.228029,0.009578,-0.328845,-0.001064,22.249805,5.063672,23.118750
41.521982,-0.629408,-0.318630,0.044575,3.032287,1.307234,-0.167594,11.204864,-0.250093,0.523598,0.079817,22.950586,4.714453,22.443750
41.623282,-0.650532,-0.220041,-0.011098,3.133919,0.009577,0.272939,10.352528,0.257542,0.081945,0.015963,22.950586,4.714453,22.443750
41.724663,-0.427518,-0.265495,0.039459,3.104400,0.507571,0.004788,9.911995,-0.146863,0.190496,0.162826,24.352148,6.111328,24.468750
41.825913,-0.311869,-0.301672,0.132450,3.113400,0.608127,-1.604115,9.888053,-0.460809,0.141542,0.635342,25.928906,9.778125,23.287500
41.927378,-0.377276,-0.292356,0.054073,-3.101661,-0.196325,-0.651223,10.127473,-0.073431,-0.356515,0.246900,31.184766,10.825781,23.287500
42.028679,-0.509371,-0.312222,0.064039,3.094787,0.368707,-0.100556,9.715670,-0.023413,-0.185175,-0.050019,30.834375,6.635156,22.950000
42.131300,-0.577069,-0.255866,0.125261,3.054840,1.187524,-0.957681,9.888053,-0.349066,0.147927,0.014899,30.834375,6.635156,22.950000
42.233860,-0.655732,-0.232000,0.142066,3.098509,0.790087,-1.259350,10.026917,-0.130900,0.013835,0.233065,33.111914,6.809766,22.443750
42.335122,-0.530970,-0.222014,0.089124,-3.128882,0.028730,-0.890643,10.180145,0.051083,0.042569,0.112808,33.287109,9.079687,21.937500
42.437079,-0.446661,-0.273918,0.158820,3.112953,0.727837,-1.312023,10.160992,0.010642,-0.116000,0.169212,33.287109,9.079687,21.937500
42.538958,-0.424894,-0.323248,0.149198,3.092438,0.976834,-1.273715,10.026917,-0.085138,0.180918,0.247964,34.863867,10.651172,22.106250
42.640051,-0.521579,-0.254968,0.163822,-3.135308,0.316035,-1.580173,9.825804,-0.141542,0.078753,0.333102,34.513477,8.905078,20.418750
42.742374,-0.507139,-0.225098,0.098324,-3.110709,-0.205901,-1.048660,9.979033,0.030863,-0.054275,0.124514,34.513477,8.905078,20.418750
42.844895,-0.225569,-0.251815,0.128147,-3.131275,0.311246,-1.297657,10.084377,0.110679,0.002128,-0.010642,38.893359,9.778125,19.912500
42.947203,-0.458732,-0.250608,0.131089,3.127620,0.545878,-1.326388,10.127473,-0.191560,0.101101,-0.023413,39.418945,9.952734,19.068750
43.049335,-0.169973,-0.216764,0.139612,-3.129506,0.205901,-1.460463,10.328586,0.128771,-0.044697,-0.089395,39.418945,8.555859,20.418750
43.150467,-0.458281,-0.273361,0.136741,3.117635,0.545878,-1.283292,9.998186,0.017028,-0.075560,0.003193,37.316602,10.301953,20.081250
43.252281,-0.592856,-0.274537,0.131936,3.130348,0.497994,-1.388637,9.931148,0.005321,0.010642,-0.096844,37.316602,10.301953,20.081250
43.353960,-0.689444,-0.244141,0.145036,3.124595,0.584185,-1.403002,9.955091,0.136221,-0.005321,-0.014899,38.017383,8.905078,20.081250
43.455243,-0.763576,-0.268925,0.119280,3.110511,0.632069,-1.058237,9.888053,0.162826,0.086202,-0.087266,35.389453,9.428906,20.250000
43.557064,-0.745293,-0.255448,0.092286,-3.130204,0.153229,-1.015142,10.194511,-0.030863,-0.043633,-0.062789,35.915039,9.603516,21.431250
43.658585,-0.710439,-0.262233,0.044785,3.135193,0.181959,-0.459687,10.223241,0.188368,0.044697,-0.088331,34.338281,9.428906,22.275000
43.760188,-0.508575,-0.274453,0.067624,-3.128705,0.014365,-0.723049,9.974244,0.087266,0.562975,-0.031927,34.338281,9.428906,22.275000
43.862058,-0.839794,-0.258122,0.053092,-3.069475,-0.569820,-0.612916,10.007763,0.044697,0.279891,0.145799,35.039062,11.873437,22.950000
43.963451,-0.434688,-0.280184,0.017461,-3.067499,-0.703895,-0.421379,10.117896,0.075560,-0.052147,0.008514,35.039062,11.873437,22.950000
44.064454,-0.674447,-0.308327,0.012814,-3.094779,-0.392649,-0.239420,10.170569,0.013835,-0.021284,-0.057468,32.761523,11.698828,22.781250
44.165966,-0.457872,-0.320607,0.032740,-3.112447,-0.158017,-0.469264,10.228029,0.105358,0.121322,-0.081945,33.287109,11.873437,22.275000
44.268051,-0.414065,-0.279703,0.025318,-3.075259,-0.517148,-0.426168,10.146627,0.096844,0.192625,-0.136221,33.637500,10.825781,24.300000
44.369950,-0.860685,-0.355122,0.003849,-3.022986,-1.077391,-0.416591,9.969456,-0.209652,0.160698,-0.105358,30.834375,13.968750,23.287500
44.471501,-0.631042,-0.362802,0.034970,-3.018565,-1.216254,-0.861913,8.815451,-0.012771,0.498057,0.187303,30.834375,13.968750,23.287500
44.573310,-0.433161,-0.353492,0.014476,-2.989876,-1.130063,-0.775721,10.175357,0.068110,-0.103230,0.051083,33.462305,16.937109,25.143750
44.674905,-0.409211,-0.376023,0.010629,-3.022765,-1.158794,-0.584185,9.940725,0.005321,0.011706,0.001064,32.761523,16.238672,24.806250
44.777089,-0.693121,-0.380548,0.014166,-2.999407,-1.312023,-0.703895,9.907206,-0.031927,-0.067046,0.064918,33.462305,17.286328,23.456250
44.878493,-0.404744,-0.388652,0.011247,-3.024207,-1.144428,-0.579397,9.926360,0.010642,0.024477,-0.042569,32.235937,16.762500,24.975000
44.980271,-0.656886,-0.392171,0.013934,-3.001291,-1.187524,-0.670376,10.065224,-0.014899,0.021284,0.034055,32.235937,16.762500,24.975000
45.082776,-0.593708,-0.358461,0.026184,-3.009431,-1.235408,-0.732626,10.017340,0.042569,-0.002128,0.032991,33.462305,15.889453,24.806250
45.183755,-0.536485,-0.330381,0.022484,-2.999900,-1.221043,-0.641646,10.194511,0.043633,0.039376,0.023413,33.287109,14.667187,23.962500
45.284961,-1.087076,-0.350916,0.021725,-2.985241,-1.321599,-0.708684,9.892841,-0.038312,0.005321,0.017028,33.637500,16.064062,24.637500
45.386658,-0.274866,-0.366416,0.015277,-3.001442,-1.326388,-0.708684,10.218453,0.040441,0.024477,0.076624,32.761523,16.587891,24.806250
