Time, Altitude, Yaw, Pitch, Roll, Ax, Ay, Az, Pitch_rate, Roll_rate,Yaw_rate, Magx, Magy, Magz
0.798417,-0.009446,0.000355,-0.014050,0.096090,0.134075,0.914585,9.945514,-0.017028,0.011706,-0.001064,-11.074219,18.165820,44.689453
0.898852,-0.062004,0.001111,-0.022955,0.089721,0.225055,0.866701,9.945514,-0.015963,0.012771,-0.002128,-11.425781,16.754883,46.048828
0.999003,-0.305100,-0.000249,-0.010795,0.092249,0.186748,0.914585,9.883264,-0.019156,0.013835,-0.002128,-11.425781,16.754883,46.048828
1.099269,-0.250316,0.002306,-0.038479,0.086915,0.215478,0.924162,9.864111,-0.015963,0.013835,-0.002128,-11.425781,16.754883,46.048828
1.200125,-0.238930,0.001570,-0.028684,0.086448,0.191536,0.919373,9.849746,-0.018092,0.009578,-0.001064,-12.656250,17.989453,44.859375
1.301464,-0.447577,0.001016,-0.024238,0.078188,0.282516,0.833182,9.873688,-0.020220,0.009578,-0.003193,-12.480469,18.871289,46.048828
1.402997,-0.276807,0.000719,-0.019207,0.099565,0.196325,0.909797,9.816227,-0.012771,0.009578,-0.003193,-12.480469,17.813086,46.048828
1.504953,-0.641079,0.001928,-0.036153,0.072526,0.248997,0.804452,9.998186,-0.017028,0.009578,-0.002128,-11.777344,18.518555,44.689453
1.606807,-0.790115,0.000968,-0.024649,0.101820,0.229843,0.986411,9.983821,-0.018092,0.010642,-0.003193,-11.777344,18.518555,44.689453
1.707971,-0.948636,0.002111,-0.038838,0.087028,0.225055,0.818817,9.825804,-0.017028,0.010642,0.000000,-12.128906,17.460352,45.369141
1.809259,-0.686998,-0.001177,-0.002639,0.079329,0.172383,0.876278,9.969456,-0.017028,0.011706,0.000000,-12.128906,17.460352,45.369141
1.911139,-0.768731,-0.001342,-0.003037,0.093720,0.191536,0.861913,9.907206,-0.017028,0.011706,-0.002128,-10.898438,16.578516,44.859375
2.012780,-0.905732,0.001218,-0.033653,0.095630,0.186748,0.938527,10.046070,-0.017028,0.010642,-0.001064,-11.953125,16.931250,44.859375
2.113838,-0.533556,0.000209,-0.024310,0.075534,0.244209,0.756568,9.998186,-0.012771,0.011706,-0.003193,-14.238281,16.402148,45.369141
2.215383,-0.761817,0.000123,-0.023209,0.091837,0.205901,0.914585,9.840169,-0.017028,0.013835,0.000000,-14.238281,16.402148,45.369141
2.317027,-0.701257,-0.000245,-0.018193,0.078970,0.181959,0.809240,9.969456,-0.015963,0.010642,-0.002128,-12.304688,16.931250,44.859375
2.418375,-0.795768,-0.000785,-0.015643,0.095652,0.167594,0.952892,9.955091,-0.015963,0.008514,0.000000,-11.250000,18.342187,45.878906
2.518693,-0.590140,-0.001319,-0.015335,0.090134,0.229843,0.842759,9.935937,-0.009578,0.017028,-0.007450,-12.832031,17.813086,45.369141
2.620341,-0.940645,-0.000233,-0.026884,0.080608,0.263362,0.842759,9.907206,-0.015963,0.014899,-0.001064,-12.832031,17.813086,45.369141
2.722022,-1.045293,0.000566,-0.036596,0.098748,0.248997,0.919373,9.940725,-0.013835,0.013835,-0.002128,-12.656250,16.931250,45.199219
2.823763,-0.937875,-0.001618,-0.014985,0.109675,0.138864,0.938527,9.950302,-0.018092,0.010642,-0.001064,-12.656250,16.931250,45.199219
2.925677,-0.877263,-0.000562,-0.027400,0.078242,0.220267,0.818817,9.883264,-0.013835,0.010642,-0.002128,-10.722656,17.813086,44.349609
3.027319,-0.680194,-0.002430,-0.007929,0.084641,0.181959,0.976834,10.041282,-0.015963,0.011706,-0.001064,-12.656250,17.283984,44.859375
3.128135,-0.763169,-0.002342,-0.012748,0.109467,0.162806,0.972046,10.055647,-0.018092,0.012771,-0.004257,-13.359375,15.873047,45.539062
3.229847,-0.563839,-0.002781,-0.007987,0.093614,0.134075,0.905008,9.979033,-0.012771,0.010642,-0.004257,-13.359375,15.873047,45.539062
3.331974,-1.025425,-0.001409,-0.023348,0.079436,0.215478,0.881066,9.907206,-0.017028,0.011706,-0.003193,-11.074219,17.460352,44.349609
3.433871,-0.663068,-0.002842,-0.008464,0.080105,0.086191,0.804452,9.892841,-0.017028,0.008514,-0.001064,-13.007812,17.636719,43.839844
3.535149,-0.709409,-0.002304,-0.014609,0.079986,0.153229,0.809240,9.950302,-0.015963,0.014899,-0.003193,-13.007812,17.636719,43.839844
3.636958,-0.873577,-0.001572,-0.022023,0.082915,0.229843,0.871489,9.892841,-0.019156,0.009578,-0.004257,-12.128906,17.107617,46.048828
3.739025,-0.775293,-0.001260,-0.025916,0.088125,0.220267,0.852336,9.873688,-0.015963,0.011706,0.001064,-13.007812,17.636719,44.859375
3.840984,-0.609156,-0.001740,-0.020489,0.088249,0.177171,0.866701,9.844957,-0.015963,0.012771,-0.001064,-13.007812,17.636719,44.859375
3.942583,-0.830771,-0.001675,-0.021637,0.095945,0.172383,0.842759,9.883264,-0.017028,0.011706,-0.001064,-11.250000,15.873047,44.859375
4.044428,-0.859125,-0.002078,-0.020307,0.094019,0.191536,0.905008,9.911995,-0.015963,0.010642,0.000000,-11.777344,18.518555,44.689453
4.145738,-0.537474,-0.001639,-0.019895,0.079835,1.077391,0.780510,10.654197,0.041505,0.293726,0.036184,-11.425781,17.107617,44.689453
4.247610,-0.870431,-0.001042,-0.028662,0.096860,0.320823,0.943315,9.825804,0.050019,0.191560,-0.015963,-11.425781,17.107617,44.689453
4.348889,-0.650105,-0.003764,-0.006822,0.087615,0.196325,0.905008,9.792285,0.011706,0.080881,-0.007450,-12.128906,18.871289,44.689453
4.450818,-0.724636,-0.004930,-0.021111,0.123328,-0.023942,1.268927,9.284714,-0.282019,-0.634278,-0.042569,-12.128906,18.871289,44.689453
4.552569,-0.577849,-0.004085,-0.028567,0.088351,0.268151,0.861913,9.677363,-0.028734,-0.037248,0.003193,-10.371094,12.874805,44.009766
4.654076,-0.724949,0.000316,-0.034439,0.111785,-0.033519,1.623269,9.950302,-0.058532,-0.009578,0.249028,-10.898438,15.167578,45.199219
4.755907,-0.697867,-0.004663,-0.101563,0.065913,1.479617,0.981623,10.778696,-0.122386,-0.253285,0.017028,-10.898438,14.814844,44.859375
4.857331,-0.645696,-0.011020,-0.012065,0.092691,0.019154,0.995988,9.983821,-0.108551,-0.234129,0.020220,-11.074219,12.522070,45.708984
4.958630,-0.366707,-0.007673,-0.105927,0.050900,1.120486,0.512359,10.242395,-0.002128,0.052147,0.084074,-9.843750,11.640234,44.519531
5.060386,-0.808035,-0.015161,-0.109259,0.071950,1.115698,0.799663,10.103531,-0.032991,-0.030863,-0.116000,-9.843750,11.640234,44.519531
5.161667,-0.781101,-0.022012,-0.095600,0.065585,0.900220,0.588974,9.931148,-0.188368,-0.053211,-0.012771,-10.722656,13.227539,42.650391
5.262829,-0.664366,-0.022523,-0.101322,0.045387,1.005565,0.454898,10.022128,0.041505,0.036184,0.010642,-10.019531,12.169336,45.369141
5.364272,-0.787044,-0.026063,-0.121722,0.070993,1.355118,1.407791,11.156980,-0.020220,-0.184111,-0.029798,-10.546875,12.345703,45.199219
5.466100,-0.542187,-0.027280,-0.115639,0.052018,1.086968,0.627281,9.715670,0.023413,0.097909,-0.001064,-8.964844,12.874805,42.990234
5.567320,-0.706031,-0.026874,-0.109931,0.087119,0.991199,0.981623,9.495404,-0.081945,-0.113872,0.068110,-13.183594,12.874805,45.369141
5.669191,-1.044726,-0.025111,-0.106513,0.028839,1.431733,-0.023942,9.739612,-0.014899,0.071303,-0.158569,-10.546875,10.582031,43.500000
5.770941,-0.831496,-0.028815,-0.100856,0.045388,1.010353,0.541090,9.777920,-0.014899,0.021284,-0.003193,-10.546875,10.582031,43.500000
5.872593,-0.854032,-0.028270,-0.116395,0.056881,1.130063,0.565032,9.797073,-0.014899,0.010642,0.000000,-10.546875,10.582031,43.500000
5.974343,-0.733014,-0.028246,-0.121344,0.053481,1.139640,0.584185,9.931148,-0.014899,0.012771,0.001064,-9.843750,11.287500,44.179688
6.076166,-0.608226,-0.029056,-0.108958,0.061706,1.187524,0.560243,9.945514,-0.013835,0.009578,-0.003193,-9.316406,11.816602,44.689453
6.177588,-0.395309,-0.029392,-0.106891,0.058805,1.125275,0.579397,9.940725,-0.015963,0.012771,-0.004257,-9.492188,10.582031,44.179688
6.278770,-0.605231,-0.029153,-0.117182,0.041069,1.134852,0.483629,10.012551,-0.052147,-0.087266,-0.005321,-10.019531,12.169336,44.689453
6.380046,-0.613649,-0.039898,-0.103097,0.062585,1.886631,0.656011,9.935937,-0.024477,-0.013835,-0.106422,-10.722656,12.169336,44.689453
6.481648,-0.679435,-0.038634,-0.076485,0.073575,0.775721,0.727837,9.892841,-0.020220,0.039376,0.075560,-10.722656,12.169336,44.689453
6.583080,-0.914222,-0.042996,-0.069813,0.057651,0.201113,0.924162,9.864111,-0.065982,-0.075560,0.032991,-10.722656,12.169336,44.689453
6.684462,-0.896430,-0.041665,-0.146247,0.043230,1.762132,0.435745,9.931148,-0.020220,-0.017028,-0.009578,-10.019531,11.111133,43.669922
6.786669,-0.474682,-0.044999,-0.128675,0.043572,1.201889,0.550666,9.907206,0.110679,-0.069175,-0.051083,-10.722656,11.816602,44.689453
6.888519,-0.813910,-0.045528,-0.114700,0.069376,1.259350,0.823605,9.816227,0.007450,0.089395,0.013835,-11.953125,11.640234,43.500000
6.990301,-0.603895,-0.045473,-0.106553,0.092677,0.991199,0.972046,9.730036,0.316075,0.091523,0.006385,-11.425781,11.111133,42.990234
7.091564,-0.847535,-0.035188,-0.121233,0.181653,1.312023,1.824382,10.060435,0.391635,0.106422,0.048954,-15.117188,11.992969,42.820312
7.193341,-0.677209,-0.029448,-0.112005,0.171433,1.063026,1.666364,9.615114,0.312882,0.014899,-0.029798,-18.457031,11.463867,41.970703
7.294547,-0.979716,-0.036857,-0.107601,0.223113,1.053449,2.274492,9.787496,0.492736,0.070239,-0.175597,-18.457031,11.463867,41.970703
7.396716,-0.362785,-0.045033,-0.082772,0.216701,-0.095768,2.949656,8.513781,0.103230,0.237322,0.037248,-23.203125,14.109375,40.441406
7.498104,-0.722150,-0.045473,-0.076610,0.263068,0.416591,2.513912,8.968679,-0.008514,0.163891,-0.007450,-26.191406,14.991211,37.212891
7.599718,-0.896134,-0.050834,-0.058786,0.285878,0.339977,3.083732,9.409213,-0.019156,0.010642,-0.008514,-27.070312,16.225781,37.042969
7.701011,-0.757051,-0.054543,-0.071949,0.304708,0.569820,2.944868,9.433155,0.147927,-0.045762,-0.112808,-28.300781,16.754883,35.853516
7.802605,-0.541738,-0.046701,-0.141731,0.359231,1.331176,3.361459,8.556877,0.504442,-0.211781,-0.156441,-30.585938,17.283984,35.343750
7.904016,-0.931560,-0.065873,-0.093395,0.302011,-0.775721,2.375048,10.845734,-0.540626,0.142606,-0.089395,-33.574219,12.169336,31.775391
8.005356,-0.389330,-0.067952,-0.105006,0.299719,0.876278,3.184288,9.509769,0.173469,0.112808,-0.063853,-33.750000,13.403906,30.925781
8.106613,-0.824558,-0.072118,-0.109495,0.360398,0.612916,3.773262,9.246407,0.128771,0.103230,-0.158569,-33.750000,13.403906,30.925781
8.207636,-0.844665,-0.077774,-0.112761,0.353564,0.689530,3.658340,9.323021,0.205395,0.037248,-0.098973,-35.683594,14.638477,31.435547
8.308941,-0.548540,-0.088972,-0.093464,0.402380,0.497994,3.912126,9.006987,0.085138,0.029798,0.022349,-37.968750,15.873047,31.265625
8.410467,-0.700105,-0.092290,-0.088268,0.416870,0.440533,4.151546,9.265560,0.015963,0.000000,-0.013835,-39.902344,18.518555,27.017578
8.511873,-0.418169,-0.086611,-0.101111,0.405074,0.622492,4.065354,9.050082,0.000000,-0.006385,-0.014899,-39.726562,16.578516,28.207031
8.613329,-0.667809,-0.083072,-0.112061,0.399387,0.641646,4.070143,9.203311,-0.038312,-0.027670,-0.020220,-39.726562,14.462109,27.867188
8.714347,-0.507170,-0.094449,-0.087367,0.401124,0.536301,3.921702,9.074024,-0.007450,0.012771,-0.009578,-40.253906,16.049414,27.697266
8.815562,-0.571772,-0.085808,-0.110011,0.390731,0.646434,4.003105,9.097966,-0.024477,0.008514,0.012771,-40.253906,16.049414,27.697266
8.917100,-0.504518,-0.093856,-0.089775,0.396661,0.526724,3.926491,9.241618,-0.027670,0.027670,0.003193,-38.320312,17.989453,26.507812
9.018457,-0.393368,-0.082839,-0.114867,0.407466,0.723049,4.046201,9.102755,-0.043633,-0.010642,0.006385,-39.375000,17.989453,27.867188
9.119644,-0.560711,-0.092413,-0.094161,0.390407,0.517148,3.955221,9.217676,-0.018092,0.012771,-0.003193,-38.144531,16.049414,27.017578
9.220856,-0.712857,-0.087951,-0.106357,0.393788,0.641646,3.936068,9.232042,-0.042569,0.003193,-0.019156,-38.496094,16.402148,28.037109
9.322292,-0.485997,-0.088766,-0.092064,0.280763,0.641646,2.743755,9.911995,-0.604479,0.153248,0.137285,-38.144531,17.107617,27.697266
9.423512,-0.959326,-0.087565,-0.053029,0.235220,0.047884,2.432509,9.667786,-0.914169,0.155377,0.106422,-30.585938,17.283984,33.984375
9.525069,-0.662856,-0.059701,-0.084210,0.111702,0.905008,1.144428,9.490615,-0.960995,0.193689,0.295854,-30.585938,17.283984,33.984375
9.626337,-0.641853,-0.049547,-0.027416,0.142472,-0.186748,1.570596,9.768343,-0.306497,-0.011706,-0.001064,-30.585938,17.283984,33.984375
9.727782,-0.579114,-0.034612,-0.086216,0.140875,0.665588,1.216254,8.987833,-0.094716,-0.284148,0.076624,-12.832031,18.871289,38.912109
9.829104,-0.372559,-0.040473,-0.054870,0.088766,0.727837,0.914585,10.117896,-0.084074,0.090459,-0.027670,-11.953125,16.931250,43.500000
9.930559,-0.580809,-0.036124,-0.093935,0.073522,1.019930,0.766145,9.959879,-0.093652,-0.013835,0.020220,-11.953125,16.931250,43.500000
10.031893,-0.562845,-0.034941,-0.091801,0.035617,0.837971,0.569820,10.084377,-0.145799,-0.058532,0.019156,-11.250000,14.462109,42.480469
10.133322,-0.295497,-0.036868,-0.085828,0.051063,0.914585,0.560243,9.682152,-0.124514,-0.117065,-0.030863,-9.316406,13.227539,42.990234
10.235021,-0.576270,-0.039301,-0.089483,0.053322,0.914585,0.660800,9.878476,-0.008514,-0.051083,0.005321,-9.492188,12.698437,43.500000
10.336644,-0.689854,-0.039643,-0.088924,0.056985,0.905008,0.636858,10.362105,-0.004257,0.035119,0.009578,-9.492188,12.698437,43.500000
10.437627,-0.750436,-0.036992,-0.105633,0.069285,1.000776,0.675165,9.811438,0.000000,0.085138,0.007450,-8.613281,12.874805,44.009766
10.539194,-0.619611,-0.030751,-0.112793,0.089002,1.130063,0.924162,10.046070,0.107487,0.312882,0.076624,-9.492188,11.640234,43.500000
10.640511,-0.638910,-0.036174,0.009031,0.060762,0.071826,0.656011,10.582371,-0.164955,1.039747,-0.091523,-9.492188,11.640234,43.500000
10.742195,-0.686497,-0.056139,0.106533,0.083629,-1.005565,0.785298,10.089166,-0.196881,1.283454,-0.323524,-10.371094,24.867773,42.650391
10.843546,-0.253104,-0.081123,0.262389,0.074984,-2.509123,0.545878,9.725247,-0.088331,1.363271,-0.229872,-7.910156,37.918945,42.650391
10.945173,-0.729080,-0.106595,0.415611,0.076786,-3.768473,0.282516,8.762778,0.009578,1.289840,-0.187303,-9.140625,50.088281,37.722656
11.046659,-0.281320,-0.135506,0.514954,0.074549,-4.869806,0.497994,8.240842,0.024477,0.938646,-0.121322,-8.437500,59.612109,35.343750
11.148115,-0.622018,-0.163929,0.622174,0.094192,-5.511452,0.067038,7.781155,0.091523,0.587452,-0.057468,-8.437500,59.612109,35.343750
11.249899,-0.636833,-0.185193,0.658059,0.141249,-6.349423,0.320823,7.924807,0.121322,0.536369,-0.081945,-8.437500,59.612109,35.343750
11.351852,-0.347099,-0.209434,0.697955,0.184776,-6.756437,0.320823,7.618350,0.221359,0.425690,-0.114936,-10.019531,68.959570,30.416016
11.452704,-0.616196,-0.241083,0.755860,0.185683,-6.636727,0.100556,6.698976,0.025541,0.237322,-0.073431,-11.777344,70.723242,26.677734
11.554681,-0.750042,-0.241515,0.748791,0.191304,-6.828263,0.258574,7.105991,-0.013835,0.063853,0.001064,-11.953125,73.721484,25.488281
11.656038,-0.485778,-0.239500,0.750194,0.191806,-6.670246,0.402226,7.015011,-0.022349,0.046826,0.002128,-11.777344,73.897852,23.279297
11.757757,-0.223041,-0.234878,0.734815,0.183919,-6.770802,0.244209,7.230489,-0.011706,0.036184,-0.004257,-11.425781,74.603320,25.318359
11.859274,-0.524549,-0.236303,0.744627,0.191330,-6.885724,0.316035,7.244854,-0.022349,0.026606,-0.020220,-11.425781,74.603320,25.318359
11.960853,-0.559654,-0.229599,0.722293,0.185826,-6.703765,0.344765,7.187393,-0.034055,0.037248,-0.011706,-11.425781,74.603320,25.318359
12.061832,-0.495319,-0.236758,0.753804,0.199869,-6.641515,0.330400,6.842628,-0.021284,0.039376,-0.011706,-12.480469,74.603320,25.658203
12.163095,-0.771812,-0.231541,0.741161,0.185757,-6.828263,0.378284,7.187393,-0.004257,0.012771,0.011706,-11.074219,74.956055,24.298828
12.264433,-0.405435,-0.227565,0.731698,0.193742,-6.823475,0.454898,7.192182,-0.015963,0.025541,-0.013835,-12.480469,74.250586,23.619141
12.366090,-0.548059,-0.235594,0.763784,0.187177,-6.991069,0.373495,7.086837,-0.014899,0.032991,-0.007450,-11.601562,74.426953,24.128906
12.468214,-0.170141,-0.228900,0.743276,0.207738,-6.885724,0.416591,7.182605,-0.027670,-0.011706,0.001064,-11.601562,74.074219,23.449219
12.569976,-0.577083,-0.231269,0.756084,0.197950,-6.952762,0.397437,7.062895,-0.018092,0.037248,-0.007450,-11.777344,75.661523,23.958984
12.671348,-0.294749,-0.225261,0.736139,0.185775,-6.761225,0.344765,7.163451,-0.025541,-0.001064,-0.005321,-11.777344,75.661523,23.958984
12.772740,-0.532271,-0.229430,0.753089,0.191269,-6.809110,0.392649,7.129933,-0.015963,0.020220,-0.010642,-11.953125,76.896094,23.449219
12.873892,-0.393254,-0.229769,0.757093,0.187238,-6.861782,0.344765,7.091625,-0.026606,0.038312,-0.031927,-12.832031,75.308789,24.298828
12.975507,-0.567271,-0.226167,0.743721,0.175662,-6.818686,0.210690,7.192182,-0.037248,0.034055,-0.029798,-10.019531,74.956055,24.298828
13.077049,-0.529499,-0.224741,0.742691,0.180223,-6.799533,0.263362,7.034164,-0.015963,0.042569,-0.019156,-11.601562,74.779687,23.109375
13.178566,-0.642093,-0.228988,0.762828,0.189215,-6.818686,0.287304,6.880936,-0.030863,0.003193,-0.004257,-9.316406,75.308789,22.599609
13.280465,-0.528084,-0.225608,0.757457,0.198644,-6.833052,0.397437,6.924031,0.009578,-0.031927,0.042569,-10.722656,76.014258,21.919922
13.382575,-0.590429,-0.224010,0.757048,0.186006,-7.034164,0.445322,7.273585,-0.009578,0.012771,-0.010642,-10.722656,76.366992,22.939453
13.484016,-0.665480,-0.218965,0.739496,0.175673,-6.742072,0.272939,7.105991,-0.026606,0.002128,-0.010642,-10.722656,76.366992,22.939453
13.585638,-0.452998,-0.220966,0.757589,0.184163,-6.924031,0.263362,7.053318,0.005321,-0.019156,0.036184,-10.898438,74.426953,22.429688
13.686752,-0.709593,-0.219080,0.756708,0.198496,-7.048530,0.426168,7.173028,-0.013835,-0.009578,0.006385,-11.074219,75.308789,22.259766
13.788763,-0.860138,-0.215564,0.746897,0.194819,-6.823475,0.402226,6.943185,-0.022349,0.013835,-0.006385,-11.777344,76.719727,23.619141
13.890378,-0.235019,-0.214149,0.747759,0.195495,-6.957550,0.426168,7.144298,-0.025541,0.011706,0.000000,-12.128906,73.545117,23.279297
13.991909,-0.521359,-0.213067,0.747215,0.194482,-6.861782,0.378284,7.019799,-0.006385,0.024477,-0.012771,-10.195312,75.132422,22.429688
14.093561,-0.258344,-0.215822,0.762922,0.196079,-6.938396,0.359130,7.149086,-0.015963,0.002128,0.004257,-10.722656,73.192383,22.259766
14.194716,-0.603456,-0.211712,0.753788,0.189469,-7.110779,0.454898,7.359776,-0.034055,0.018092,-0.007450,-10.722656,73.192383,22.259766
14.296406,-0.865634,-0.207703,0.743827,0.180699,-6.842628,0.368707,7.115567,-0.007450,0.009578,0.002128,-11.074219,74.603320,22.599609
14.397740,-0.545352,-0.206928,0.745196,0.180899,-6.909666,0.416591,7.254431,-0.013835,-0.002128,0.002128,-10.546875,76.190625,22.089844
14.499153,-0.313109,-0.210888,0.767508,0.199366,-6.904878,0.445322,6.880936,-0.023413,-0.004257,0.006385,-10.722656,76.014258,22.939453
14.600919,-0.641391,-0.208336,0.763936,0.174602,-6.952762,0.330400,7.091625,-0.017028,0.023413,-0.018092,-10.195312,73.721484,23.449219
14.702253,-0.544880,-0.201925,0.741622,0.171147,-6.809110,0.335188,7.163451,-0.023413,0.005321,-0.006385,-10.195312,73.721484,23.449219
14.804261,-0.421330,-0.199906,0.740472,0.167392,-6.799533,0.344765,7.206547,-0.026606,-0.003193,0.000000,-12.128906,74.250586,22.259766
14.905942,-0.660669,-0.202205,0.759170,0.194005,-6.924031,0.411803,7.053318,-0.024477,0.010642,0.006385,-10.546875,74.426953,23.449219
15.007648,-0.445956,-0.204115,0.773538,0.180067,-6.928820,0.359130,6.900089,-0.008514,-0.004257,0.014899,-10.546875,74.426953,23.449219
15.109125,-0.176420,-0.200416,0.766851,0.182451,-7.024588,0.435745,7.187393,-0.005321,0.011706,0.007450,-11.074219,74.956055,22.599609
15.210338,-0.609937,-0.193342,0.742787,0.158999,-6.833052,0.296881,7.105991,-0.021284,0.001064,-0.003193,-10.371094,74.956055,23.958984
15.312074,-0.014831,-0.197916,0.767268,0.167362,-6.971915,0.277727,6.991069,0.001064,-0.005321,0.011706,-10.371094,74.956055,23.958984
15.414182,-0.495424,-0.190751,0.749212,0.160908,-6.938396,0.316035,7.163451,-0.015963,-0.025541,0.013835,-12.480469,74.956055,23.619141
15.515254,-0.179186,-0.193521,0.768799,0.163765,-7.038953,0.411803,7.077260,-0.029798,0.021284,0.003193,-11.074219,75.308789,22.939453
15.616944,-0.615504,-0.191739,0.765891,0.174815,-6.938396,0.397437,6.995857,-0.020220,0.032991,-0.010642,-11.425781,76.014258,23.279297
15.718658,-0.570370,-0.188380,0.752690,0.162191,-6.833052,0.320823,6.981492,-0.029798,0.041505,-0.021284,-11.425781,76.014258,23.279297
15.819730,-0.468808,-0.187897,0.753889,0.165362,-6.813898,0.311246,7.101202,-0.004257,0.018092,-0.010642,-11.953125,75.132422,22.769531
15.921246,-0.461024,-0.186313,0.752081,0.177829,-6.938396,0.378284,7.029376,0.000000,0.001064,0.004257,-10.195312,75.837891,21.410156
16.022989,-0.684286,-0.186820,0.757515,0.158797,-6.837840,0.349553,6.995857,-0.007450,0.029798,-0.001064,-12.480469,73.897852,23.279297
16.124406,-0.673797,-0.186112,0.755998,0.159638,-6.876147,0.325611,6.909666,-0.006385,-0.004257,0.001064,-11.425781,74.603320,22.599609
16.225937,-0.734059,-0.188324,0.778112,0.173213,-6.976704,0.383072,6.895301,-0.046826,-0.015963,-0.004257,-11.250000,75.485156,23.109375
16.327306,-0.333002,-0.183326,0.770223,0.167207,-7.024588,0.392649,7.019799,-0.056404,-0.148991,-0.029798,-11.250000,75.132422,23.109375
16.428954,-0.316403,-0.175510,0.748139,0.149965,-6.818686,0.287304,7.235277,0.008514,-0.327781,0.034055,-10.722656,73.897852,24.638672
16.530342,-0.483710,-0.164877,0.673258,0.096368,-6.033388,-0.301669,7.627926,-0.096844,-0.758792,0.040441,-10.722656,73.897852,24.638672
16.631633,-0.357843,-0.142811,0.568026,0.083983,-5.372589,0.177171,8.169016,0.056404,-1.368592,0.184111,-11.250000,69.488672,27.187500
16.733194,-0.492353,-0.109440,0.365631,0.105813,-3.605668,0.579397,8.681375,0.181982,-1.708080,0.083009,-10.722656,61.904883,33.134766
16.834250,-0.206456,-0.085030,0.157772,0.125733,-1.814805,1.810016,8.992621,0.242643,-1.531419,0.286276,-10.722656,61.904883,33.134766
16.935978,-0.514177,-0.066571,0.079001,0.160992,-0.976834,1.685518,10.184934,0.220294,-0.829031,0.156441,-16.523438,33.157031,41.121094
17.037682,-0.719971,-0.059073,0.035228,0.104584,-0.679953,0.914585,9.619902,-0.084074,-0.316075,0.079817,-16.875000,26.807813,44.859375
17.138643,-0.421638,-0.050922,-0.031167,0.112848,0.153229,1.201889,10.141838,-0.206460,-0.499121,0.037248,-16.523438,22.927734,44.179688
17.239969,-0.564836,-0.053888,-0.036011,0.085843,0.277727,0.876278,9.801862,-0.138349,-0.292662,-0.025541,-16.523438,22.927734,44.179688
17.341363,-0.431538,-0.054418,-0.082606,0.087141,0.909797,0.737414,9.821015,-0.136221,-0.036184,-0.041505,-14.941406,18.871289,44.009766
17.442411,-0.293869,-0.054788,-0.071482,0.041763,0.713472,0.416591,10.184934,-0.086202,0.008514,-0.040441,-14.941406,18.871289,44.009766
17.543847,-0.750491,-0.055402,-0.077124,0.049013,0.780510,0.670376,9.854534,-0.039376,-0.041505,-0.029798,-14.062500,15.873047,45.539062
17.645622,-0.621025,-0.052142,-0.127496,0.061783,1.201889,0.670376,9.552865,0.002128,-0.266056,0.098973,-12.832031,13.933008,44.349609
17.746771,-0.513524,-0.032881,-0.133249,0.092572,1.292869,0.967257,10.065224,0.002128,0.054275,0.081945,-12.832031,13.933008,44.349609
17.848531,-0.516074,-0.031588,-0.120312,0.056661,1.120486,0.723049,9.840169,-0.056404,0.035119,0.006385,-12.656250,10.934766,42.140625
17.950127,-0.676430,-0.031386,-0.121900,0.067257,1.187524,0.708684,9.854534,-0.019156,0.009578,-0.008514,-12.480469,12.874805,43.669922
18.051229,-0.188108,-0.032145,-0.110436,0.064081,1.086968,0.732626,10.036493,-0.018092,0.019156,0.002128,-12.480469,12.874805,43.669922
18.152634,-0.744749,-0.031545,-0.124328,0.071626,1.230620,0.761356,9.964667,0.006385,0.013835,-0.009578,-12.832031,11.816602,43.669922
18.254249,-0.699205,-0.033650,-0.110131,0.064455,1.168370,0.723049,9.773131,-0.008514,0.011706,0.000000,-12.480469,11.463867,43.330078
18.355349,-0.856915,-0.033018,-0.130117,0.075339,1.216254,0.766145,9.959879,-0.011706,0.023413,0.002128,-14.062500,12.345703,44.179688
18.457228,-0.408223,-0.033948,-0.119032,0.093353,1.134852,0.871489,9.945514,-0.018092,0.013835,-0.002128,-12.304688,11.287500,43.839844
18.558805,-0.650835,-0.036196,-0.099531,0.079945,1.086968,0.828394,9.859322,-0.010642,0.022349,-0.002128,-12.304688,11.287500,43.839844
18.660583,-0.462556,-0.036636,-0.097253,0.065228,1.048660,0.799663,9.931148,-0.002128,0.014899,-0.001064,-12.656250,12.698437,43.160156
18.761923,-0.659399,-0.035537,-0.110970,0.073580,1.082179,0.809240,9.844957,-0.009578,0.021284,-0.002128,-13.359375,12.345703,43.160156
18.863756,-0.622670,-0.036768,-0.094828,0.071565,1.000776,0.756568,9.849746,-0.005321,0.028734,0.003193,-13.359375,12.345703,43.160156
18.965747,-0.637637,-0.037046,-0.094641,0.082637,0.914585,0.861913,9.935937,-0.008514,0.030863,-0.019156,-12.832031,14.285742,42.650391
19.066689,-0.861430,-0.038301,-0.085348,0.073980,0.881066,0.775721,9.840169,-0.018092,0.012771,-0.007450,-12.656250,13.403906,44.179688
19.168238,-0.728708,-0.038230,-0.101950,0.064067,0.991199,0.679953,9.921572,-0.020220,0.015963,-0.007450,-12.656250,13.403906,44.179688
19.269767,-1.034012,-0.037937,-0.108563,0.096267,0.919373,0.847547,9.792285,-0.021284,0.007450,-0.003193,-12.128906,12.874805,45.029297
19.371431,-0.559025,-0.039281,-0.100037,0.093568,1.024718,0.852336,9.892841,-0.015963,0.014899,-0.005321,-12.304688,13.403906,42.820312
19.472675,-0.505177,-0.040965,-0.092110,0.077952,0.967257,0.828394,9.878476,-0.014899,0.014899,-0.022349,-12.304688,13.403906,42.820312
19.574236,-0.726770,-0.040445,-0.109676,0.081183,1.048660,0.847547,9.797073,-0.018092,0.014899,0.001064,-12.304688,13.403906,42.820312
19.676024,-0.706220,-0.040856,-0.105353,0.082849,1.101333,0.790087,9.840169,-0.013835,0.017028,0.003193,-12.128906,12.522070,42.990234
19.777159,-0.595535,-0.041128,-0.102014,0.078408,0.986411,0.837971,9.907206,-0.017028,0.012771,-0.001064,-14.414062,13.051172,43.839844
19.878552,-0.675089,-0.041251,-0.103615,0.069877,0.995988,0.732626,9.878476,-0.019156,0.010642,0.003193,-14.589844,12.169336,43.330078
19.980041,-0.820218,-0.040677,-0.108455,0.073822,1.039084,0.727837,10.031705,-0.008514,0.024477,0.001064,-13.535156,12.522070,44.689453
20.081679,-0.640165,-0.042170,-0.103586,0.069112,1.010353,0.799663,9.998186,-0.015963,0.007450,-0.006385,-13.535156,12.522070,44.689453
20.183050,-1.085365,-0.042071,-0.106875,0.076662,1.039084,0.833182,9.974244,-0.015963,0.018092,-0.003193,-14.062500,12.345703,44.519531
20.285007,-0.750347,-0.041182,-0.111457,0.086516,1.019930,0.770933,9.959879,0.040441,0.092588,-0.007450,-13.710938,13.756641,44.859375
20.386913,-0.563936,-0.034223,-0.068206,0.097080,0.665588,0.962469,9.955091,0.240515,0.552332,0.150056,-13.710938,13.756641,44.859375
20.488634,-0.826353,-0.033489,0.053429,0.103935,-0.483629,1.072602,10.251972,-0.187303,0.978022,0.008514,-14.062500,15.520312,44.519531
20.590397,-0.439706,-0.032896,0.142006,0.081543,-1.278504,0.885855,10.137050,-0.183047,1.353693,-0.041505,-13.535156,24.162305,44.009766
20.691982,-1.101097,-0.045174,0.255792,0.093518,-2.494758,0.790087,9.753978,-0.151120,1.295161,-0.223487,-11.250000,37.037109,44.859375
20.793535,-0.531596,-0.061249,0.397824,0.092224,-3.801992,0.675165,9.069236,-0.194753,1.362207,-0.210716,-9.492188,50.793750,40.101562
20.895198,-1.076383,-0.080036,0.581459,0.043506,-5.142745,-0.004788,8.010999,0.069175,1.225986,-0.146863,-10.195312,61.728516,36.363281
20.996690,-0.461809,-0.103326,0.662898,0.064825,-5.880159,0.009577,7.517793,0.095780,0.389506,-0.087266,-9.316406,66.137695,33.134766
21.098388,-0.598897,-0.116774,0.670127,0.064517,-6.430826,0.033519,7.920019,0.021284,0.059597,-0.007450,-9.316406,66.137695,33.134766
21.200056,-1.029778,-0.112117,0.643089,0.110032,-6.004658,0.435745,7.977480,-0.055340,0.092588,-0.012771,-9.316406,66.137695,33.134766
21.301561,-0.523900,-0.112143,0.652155,0.109932,-5.923255,0.359130,7.694964,0.000000,0.034055,-0.015963,-10.722656,67.548633,29.056641
21.403226,-0.154321,-0.106477,0.638538,0.107736,-5.980716,0.402226,7.915231,-0.006385,-0.008514,0.008514,-10.898438,67.725000,28.886719
21.504938,-0.574554,-0.106628,0.656896,0.090429,-6.071695,0.287304,7.953538,-0.013835,0.028734,0.007450,-9.843750,67.372266,29.566406
21.606101,-0.401539,-0.103674,0.645649,0.113076,-5.918467,0.363919,7.718906,-0.014899,-0.011706,0.000000,-10.195312,67.019531,29.226562
21.707714,-0.871274,-0.103018,0.658206,0.105057,-6.038177,0.363919,7.915231,-0.022349,0.034055,-0.002128,-10.195312,67.019531,29.226562
21.809345,-0.669409,-0.099378,0.640601,0.102328,-6.009446,0.368707,7.910442,-0.025541,0.012771,-0.006385,-10.722656,66.843164,30.416016
21.911154,-0.483804,-0.099530,0.648385,0.103003,-5.928043,0.373495,7.838616,0.005321,0.017028,-0.002128,-10.722656,66.843164,30.416016
22.012664,-0.713553,-0.099055,0.641025,0.086141,-6.105214,0.277727,7.987057,-0.011706,0.010642,-0.019156,-10.722656,66.843164,30.416016
22.114120,-0.799837,-0.097693,0.639741,0.101467,-6.019023,0.378284,7.848193,-0.005321,0.027670,-0.009578,-9.140625,69.135937,29.566406
22.215720,-0.851853,-0.096944,0.651913,0.087454,-6.081272,0.330400,7.891289,-0.040441,-0.021284,0.001064,-10.546875,69.488672,28.546875
22.316707,-0.775880,-0.094757,0.640952,0.109677,-5.846640,0.335188,7.651869,-0.004257,-0.002128,0.015963,-10.546875,69.488672,28.546875
22.418746,-0.541975,-0.093583,0.671085,0.057942,-5.693412,0.038307,7.129933,-0.070239,-0.456552,0.074496,-10.195312,68.430469,30.246094
22.519887,-0.745042,-0.059437,0.501646,0.028823,-4.395754,-0.019154,7.584831,-0.052147,-1.689988,0.369286,-8.964844,59.788477,33.134766
22.622343,-0.478732,-0.020040,0.290173,0.056446,-3.117251,0.502782,9.619902,0.021284,-1.517584,0.222423,-8.964844,59.788477,33.134766
22.723336,-0.790842,0.000635,0.118909,0.103128,-1.359907,1.063026,9.931148,0.310753,-1.568667,0.219230,-8.964844,59.788477,33.134766
22.825160,-0.691850,0.004669,0.065058,0.103321,-0.694318,1.192312,11.233594,-0.301175,-0.399084,-0.130900,-11.425781,30.511523,43.669922
22.927212,-1.042785,0.011794,-0.029275,0.083477,0.363919,0.909797,10.108319,-0.050019,-0.422497,0.019156,-14.414062,21.516797,43.500000
23.029106,-0.467231,0.013958,-0.056862,0.091627,0.229843,0.737414,10.089166,-0.208588,-0.258606,-0.036184,-14.765625,17.283984,41.800781
23.130784,-0.932467,0.021805,-0.128124,0.091439,1.158794,0.804452,8.781932,0.039376,-0.270313,0.063853,-12.656250,15.167578,41.800781
23.232315,-0.993521,0.015557,-0.102680,0.045756,1.091756,0.550666,10.309432,-0.097909,0.061725,0.012771,-12.128906,10.758398,42.650391
23.334535,-0.899136,0.017984,-0.129068,0.064085,1.249773,0.636858,9.806650,-0.133028,-0.044697,0.000000,-12.832031,11.816602,41.970703
23.436318,-0.915806,0.019395,-0.129077,0.068667,1.221043,0.636858,9.979033,-0.097909,0.023413,0.030863,-12.832031,11.816602,41.970703
23.537643,-1.116751,0.020536,-0.122463,0.056218,1.235408,0.588974,9.849746,-0.094716,0.095780,0.029798,-11.601562,9.523828,42.140625
23.639162,-0.626274,0.019820,-0.114710,0.038846,1.197101,0.493206,9.811438,-0.009578,-0.004257,-0.015963,-10.898438,12.698437,43.500000
23.740426,-0.579276,0.017858,-0.109392,0.036086,1.158794,0.363919,9.935937,0.011706,0.004257,-0.018092,-8.789062,10.229297,44.179688
23.841980,-0.752929,0.017462,-0.116200,0.067130,1.053449,0.555455,9.969456,0.020220,0.036184,-0.013835,-9.316406,10.758398,41.291016
23.943487,-0.511073,0.015449,-0.101370,0.062538,1.039084,0.521936,9.998186,0.002128,0.040441,-0.013835,-9.843750,10.582031,44.179688
24.045465,-0.940126,0.015747,-0.109990,0.040862,1.058237,0.474052,9.883264,-0.023413,-0.007450,0.000000,-8.437500,8.818359,42.140625
24.147198,-0.823898,0.015954,-0.107979,0.045680,1.125275,0.407014,9.911995,-0.046826,0.015963,0.010642,-10.019531,11.816602,44.349609
24.249119,-0.656175,0.016881,-0.096309,0.056426,0.943315,0.474052,9.844957,-0.087266,0.019156,0.018092,-10.019531,11.816602,44.349609
24.350720,-0.749334,0.018303,-0.114551,0.037307,1.130063,0.426168,9.940725,-0.018092,0.009578,0.000000,-10.019531,11.816602,44.349609
24.452317,-0.800838,0.017358,-0.102764,0.040487,1.010353,0.392649,9.916783,-0.018092,0.039376,-0.003193,-9.140625,10.229297,43.500000
24.554183,-0.863626,0.016790,-0.089340,0.035780,0.943315,0.373495,9.916783,-0.017028,0.023413,-0.002128,-9.140625,10.229297,43.500000
24.656811,-0.755866,0.017624,-0.111990,0.059956,1.043872,0.464475,9.916783,-0.015963,0.013835,0.002128,-8.789062,11.992969,43.839844
24.759053,-0.657965,0.015876,-0.082554,0.047502,0.986411,0.435745,9.864111,-0.012771,0.022349,-0.002128,-8.613281,12.169336,43.330078
24.860434,-0.697261,0.016155,-0.090909,0.034439,1.005565,0.392649,9.911995,-0.022349,-0.004257,-0.001064,-8.613281,12.169336,43.330078
24.963176,-0.584414,0.016599,-0.110527,0.050229,1.024718,0.392649,9.892841,-0.011706,0.025541,-0.002128,-8.613281,12.169336,43.330078
25.064904,-0.697730,0.015026,-0.086581,0.054544,0.972046,0.464475,9.911995,-0.012771,0.045762,-0.002128,-10.546875,11.287500,45.539062
25.166719,-0.889384,0.014420,-0.079612,0.040975,0.981623,0.430956,9.897630,-0.011706,0.024477,-0.008514,-9.667969,12.169336,44.009766
25.268679,-0.938444,0.014377,-0.096379,0.048427,0.981623,0.488417,9.854534,-0.013835,0.009578,-0.001064,-10.019531,11.463867,43.330078
25.370741,-0.787371,0.013147,-0.096219,0.048880,0.852336,0.660800,9.672575,-0.013835,0.043633,-0.035119,-8.261719,11.111133,42.650391
25.472649,-0.675880,0.011380,-0.089843,0.044368,0.905008,0.373495,9.974244,-0.023413,0.000000,0.004257,-9.316406,12.874805,44.689453
25.574791,-0.568917,0.011228,-0.096711,0.043675,0.991199,0.464475,9.854534,-0.018092,0.006385,-0.019156,-9.316406,11.111133,44.009766
25.676289,-0.711573,0.010561,-0.090562,0.039165,0.924162,0.407014,9.974244,-0.019156,0.007450,0.001064,-10.019531,10.405664,42.990234
25.778435,-0.941206,0.010567,-0.099457,0.035280,0.981623,0.387861,9.988609,-0.012771,0.015963,-0.004257,-10.019531,10.405664,42.990234
25.879786,-0.817695,0.009683,-0.092894,0.026970,0.962469,0.368707,9.840169,-0.013835,0.026606,-0.003193,-9.140625,11.640234,43.500000
25.981272,-0.706139,0.010363,-0.111100,0.042616,0.986411,0.440533,9.998186,-0.018092,0.000000,-0.002128,-9.140625,11.640234,43.500000
26.082962,-0.816019,0.008841,-0.079932,0.053928,0.895431,0.440533,9.878476,-0.014899,0.013835,-0.001064,-9.140625,12.345703,43.839844
26.184666,-0.754452,0.009535,-0.102534,0.051845,0.976834,0.459687,9.753978,-0.014899,0.003193,-0.003193,-11.953125,11.640234,43.500000
26.287020,-0.624873,0.009208,-0.101340,0.054297,0.933739,0.426168,9.830592,-0.011706,0.018092,-0.003193,-8.613281,11.111133,42.990234
26.388679,-0.663539,0.008548,-0.094060,0.037381,0.991199,0.383072,10.036493,-0.012771,0.007450,-0.005321,-10.019531,13.580273,44.689453
26.490297,-0.666456,0.008358,-0.090770,0.053413,0.924162,0.440533,9.955091,-0.012771,0.010642,-0.002128,-9.843750,12.345703,43.500000
26.591748,-0.928724,0.008255,-0.091866,0.041030,0.957681,0.454898,9.902418,-0.015963,0.011706,-0.004257,-9.843750,12.345703,43.500000
26.693534,-0.971892,0.008733,-0.094833,0.036555,1.024718,0.512359,9.916783,-0.012771,0.018092,0.018092,-9.316406,12.522070,43.330078
26.795061,-0.737169,0.008418,-0.093867,0.048630,0.895431,0.454898,9.969456,-0.018092,0.004257,0.000000,-9.140625,10.582031,43.160156
26.897257,-0.738298,0.008557,-0.105539,0.047787,0.957681,0.450110,10.007763,-0.013835,0.012771,-0.004257,-8.789062,10.229297,44.179688
26.999475,-0.792446,0.007593,-0.086091,0.040498,0.885855,0.411803,9.931148,-0.017028,0.008514,0.000000,-8.789062,12.345703,43.839844
27.100779,-0.654174,0.007005,-0.081274,0.035108,0.909797,0.397437,9.955091,-0.012771,0.009578,-0.004257,-9.843750,12.698437,44.519531
27.202050,-0.602599,0.007603,-0.098999,0.042843,0.933739,0.416591,9.935937,-0.015963,0.008514,-0.002128,-9.843750,12.698437,44.519531
27.304423,-0.448637,0.008416,-0.094468,0.045344,0.909797,0.411803,9.806650,0.014899,0.061725,0.035119,-9.843750,12.698437,44.519531
27.406227,-0.595536,0.013038,-0.058966,0.100105,0.565032,1.072602,10.002975,0.383121,0.146863,0.025541,-8.964844,12.522070,45.029297
27.507949,-0.690752,0.012099,-0.059911,0.168888,0.363919,1.656788,9.615114,0.573617,0.240515,-0.147927,-10.898438,11.992969,44.519531
27.609684,-0.736696,-0.000002,-0.041417,0.208590,0.469264,2.030283,10.089166,0.500185,0.170276,-0.206460,-17.402344,16.754883,41.291016
27.711854,-0.708924,-0.004859,-0.059029,0.293296,0.794875,2.978387,9.255984,0.720480,-0.116000,-0.134092,-24.785156,16.402148,40.951172
27.814073,-0.678880,-0.020095,-0.092625,0.376852,0.785298,3.490746,9.217676,0.820517,-0.222423,-0.417176,-31.113281,14.991211,37.552734
27.916193,-0.582459,-0.048510,-0.094876,0.418587,1.877054,7.230489,14.403517,0.565103,-0.140478,-0.188368,-40.781250,15.520312,30.585938
28.017616,-0.677301,-0.053675,-0.099183,0.437873,0.651223,4.189853,8.911219,0.472516,-0.040441,0.027670,-43.417969,15.343945,28.037109
28.118813,-0.402423,-0.050061,-0.098477,0.475592,0.622492,4.558560,8.710106,0.003193,0.042569,-0.040441,-43.417969,15.343945,28.037109
28.220630,-0.523911,-0.048922,-0.099740,0.478220,0.641646,4.577714,8.710106,0.017028,0.067046,-0.015963,-45.175781,15.343945,25.998047
28.321669,-0.640795,-0.054553,-0.089616,0.486013,0.541090,4.616021,8.662222,-0.071303,0.023413,-0.006385,-45.703125,14.814844,26.167969
28.424039,-0.704975,-0.066210,-0.067977,0.470081,0.383072,4.529830,8.786720,-0.018092,0.004257,0.031927,-43.769531,15.343945,25.318359
28.524904,-0.446124,-0.057063,-0.084953,0.485755,0.464475,4.687847,8.710106,-0.035119,-0.003193,-0.002128,-44.824219,15.696680,25.658203
28.627262,-0.723230,-0.056467,-0.092144,0.502287,0.550666,4.778827,8.863335,0.010642,0.008514,-0.036184,-45.175781,14.991211,25.998047
28.728869,-0.601669,-0.045252,-0.117625,0.492181,0.670376,4.596867,8.470685,0.010642,0.019156,-0.014899,-44.121094,15.696680,24.638672
28.830628,-0.905880,-0.055751,-0.098501,0.482768,0.545878,4.826711,8.959103,-0.021284,-0.003193,-0.013835,-45.351562,16.931250,26.507812
28.932860,-0.687694,-0.067977,-0.078321,0.500157,0.488417,4.793192,8.753201,-0.028734,-0.020220,-0.002128,-45.351562,16.931250,26.507812
29.035007,-0.801032,-0.060672,-0.091870,0.484313,0.454898,4.750096,8.858546,-0.038312,-0.007450,0.014899,-45.351562,16.931250,26.507812
29.136574,-0.705652,-0.052048,-0.094629,0.440489,0.627281,4.539406,9.572018,-0.354387,0.106422,0.129835,-45.703125,15.520312,25.148438
29.238155,-0.858936,-0.050669,0.001004,0.253905,-0.043096,2.652775,9.485827,-1.542061,0.685360,0.285212,-41.308594,17.107617,29.056641
29.340013,-0.815594,-0.014935,-0.024137,0.170020,0.095768,1.283292,8.355764,-0.770498,-0.411855,0.353322,-41.308594,17.107617,29.056641
29.441940,-0.684114,0.036629,-0.072993,0.163498,0.871489,1.920150,8.978256,-0.858829,-0.387378,0.409726,-17.578125,17.989453,37.722656
29.543998,-0.415124,0.053940,-0.076731,0.130935,0.737414,1.551443,10.649409,-0.216038,-0.225616,0.204331,-10.898438,14.462109,41.121094
29.644880,-0.778654,0.063651,-0.093885,0.084472,0.565032,0.708684,10.783484,-0.141542,0.140478,0.022349,-10.898438,14.462109,41.121094
29.746860,-0.627360,0.066739,-0.107357,0.070569,1.029507,0.416591,10.271125,-0.162826,0.043633,0.004257,-9.140625,10.582031,40.781250
29.848669,-0.807888,0.064136,-0.084772,0.056672,0.914585,0.584185,9.945514,-0.051083,0.036184,-0.012771,-8.437500,10.934766,42.820312
29.950085,-0.951169,0.061729,-0.078027,0.074437,0.871489,0.593762,9.854534,-0.076624,0.010642,-0.009578,-8.437500,10.934766,42.820312
30.051420,-0.724712,0.061012,-0.076981,0.071750,0.809240,0.866701,9.916783,-0.050019,-0.004257,-0.012771,-7.382812,12.698437,44.179688
30.152943,-0.867268,0.047265,-0.074196,0.044920,0.723049,0.469264,10.036493,0.113872,-0.095780,-0.283084,-8.613281,10.758398,44.349609
30.254854,-0.669577,-0.039236,-0.091014,0.137615,0.430956,1.403002,10.232818,0.286276,0.084074,-1.160004,-11.425781,12.874805,42.310547
30.357159,-0.444509,-0.169931,-0.040387,0.180772,0.014365,1.790863,10.026917,0.063853,0.706645,-1.428189,-17.929688,19.400391,39.421875
30.458748,-1.060208,-0.287105,0.053821,0.078706,-0.761356,0.565032,9.739612,-0.114936,0.514020,-0.825838,-17.929688,19.400391,39.421875
30.560349,-0.589536,-0.334148,0.068544,0.114429,-1.139640,0.857124,9.935937,0.070239,0.112808,-0.263928,-22.851562,29.276953,41.121094
30.661709,-0.907359,-0.337692,0.034684,0.144012,-0.780510,1.211466,9.787496,-0.015963,0.027670,0.005321,-24.433594,33.686133,39.931641
30.763652,-0.555834,-0.337876,0.047432,0.154021,-0.952892,1.297657,9.931148,-0.026606,-0.004257,0.009578,-25.488281,35.449805,39.251953
30.865309,-0.574779,-0.332575,0.029580,0.144249,-0.837971,1.240196,9.576807,-0.028734,0.017028,0.031927,-23.554688,33.862500,38.402344
30.966997,-0.811026,-0.331303,0.035388,0.165097,-0.871489,1.302446,9.557653,-0.008514,0.017028,0.011706,-24.785156,33.333398,39.591797
31.068673,-0.681998,-0.334192,0.064321,0.158936,-0.948104,1.268927,9.830592,-0.006385,0.013835,0.014899,-22.675781,33.686133,39.591797
31.170971,-0.680260,-0.328287,0.033998,0.145199,-0.847547,1.225831,9.811438,-0.020220,0.010642,-0.010642,-22.851562,34.567969,38.742188
31.272933,-0.811504,-0.330031,0.054021,0.160914,-0.833182,1.292869,9.782708,-0.009578,0.023413,0.010642,-22.851562,34.567969,38.742188
31.374833,-0.879973,-0.326438,0.040948,0.156764,-0.866701,1.355118,9.888053,0.008514,0.011706,-0.007450,-23.554688,33.509766,38.062500
31.476270,-1.044486,-0.323730,0.031535,0.164915,-0.809240,1.307234,9.749189,-0.001064,0.015963,-0.002128,-25.488281,32.275195,37.552734
31.578174,-0.873558,-0.321964,0.025537,0.146980,-0.742203,1.340753,9.844957,-0.009578,-0.025541,0.026606,-26.191406,32.627930,39.931641
31.679705,-0.709875,-0.318872,0.022050,0.156164,-0.679953,1.393425,9.797073,0.002128,0.002128,0.007450,-24.785156,34.744336,38.572266
31.781024,-0.318604,-0.321074,0.036029,0.166914,-0.804452,1.426944,9.940725,-0.026606,0.012771,-0.001064,-24.960938,34.920703,38.742188
31.882717,-0.977774,-0.321854,0.038805,0.151671,-0.823605,1.297657,9.658209,-0.021284,0.003193,-0.006385,-24.960938,33.157031,38.062500
31.984598,-0.854985,-0.320481,0.026434,0.168324,-0.790087,1.407791,9.849746,-0.017028,0.013835,-0.009578,-24.960938,33.157031,38.062500
32.086782,-0.765670,-0.322375,0.033478,0.147890,-0.756568,1.240196,9.892841,-0.021284,0.005321,-0.008514,-26.015625,32.804297,40.441406
32.187843,-0.903706,-0.322308,0.040974,0.156853,-0.900220,1.326388,10.002975,-0.020220,0.022349,-0.012771,-24.257812,33.509766,38.742188
32.288817,-0.622692,-0.322277,0.040473,0.169360,-0.847547,1.422156,9.792285,-0.012771,-0.004257,0.006385,-23.906250,33.862500,39.082031
32.390568,-0.531007,-0.322294,0.042282,0.148512,-0.780510,1.278504,9.662998,0.018092,0.012771,-0.006385,-24.609375,34.215234,37.722656
32.492706,-0.623806,-0.321856,0.042446,0.174727,-0.924162,1.465251,9.983821,0.001064,-0.011706,0.005321,-25.488281,33.686133,39.251953
32.594217,-0.431072,-0.320507,0.036040,0.172618,-0.881066,1.508347,9.926360,-0.017028,0.005321,-0.002128,-25.488281,33.686133,39.251953
32.694972,-0.502551,-0.320428,0.031967,0.153035,-0.703895,1.130063,9.538499,-0.046826,0.004257,-0.011706,-25.664062,32.098828,39.421875
32.797194,-0.585087,-0.322348,0.040303,0.151596,-0.814029,1.326388,10.046070,-0.031927,0.000000,0.005321,-25.664062,32.098828,39.421875
32.898587,-0.304592,-0.322768,0.041213,0.171931,-0.948104,1.527501,9.888053,-0.007450,-0.003193,0.004257,-25.664062,32.098828,39.421875
33.000740,-0.385859,-0.322515,0.038745,0.155762,-0.809240,1.379060,9.782708,-0.015963,0.011706,-0.008514,-24.609375,33.157031,39.761719
33.101948,-0.722805,-0.321643,0.026646,0.166288,-0.780510,1.388637,9.797073,-0.021284,-0.008514,-0.015963,-23.906250,34.215234,38.742188
33.204052,-0.605302,-0.320380,0.015039,0.164776,-0.670376,1.489193,9.725247,-0.008514,0.004257,0.011706,-25.488281,32.980664,37.892578
33.305793,-0.408501,-0.265344,-0.083914,0.099305,0.622492,0.723049,9.265560,0.077688,-0.268185,1.258977,-24.960938,32.451563,37.382812
33.406996,-0.749141,-0.041334,-0.034943,0.159913,0.067038,2.202666,9.926360,0.120257,-0.923747,2.471129,-24.960938,32.451563,37.382812
33.509101,-0.506051,0.119934,-0.075683,0.177972,1.072602,1.968034,10.347740,-0.242643,-0.194753,0.937582,-24.960938,32.451563,37.382812
33.610249,-0.823470,0.168598,-0.155887,0.081157,2.121263,0.301669,9.380482,-0.116000,0.009578,0.134092,-13.710938,6.701953,41.121094
33.711841,-0.727075,0.186816,-0.129948,0.104822,1.513135,0.742203,9.710882,-0.043633,-0.018092,0.046826,-10.195312,8.112891,40.101562
33.813581,-0.701368,0.174305,-0.085422,0.100978,1.101333,0.766145,9.715670,-0.029798,0.097909,-0.155377,-9.140625,5.643750,40.101562
33.915235,-0.821759,0.164090,-0.091514,0.114082,1.173159,0.900220,9.950302,-0.080881,0.130900,-0.007450,-10.195312,8.465625,42.480469
34.016898,-0.867409,0.160662,-0.068369,0.094653,0.794875,0.790087,9.557653,-0.101101,0.081945,-0.048954,-9.316406,9.347461,41.970703
34.118551,-0.855023,0.156780,-0.086249,0.057468,0.933739,0.876278,9.600749,-0.780076,0.205395,-0.067046,-9.667969,10.052930,42.650391
34.220038,-0.790820,0.154155,-0.051540,0.087993,0.541090,0.617704,9.490615,0.045762,0.067046,-0.021284,-8.261719,10.052930,42.310547
34.321405,-0.669654,0.160190,-0.072103,0.034845,0.804452,0.220267,9.811438,0.001064,0.106422,0.038312,-8.261719,10.052930,42.310547
34.422792,-0.678897,0.156600,-0.021328,0.055964,0.344765,0.526724,9.945514,-0.009578,0.041505,-0.010642,-6.328125,11.640234,43.839844
34.524563,-0.676459,0.146494,-0.077501,0.056619,0.871489,0.411803,9.878476,0.001064,0.061725,-0.131964,-7.558594,12.522070,42.990234
34.625515,-0.328793,0.140899,-0.043219,0.057123,0.550666,0.469264,9.859322,0.032991,0.157505,-0.024477,-7.558594,12.522070,42.990234
34.727682,-0.611967,0.135208,-0.029458,0.054319,0.459687,0.483629,9.911995,0.020220,0.145799,-0.102166,-8.437500,13.756641,42.480469
34.829884,-0.872411,0.130297,-0.021766,0.076807,0.306458,0.617704,9.979033,-0.025541,-0.017028,0.000000,-8.613281,14.638477,42.650391
34.930941,-0.478241,0.129925,-0.018050,0.066405,0.282516,0.617704,9.959879,-0.017028,0.010642,-0.002128,-8.261719,13.933008,45.029297
35.033023,-0.609520,0.130280,-0.024836,0.063138,0.354342,0.593762,10.017340,-0.018092,0.013835,0.001064,-8.261719,13.933008,45.029297
35.134235,-0.740160,0.129932,-0.023196,0.063910,0.292093,0.641646,9.983821,-0.011706,0.014899,-0.002128,-8.261719,14.991211,44.009766
35.235736,-0.403651,0.129747,-0.024010,0.056302,0.316035,0.521936,9.892841,-0.012771,0.013835,-0.003193,-6.855469,16.402148,45.029297
35.336680,-0.359428,0.128631,-0.011394,0.064844,0.316035,0.636858,9.864111,-0.015963,0.015963,-0.003193,-7.558594,16.049414,43.330078
35.438144,-0.254528,0.129660,-0.026279,0.069203,0.296881,0.617704,9.892841,-0.014899,0.013835,0.000000,-8.789062,14.814844,43.839844
35.539629,-0.623758,0.129505,-0.026325,0.057714,0.339977,0.531513,9.911995,-0.015963,0.010642,-0.002128,-9.316406,15.696680,44.349609
35.641262,-0.614455,0.128999,-0.018444,0.065073,0.263362,0.660800,9.878476,-0.018092,0.008514,-0.002128,-8.789062,15.167578,43.839844
35.743101,-0.607681,0.128823,-0.017978,0.068509,0.268151,0.612916,9.921572,-0.017028,0.014899,-0.001064,-8.613281,16.049414,45.369141
35.844805,-0.382037,0.129198,-0.029185,0.043511,0.301669,0.541090,10.117896,-0.014899,0.008514,-0.002128,-8.613281,16.049414,45.369141
35.946839,-0.398332,0.127539,-0.002307,0.052890,0.129287,0.545878,9.974244,-0.018092,0.017028,-0.004257,-8.613281,16.049414,45.369141
36.048922,-0.459267,0.128685,-0.023096,0.073888,0.172383,0.694318,9.758766,0.002128,0.058532,-0.008514,-7.382812,11.640234,43.839844
36.150729,-0.503970,0.127032,-0.001658,0.079170,0.210690,0.641646,9.883264,-0.017028,0.002128,-0.001064,-8.261719,17.460352,44.349609
36.252563,-0.331223,0.127719,-0.012752,0.058796,0.215478,0.565032,9.888053,-0.019156,0.003193,0.000000,-7.734375,15.167578,43.839844
36.353916,-0.164711,0.127305,-0.015458,0.058540,0.229843,0.560243,10.026917,-0.015963,0.018092,0.001064,-7.734375,15.167578,43.839844
36.455475,-0.696753,0.127778,-0.022911,0.065818,0.339977,0.684742,9.974244,-0.008514,0.024477,-0.002128,-7.382812,14.462109,44.179688
36.557797,-0.058873,0.127627,-0.022592,0.061727,0.191536,0.622492,10.079589,-0.014899,0.012771,-0.003193,-7.382812,14.462109,44.179688
36.659794,-0.321288,0.128307,-0.034049,0.062914,0.258574,0.622492,9.945514,-0.017028,0.015963,-0.001064,-8.613281,14.991211,45.708984
36.761372,-0.339480,0.127621,-0.027182,0.046594,0.239420,0.545878,10.012551,-0.017028,0.011706,-0.001064,-8.613281,14.991211,45.708984
36.863174,-0.429002,0.128019,-0.035069,0.072527,0.296881,0.617704,9.935937,-0.015963,0.012771,-0.003193,-7.207031,16.049414,44.689453
36.964482,-0.368868,0.125114,0.006700,0.058301,0.143652,0.632069,9.945514,-0.013835,0.005321,-0.001064,-8.789062,15.873047,44.519531
37.067166,-0.623588,0.125399,-0.001025,0.043474,0.167594,0.579397,9.921572,-0.017028,0.013835,-0.005321,-7.382812,14.462109,46.218750
37.169514,-0.186305,0.124826,-0.002382,0.078152,0.263362,0.646434,9.883264,-0.017028,0.011706,-0.002128,-8.613281,14.991211,44.349609
37.270440,-0.671676,0.126646,-0.030507,0.078343,0.383072,0.708684,9.897630,-0.018092,0.013835,-0.001064,-8.964844,15.696680,44.349609
37.371978,-0.506485,0.124786,-0.005411,0.068359,0.134075,0.675165,9.945514,-0.008514,0.029798,-0.008514,-8.085938,15.167578,44.179688
37.473600,-0.010827,0.124165,-0.000739,0.055695,0.129287,0.565032,9.955091,-0.020220,0.018092,0.000000,-8.085938,15.167578,44.179688
37.575087,-0.424536,0.123164,0.009202,0.054637,0.057461,0.598550,9.955091,-0.007450,0.044697,-0.005321,-8.085938,15.167578,44.179688
37.676475,-0.073270,0.124231,-0.012259,0.057278,0.167594,0.565032,9.873688,-0.024477,-0.004257,0.001064,-6.503906,14.638477,44.009766
37.778299,-0.156664,0.124105,-0.014815,0.056124,0.220267,0.536301,9.926360,-0.018092,0.011706,-0.004257,-8.085938,15.520312,45.199219
37.879703,-0.451213,0.123995,-0.013566,0.065394,0.153229,0.608127,9.964667,-0.013835,0.018092,-0.002128,-8.085938,15.520312,45.199219
37.983478,-0.408660,0.123321,-0.007993,0.071804,0.210690,0.679953,9.868899,-0.015963,0.008514,0.000000,-8.085938,14.109375,45.199219
38.085281,-0.385879,0.122423,0.000262,0.072493,0.201113,0.612916,10.046070,-0.015963,0.010642,-0.004257,-8.789062,14.109375,43.839844
38.187657,-0.331784,0.122688,-0.004587,0.065544,0.167594,0.622492,9.926360,-0.014899,0.015963,-0.002128,-9.843750,14.814844,43.160156
38.289801,-0.386602,0.124241,-0.028060,0.066251,0.244209,0.588974,9.907206,-0.017028,0.010642,0.000000,-8.613281,14.991211,44.349609
38.391318,-0.464689,0.124202,-0.028531,0.074952,0.268151,0.627281,9.911995,-0.015963,0.011706,0.000000,-8.261719,14.638477,45.369141
38.493463,-0.286303,0.123431,-0.018486,0.051104,0.229843,0.545878,9.988609,-0.018092,0.011706,0.000000,-8.261719,14.638477,45.369141
38.595519,-0.299883,0.123263,-0.018227,0.057581,0.258574,0.541090,9.959879,-0.017028,0.010642,-0.002128,-7.031250,14.814844,45.199219
38.697731,-0.407145,0.122915,-0.012883,0.065878,0.210690,0.646434,10.065224,-0.017028,0.012771,-0.002128,-8.261719,16.402148,45.369141
38.799558,-0.597922,0.123359,-0.022787,0.055409,0.244209,0.603339,9.797073,-0.015963,0.010642,-0.003193,-8.613281,16.754883,45.369141
38.901138,-0.478786,0.122738,-0.016656,0.055523,0.225055,0.632069,9.983821,-0.017028,0.012771,-0.002128,-8.613281,16.754883,45.369141
39.002412,-0.465246,0.122397,-0.019967,0.057396,0.248997,0.569820,9.931148,-0.018092,0.012771,-0.002128,-8.613281,14.285742,45.029297
39.104573,-0.347626,0.120947,-0.002193,0.064542,0.225055,0.593762,9.964667,-0.015963,0.010642,0.000000,-6.328125,15.167578,46.898438
