Time, Altitude, Yaw, Pitch, Roll, Ax, Ay, Az, Pitch_rate, Roll_rate,Yaw_rate, Magx, Magy, Magz0.765665,-0.278769,-0.180190,0.020471,0.033164,0.430956,-0.153229,10.160992,0.021284,-0.004257,-0.100037,19.972266,84.161719,16.537500
0.865991,-0.282992,-0.370693,0.028376,0.069715,0.067038,-0.043096,10.122685,0.015963,0.002128,0.011706,17.694727,85.733203,18.393750
0.965999,-0.454151,-0.553276,0.026980,0.099369,0.177171,-0.225055,10.170569,0.015963,0.003193,0.013835,17.694727,85.733203,18.393750
1.066981,-0.932503,-0.727944,0.017105,0.115193,0.148441,-0.158017,10.141838,0.013835,0.002128,0.014899,18.395508,86.082422,18.056250
1.168153,-0.498212,-0.894657,0.004810,0.115885,0.148441,-0.043096,10.117896,0.013835,0.003193,0.011706,18.745898,85.733203,18.731250
1.269815,-0.657823,-1.053295,-0.005065,0.098174,0.033519,-0.100556,10.146627,0.008514,0.002128,0.013835,18.045117,85.034766,18.056250
1.371080,-0.432574,-1.203690,-0.006813,0.062538,0.153229,-0.076614,10.026917,0.013835,0.005321,0.013835,17.694727,83.637891,19.068750
1.472776,-0.796151,-1.341463,0.009368,0.002649,0.114922,-0.196325,10.213664,0.015963,0.005321,0.014899,18.220313,85.907812,18.900000
1.574628,-0.843460,-1.365660,0.012456,-0.008275,0.086191,-0.148441,10.170569,0.010642,0.003193,0.015963,18.220313,86.606250,19.575000
1.676544,-0.469476,-1.371483,-0.001383,-0.014678,0.148441,-0.138864,10.122685,0.012771,0.005321,0.015963,18.220313,86.606250,19.575000
1.779048,-0.619523,-1.373004,0.013919,-0.024159,0.143652,-0.138864,10.117896,0.012771,0.006385,0.015963,16.993945,85.383984,18.056250
1.880296,-0.504586,-1.374869,0.010969,-0.017927,0.153229,-0.148441,10.175357,0.015963,0.007450,0.011706,16.993945,85.383984,18.056250
1.981927,-0.733207,-1.363439,-0.005445,-0.030143,0.253785,-0.047884,10.165780,0.014899,0.008514,0.014899,17.869922,83.463281,18.225000
2.082865,-1.081473,-1.355456,-0.020179,-0.020493,0.229843,0.081403,10.089166,0.015963,0.006385,0.018092,19.096289,85.383984,18.393750
2.184224,-0.409758,-1.377668,0.006569,-0.007049,0.186748,-0.119710,10.170569,0.015963,0.006385,0.010642,17.694727,86.082422,18.731250
2.285952,-0.844126,-1.352534,0.016522,-0.003994,0.038307,-0.119710,10.165780,0.013835,0.002128,0.014899,18.921094,84.510937,19.237500
2.387800,-1.080155,-1.361839,-0.002261,-0.025128,0.258574,-0.023942,10.232818,0.014899,0.005321,0.015963,18.921094,87.304687,20.587500
2.489149,-0.709317,-1.362822,0.010006,-0.013122,0.110133,-0.105345,10.160992,0.021284,0.010642,0.017028,18.220313,85.209375,19.575000
2.590816,-0.610153,-1.368079,-0.005913,-0.017560,0.205901,-0.033519,10.204087,0.012771,0.006385,0.014899,18.220313,85.209375,19.575000
2.692538,-0.747350,-1.359653,-0.002425,-0.011799,0.114922,0.000000,10.295067,0.013835,0.004257,0.014899,18.395508,86.431641,18.731250
2.793875,-0.518953,-1.369406,-0.002692,-0.005573,0.110133,-0.057461,10.247183,0.013835,0.004257,0.013835,18.220313,85.209375,19.237500
2.895392,-0.231624,-1.367994,-0.006025,-0.010417,0.148441,-0.043096,10.070012,0.018092,0.005321,0.012771,18.395508,85.034766,19.068750
2.996840,-0.620948,-1.364381,0.000897,-0.004032,0.086191,-0.090980,10.170569,0.021284,0.005321,0.012771,18.045117,83.987109,18.731250
3.098544,-0.460109,-1.364416,-0.003174,0.005929,-0.311246,0.090980,10.486603,0.313946,-0.032991,0.058532,18.045117,85.034766,18.393750
3.200000,-0.267440,-1.382623,-0.022388,-0.014437,0.311246,0.497994,10.864887,0.025541,-0.025541,0.023413,15.592383,86.082422,18.393750
3.301077,-0.404281,-1.383112,-0.006718,-0.009216,0.148441,0.023942,10.175357,0.015963,0.007450,0.011706,16.818750,85.907812,17.887500
3.402530,-0.719729,-1.379689,0.003364,-0.008060,0.086191,-0.004788,10.256760,0.037248,-0.043633,0.009578,16.818750,85.907812,17.887500
3.503969,-0.955076,-1.378267,0.002755,-0.018160,0.177171,-0.067038,10.242395,0.015963,-0.014899,0.013835,16.818750,85.907812,17.887500
3.605172,-0.849623,-1.376420,-0.011968,-0.002822,0.119710,0.258574,10.409989,0.284148,-0.034055,0.100037,16.818750,85.907812,17.887500
3.706677,-0.553219,-1.358561,-0.019628,0.001080,0.622492,-0.550666,10.467450,0.012771,-0.005321,-0.071303,17.519531,83.812500,17.212500
3.807922,-0.555877,-1.373112,-0.017211,-0.003138,0.028730,0.100556,10.433931,0.012771,0.021284,0.009578,16.993945,86.431641,18.393750
3.909960,-0.767198,-1.374873,-0.006120,-0.011784,0.153229,0.047884,10.122685,0.000000,0.010642,0.013835,16.993945,86.082422,19.743750
4.011695,-0.838026,-1.355370,0.006341,-0.003987,0.134075,-0.067038,10.146627,0.025541,0.021284,0.009578,18.570703,85.558594,20.587500
4.112644,-0.435199,-1.354997,0.011549,-0.000598,-0.019154,-0.100556,10.141838,0.006385,0.014899,0.011706,18.570703,84.860156,18.900000
4.214235,-0.877160,-1.338233,-0.002112,-0.010033,0.105345,0.000000,10.505757,0.000000,0.020220,0.017028,19.621875,83.463281,20.925000
4.315645,-0.827592,-1.366739,-0.014896,-0.008985,0.153229,0.162806,10.079589,0.011706,0.002128,0.011706,17.869922,86.606250,19.575000
4.416436,-1.023660,-1.371082,-0.008157,0.006508,0.047884,0.014365,10.103531,0.008514,0.013835,0.010642,17.694727,83.987109,20.081250
4.517996,-1.064843,-1.367970,-0.019447,-0.053001,0.617704,0.062249,10.208876,0.013835,-0.005321,0.307561,17.694727,83.987109,20.081250
4.619683,-0.841929,-1.371148,0.020534,-0.006303,-1.163582,-0.296881,10.778696,0.140478,-0.028734,0.171340,16.993945,86.082422,20.081250
4.721069,-0.586097,-1.380402,0.000677,0.008647,-0.033519,0.057461,10.400412,0.015963,-0.001064,-0.024477,15.942773,85.733203,20.418750
4.822730,-1.075335,-1.379536,-0.003489,0.001518,0.009577,0.062249,10.122685,0.000000,-0.006385,0.010642,17.694727,85.733203,18.731250
4.923940,-0.903650,-1.367649,0.006690,0.006182,-0.047884,-0.014365,10.223241,0.007450,-0.006385,0.012771,17.694727,85.733203,18.731250
5.025082,-0.944724,-1.342289,-0.004610,0.006039,0.201113,-0.253785,10.438719,0.008514,-0.014899,0.010642,19.271484,84.161719,19.912500
5.126379,-0.841264,-1.363971,-0.006810,-0.016110,0.153229,0.028730,10.213664,0.020220,0.013835,0.014899,17.869922,85.209375,19.237500
5.227859,-1.086185,-1.365519,-0.008673,-0.010518,0.071826,0.143652,10.002975,0.020220,-0.008514,0.014899,17.344336,84.336328,19.406250
5.328888,-1.126013,-1.374683,-0.010238,0.000456,0.090980,0.019154,10.165780,0.010642,0.001064,0.012771,17.344336,84.336328,19.406250
5.429907,-0.780650,-1.374961,-0.004971,-0.009419,0.114922,0.076614,10.266337,0.008514,0.003193,0.013835,16.993945,84.685547,19.743750
5.531289,-1.011455,-1.367770,0.007567,-0.005744,0.076614,-0.014365,10.247183,0.018092,0.002128,0.012771,17.694727,83.637891,19.406250
5.632691,-0.893713,-1.350261,0.002462,0.000112,0.047884,0.004788,10.108319,0.017028,0.007450,0.014899,19.096289,83.637891,20.081250
5.734349,-0.631544,-1.359630,-0.013988,-0.000885,0.028730,0.105345,10.256760,0.017028,0.007450,0.013835,18.045117,84.336328,20.418750
5.835856,-0.814194,-1.369460,0.004709,-0.013073,0.038307,-0.004788,10.127473,0.011706,0.001064,0.006385,17.169141,84.161719,19.912500
5.937178,-0.795346,-1.358538,0.001200,0.000189,-0.023942,-0.019154,10.132261,0.004257,0.000000,0.013835,18.745898,85.733203,20.081250
6.038340,-0.636003,-1.369393,0.001864,0.015974,-0.019154,-0.033519,10.180145,0.011706,0.006385,0.013835,18.045117,86.082422,18.393750
6.139547,-1.312798,-1.375284,0.001356,-0.001562,0.043096,-0.023942,10.113108,0.014899,0.009578,0.009578,16.993945,85.383984,19.743750
6.241002,-0.590861,-1.370656,0.006497,-0.002940,-0.038307,0.004788,10.141838,0.018092,0.007450,0.010642,16.993945,85.383984,19.743750
6.342212,-1.191081,-1.375810,0.004189,-0.006976,0.076614,-0.067038,10.108319,0.010642,0.001064,0.012771,16.993945,85.383984,19.743750
6.443776,-0.578517,-1.357265,-0.005991,-0.007649,0.090980,-0.004788,10.189722,0.012771,-0.002128,0.012771,18.395508,83.637891,18.056250
6.544984,-1.153078,-1.395079,0.004453,0.001774,0.047884,-0.086191,10.165780,0.018092,-0.004257,0.011706,15.767578,85.907812,19.575000
6.646437,-0.696315,-1.369809,0.003222,-0.006769,0.124498,-0.095768,10.175357,0.003193,-0.006385,0.021284,18.045117,85.733203,19.406250
6.747784,-0.600493,-1.373433,-0.002805,0.000852,0.071826,-0.019154,10.429142,-0.050019,-0.014899,0.011706,17.519531,84.860156,18.225000
6.849282,-0.417842,-1.373527,0.007977,-0.010573,0.067038,-0.100556,10.199299,-0.034055,-0.012771,0.012771,16.818750,84.161719,17.887500
6.950766,-0.541259,-1.366694,0.009345,0.003095,0.057461,-0.153229,10.295067,-0.074496,-0.027670,0.029798,17.694727,84.685547,18.393750
7.052677,-1.112229,-1.355244,0.056646,-0.009172,0.086191,-0.464475,10.060435,-0.238386,-0.019156,0.042569,19.271484,86.606250,18.900000
7.153965,-0.781699,-1.356962,0.043274,-0.033980,0.229843,-0.531513,10.122685,-0.057468,0.001064,0.011706,19.271484,86.606250,18.900000
7.255072,-0.941564,-1.354383,0.084687,-0.054431,0.325611,-0.895431,9.979033,-0.195817,-0.015963,0.020220,19.271484,85.558594,18.900000
7.356425,-0.592550,-1.326582,0.087172,-0.033151,0.110133,-0.933739,10.199299,-0.071303,-0.002128,0.011706,21.549023,84.685547,18.056250
7.457135,-0.674831,-1.330305,0.107176,-0.041472,0.191536,-1.139640,10.041282,-0.039376,-0.030863,0.010642,21.549023,85.383984,17.043750
7.558401,-0.655780,-1.335796,0.118417,-0.047744,0.229843,-1.221043,9.816227,-0.085138,-0.147927,0.000000,20.848242,84.685547,18.393750
7.659566,-0.732601,-1.312410,0.113130,-0.086298,0.526724,-1.302446,9.988609,-0.034055,-0.078753,-0.023413,22.600195,84.685547,19.743750
7.760691,-1.304616,-1.332979,0.115840,-0.087703,0.593762,-1.335965,9.907206,-0.029798,-0.023413,0.010642,21.549023,86.082422,20.081250
7.862160,-0.639094,-1.336724,0.111522,-0.083387,0.584185,-1.326388,10.098743,0.013835,-0.001064,0.012771,21.549023,86.082422,20.081250
7.963847,-1.076658,-1.328216,0.145572,-0.088431,0.723049,-1.522712,9.888053,0.024477,0.001064,0.011706,21.724219,85.907812,20.587500
8.065296,-0.875186,-1.338925,0.116763,-0.100858,0.785298,-1.431733,10.108319,-0.008514,-0.036184,0.027670,21.724219,85.907812,20.587500
8.166665,-0.878856,-1.313734,0.142175,-0.109132,0.660800,-1.628057,10.041282,-0.210716,0.001064,-0.003193,22.425000,83.812500,17.550000
8.267893,-1.067076,-1.310180,0.155263,-0.111597,0.703895,-1.719037,10.117896,-0.131964,0.022349,0.031927,23.125781,83.812500,18.900000
8.369355,-0.949540,-1.303944,0.176903,-0.109622,0.646434,-1.987187,10.108319,-0.181982,-0.009578,-0.002128,23.476172,83.812500,19.237500
8.470126,-1.279806,-1.282541,0.194419,-0.126747,0.574608,-2.121263,9.538499,-0.122386,-0.005321,0.011706,25.578516,84.860156,18.900000
8.571602,-0.844383,-1.276716,0.175864,-0.148568,0.876278,-2.178724,9.888053,-0.096844,0.024477,-0.005321,25.928906,82.764844,20.587500
8.672990,-0.991014,-1.257276,0.206020,-0.132945,0.665588,-2.408567,9.911995,-0.032991,-0.007450,0.017028,27.330469,83.812500,19.575000
8.774405,-0.826590,-1.270056,0.199885,-0.154034,0.785298,-2.456451,10.438719,-0.134092,0.039376,0.018092,26.980078,83.812500,20.925000
8.875573,-0.632414,-1.255845,0.219318,-0.157111,0.737414,-2.557007,9.878476,-0.018092,-0.021284,0.019156,27.155273,85.034766,19.406250
8.977617,-0.828981,-1.260723,0.214600,-0.166512,0.890643,-2.585738,9.911995,0.012771,0.002128,0.009578,27.155273,85.034766,19.406250
9.078918,-0.939044,-1.260669,0.237655,-0.159210,0.766145,-2.710236,9.864111,-0.057468,0.009578,0.019156,26.629687,83.812500,20.587500
9.180680,-0.704564,-1.248936,0.249211,-0.147053,0.713472,-2.810793,9.801862,-0.085138,-0.024477,0.002128,26.804883,82.939453,20.756250
9.282120,-0.796519,-1.256845,0.240840,-0.146560,0.723049,-2.815581,9.782708,-0.096844,-0.003193,-0.012771,26.804883,82.939453,20.756250
9.383710,-1.079587,-1.231128,0.255672,-0.172236,0.885855,-2.987964,9.854534,-0.110679,0.054275,0.003193,28.907227,83.987109,19.068750
9.484902,-0.708990,-1.217755,0.265208,-0.169810,0.713472,-3.074155,9.753978,-0.086202,0.004257,0.018092,29.432813,82.066406,19.237500
9.586309,-0.843307,-1.211821,0.290303,-0.185955,0.794875,-3.241749,9.552865,-0.036184,0.025541,0.008514,30.308789,84.685547,20.081250
9.688557,-0.301163,-1.212854,0.287965,-0.209283,0.905008,-3.442862,9.576807,-0.075560,0.012771,0.010642,30.483984,84.510937,19.912500
9.789805,-1.101430,-1.213113,0.311598,-0.198269,0.861913,-3.476381,9.275137,-0.034055,0.001064,0.037248,29.432813,84.510937,20.250000
9.891315,-0.629703,-1.189220,0.299550,-0.196206,0.737414,-3.495534,9.519346,-0.067046,-0.002128,0.014899,32.060742,83.637891,20.756250
9.992490,-0.859315,-1.185234,0.311493,-0.196020,0.766145,-3.572149,9.552865,-0.070239,0.040441,0.015963,32.060742,83.637891,20.756250
10.093795,-1.050303,-1.183073,0.321169,-0.225022,0.914585,-3.701436,9.356540,-0.014899,0.004257,0.019156,32.060742,83.637891,20.756250
10.194882,-1.025126,-1.206145,0.330887,-0.215166,0.895431,-3.763685,9.514557,-0.029798,0.015963,0.017028,30.133594,83.463281,20.587500
10.295843,-0.727195,-1.187374,0.336019,-0.228879,0.895431,-3.897760,9.562441,-0.080881,0.013835,0.024477,31.009570,82.939453,19.406250
10.397793,-0.950783,-1.179504,0.347752,-0.225200,0.761356,-3.912126,9.064447,-0.125578,-0.014899,0.025541,31.710352,83.987109,20.756250
10.498731,-0.808140,-1.168975,0.364044,-0.237792,0.708684,-4.108450,8.901642,-0.103230,0.003193,-0.010642,32.235937,84.510937,18.900000
10.600067,-1.206182,-1.169269,0.367437,-0.239666,0.770933,-4.118027,8.968679,-0.047890,0.003193,0.001064,32.235937,84.510937,18.900000
10.701568,-0.837735,-1.150996,0.373865,-0.252641,0.804452,-4.237737,9.083601,-0.133028,-0.013835,0.019156,33.812695,84.685547,21.431250
10.802920,-1.022768,-1.136246,0.387833,-0.259757,0.785298,-4.414908,9.011775,-0.106422,0.025541,0.009578,33.987891,82.764844,18.900000
10.904470,-0.831567,-1.120291,0.372993,-0.260324,0.833182,-4.558560,9.351752,-0.088331,0.045762,0.036184,35.915039,83.987109,18.731250
11.005697,-1.143721,-1.124075,0.398581,-0.259586,0.766145,-4.745308,9.279926,0.015963,-0.023413,0.050019,34.163086,82.939453,18.393750
11.106850,-0.593385,-1.105576,0.417912,-0.273388,0.598550,-4.788403,8.872911,-0.068110,0.040441,0.032991,35.389453,83.463281,17.887500
11.207926,-0.942878,-1.096418,0.421635,-0.278522,0.660800,-4.663905,8.848969,-0.059597,0.020220,0.032991,36.440625,84.860156,17.887500
11.309379,-0.823867,-1.095097,0.424100,-0.271187,0.593762,-4.774038,8.801085,-0.029798,-0.006385,0.023413,36.440625,84.860156,17.887500
11.411036,-1.042029,-1.100681,0.428575,-0.274117,0.608127,-4.951209,8.796297,-0.075560,0.010642,0.001064,35.915039,83.987109,18.056250
11.512331,-1.333803,-1.090518,0.463950,-0.296376,0.579397,-4.936844,8.360552,0.011706,-0.018092,0.019156,36.440625,85.558594,17.550000
11.613258,-1.228936,-1.091787,0.450114,-0.301858,0.694318,-5.137957,8.657433,-0.094716,-0.025541,0.007450,35.739844,84.510937,18.562500
11.714590,-0.933571,-1.072019,0.473966,-0.310392,0.694318,-5.190629,8.461109,-0.079817,0.024477,0.028734,36.440625,84.860156,18.562500
11.816509,-0.606193,-1.070640,0.463330,-0.316163,0.718260,-5.257667,8.614338,-0.144734,0.015963,0.003193,36.791016,84.510937,17.212500
11.918152,-1.117199,-1.053274,0.469241,-0.326161,0.689530,-5.406107,8.595184,-0.090459,0.013835,0.019156,37.842188,83.812500,16.875000
12.019102,-1.050018,-1.045546,0.468362,-0.336290,0.694318,-5.415684,8.403648,-0.024477,-0.022349,0.018092,38.192578,84.161719,15.187500
12.120379,-0.862938,-1.027165,0.509346,-0.350629,0.603339,-5.516241,8.006210,-0.022349,-0.009578,0.022349,38.017383,85.383984,17.381250
12.222001,-0.823137,-1.041135,0.493247,-0.336643,0.612916,-5.616797,8.437167,-0.004257,0.020220,0.014899,38.017383,85.383984,17.381250
12.323227,-0.874978,-1.053232,0.497244,-0.337462,0.593762,-5.554548,8.322245,-0.085138,0.067046,0.025541,38.017383,86.082422,17.718750
12.424339,-0.891964,-1.026037,0.566234,-0.349636,0.349553,-5.612009,7.110779,-0.322460,0.119193,-0.029798,38.017383,86.082422,17.718750
12.525724,-0.891992,-1.008008,0.544727,-0.355063,0.411803,-5.932832,8.006210,-0.037248,-0.005321,0.029798,38.192578,86.606250,14.850000
12.626946,-1.187830,-0.992326,0.517859,-0.378450,0.593762,-5.861006,7.972692,0.003193,-0.010642,0.031927,40.294922,85.558594,14.512500
12.728312,-0.723892,-1.000243,0.534316,-0.354229,0.373495,-5.865794,7.972692,0.017028,-0.012771,0.024477,38.542969,84.860156,14.512500
12.829453,-1.324877,-1.009030,0.536448,-0.353608,0.402226,-5.875371,8.001422,0.020220,0.003193,0.021284,37.842188,84.860156,14.850000
12.931053,-1.067356,-1.003716,0.520403,-0.381427,0.584185,-5.856217,7.977480,-0.008514,0.024477,0.035119,39.418945,86.082422,14.681250
13.032872,-0.903208,-0.982699,0.531157,-0.375966,0.383072,-5.932832,7.920019,-0.019156,0.067046,0.027670,40.294922,85.209375,15.187500
13.133855,-0.917231,-0.998407,0.543174,-0.341089,0.181959,-6.028600,8.058883,-0.084074,0.077688,0.034055,39.594141,83.463281,15.525000
13.235392,-0.961263,-0.994889,0.540405,-0.349174,0.268151,-5.966351,8.101978,-0.013835,0.038312,0.043633,40.119727,85.383984,16.031250
13.337211,-1.544507,-0.981262,0.560763,-0.369610,0.263362,-6.148310,8.006210,-0.157505,0.126643,0.062789,40.119727,85.383984,16.031250
13.438928,-1.120009,-0.986420,0.593062,-0.332431,-0.234632,-6.253655,8.025364,-0.159634,0.152184,0.189432,39.068555,86.780859,12.656250
13.539973,-1.025100,-0.988281,0.644185,-0.333355,-0.349553,-6.416460,7.479486,-0.167083,0.178790,0.110679,37.666992,88.177734,9.956250
13.641954,-0.920694,-0.953073,0.645064,-0.365543,-0.239420,-6.718130,7.560889,-0.217102,0.183047,0.036184,39.418945,89.225391,9.281250
13.743408,-1.104803,-0.957128,0.700562,-0.348579,-0.694318,-6.957550,6.871359,-0.214973,0.136221,-0.051083,39.944531,90.098437,7.762500
13.844825,-1.090631,-0.927573,0.660892,-0.390462,-0.248997,-7.019799,7.398083,-0.154313,-0.057468,-0.137285,42.046875,89.050781,6.412500
13.946351,-0.955103,-0.881811,0.681879,-0.421540,-0.488417,-7.278373,6.904878,-0.367157,0.212845,0.061725,42.046875,89.050781,6.412500
14.047713,-1.227134,-0.792281,0.741553,-0.507578,-0.713472,-7.584831,6.507440,-0.333102,0.147927,0.106422,42.397266,89.400000,6.075000
14.149161,-0.982512,-0.769410,0.746314,-0.515121,-0.833182,-7.723695,6.042965,-0.578938,0.203267,0.124514,42.747656,88.352344,3.712500
14.250520,-0.967261,-0.698373,0.835196,-0.547394,-1.474828,-7.613561,5.473145,-0.327781,0.076624,0.211781,43.623633,91.669922,3.206250
14.351668,-1.216576,-0.660955,0.871869,-0.578528,-1.810016,-8.317457,5.339070,-0.292662,0.098973,0.109615,42.397266,89.050781,1.012500
14.453444,-0.968370,-0.574917,0.877390,-0.674195,-1.498770,-8.303091,4.989516,-0.330974,0.108551,0.034055,42.222070,90.273047,-0.506250
14.554985,-1.152321,-0.513662,0.858553,-0.761265,-1.240196,-8.427590,4.515464,-0.377800,-0.011706,-0.058532,42.222070,90.273047,-0.506250
14.655902,-1.104850,-0.403432,0.855332,-0.855040,-1.388637,-8.757990,4.381389,-0.335231,-0.087266,-0.101101,44.850000,89.400000,-2.025000
14.757455,-0.848550,-0.330656,0.788836,-0.938654,-1.082179,-8.825027,4.161122,-0.390570,0.020220,-0.096844,44.149219,88.352344,-5.062500
14.859126,-1.139406,-0.225250,0.735479,-1.057431,-1.063026,-9.217676,3.538630,-0.361836,0.018092,0.037248,45.375586,89.574609,-5.231250
14.961136,-0.741323,-0.162004,0.720238,-1.119353,-1.187524,-9.126697,2.585738,-0.403341,-0.080881,-0.135156,44.499609,90.098437,-7.087500
15.062322,-0.579007,-0.046161,0.688891,-1.213694,-1.441309,-9.514557,2.193089,-0.332038,0.291597,-0.213909,46.777148,88.876172,-9.281250
15.163883,-1.265929,-0.090989,0.598708,-1.225535,-0.684742,-9.346963,2.351106,-0.059597,-0.023413,0.013835,46.777148,88.177734,-11.981250
15.265633,-0.870809,0.032973,0.543763,-1.274271,-1.623269,-9.524134,1.853112,-0.060661,-0.018092,0.167083,46.777148,88.177734,-11.981250
15.366738,-0.941463,0.080882,0.470676,-1.332654,-1.613692,-9.279926,1.570596,0.008514,0.100037,-0.005321,45.375586,89.574609,-10.968750
15.467850,-0.729501,0.048012,0.369736,-1.338063,-1.106121,-9.409213,1.757344,0.010642,0.062789,-0.067046,46.251562,89.400000,-11.812500
15.569591,-1.046662,0.060258,0.326388,-1.308748,-1.326388,-9.677363,2.647987,-0.019156,0.084074,-0.014899,46.251562,89.400000,-11.812500
15.670904,-0.991576,0.079256,0.267175,-1.343285,-1.364695,-9.409213,1.896208,-0.028734,0.046826,0.109615,46.076367,89.225391,-13.668750
15.772381,-0.857104,0.096396,0.236092,-1.359665,-1.288080,-9.533711,1.757344,-0.089395,-0.014899,0.065982,47.828320,90.273047,-13.668750
15.874249,-1.062378,0.123842,0.202466,-1.383119,-1.704672,-9.270349,2.274492,0.047890,-0.118129,0.204331,47.653125,89.050781,-13.500000
15.975123,-1.034989,0.144842,0.178826,-1.382014,-1.651999,-9.447520,1.747767,-0.023413,0.010642,-0.052147,46.952344,91.146094,-13.162500
16.076233,-0.785841,0.142848,0.144641,-1.383464,-1.714248,-9.777920,2.197877,0.019156,0.083009,-0.001064,47.477930,89.574609,-12.993750
16.177501,-0.754871,0.149696,0.149423,-1.409208,-1.613692,-9.337386,1.072602,-0.029798,0.098973,-0.122386,46.601953,91.146094,-13.837500
16.279413,-1.036089,0.114816,0.119109,-1.393465,-1.297657,-9.356540,1.513135,0.078753,-0.032991,-0.055340,48.353906,89.749219,-15.525000
16.380228,-0.782573,0.108122,0.114692,-1.374127,-1.177947,-9.299079,1.719037,0.019156,-0.017028,-0.052147,48.353906,89.749219,-15.525000
16.482076,-1.121219,0.114788,0.111479,-1.387540,-1.292869,-9.495404,1.685518,0.065982,-0.001064,-0.022349,47.127539,89.923828,-12.993750
16.583680,-1.210385,0.108139,0.123641,-1.349123,-1.197101,-9.567230,2.422932,0.068110,-0.041505,-0.152184,49.054688,90.098437,-15.187500
16.684802,-1.118102,0.085699,0.145727,-1.373196,-1.034295,-9.279926,1.790863,0.001064,-0.026606,0.041505,49.405078,88.352344,-13.500000
16.786612,-0.776036,0.092726,0.153645,-1.363720,-1.240196,-9.557653,2.164358,0.022349,-0.019156,-0.074496,47.127539,89.225391,-13.668750
16.888339,-1.167440,0.068945,0.177378,-1.343111,-1.187524,-9.318233,2.059013,-0.112808,0.003193,-0.065982,48.704297,88.352344,-13.500000
16.989522,-1.133202,0.043524,0.174074,-1.339938,-0.814029,-9.595960,2.379836,0.005321,-0.030863,0.015963,47.127539,89.923828,-13.331250
17.090903,-1.168527,0.083327,0.186470,-1.364975,-1.149217,-9.457097,1.776498,0.026606,-0.002128,0.008514,47.127539,89.923828,-13.331250
17.192415,-1.232956,0.057199,0.179213,-1.352522,-0.943315,-9.385271,1.968034,0.027670,0.006385,0.011706,48.704297,88.701562,-13.162500
17.293935,-1.159337,0.088170,0.138921,-1.364944,-1.010353,-9.437943,1.862689,0.008514,0.018092,0.025541,48.353906,87.653906,-14.850000
17.395014,-1.064712,0.081936,0.134901,-1.358943,-1.072602,-9.615114,2.197877,0.074496,-0.024477,0.054275,48.353906,87.653906,-14.850000
17.496705,-0.688995,0.046683,0.181641,-1.343343,-0.905008,-9.466673,2.260126,0.102166,-0.019156,0.040441,48.178711,89.574609,-12.318750
17.598444,-1.278856,0.076398,0.216906,-1.339955,-1.283292,-9.528923,2.312799,0.035119,0.039376,0.118129,49.405078,89.050781,-11.137500
17.700075,-1.163530,0.081242,0.235047,-1.341735,-1.302446,-9.327810,2.068590,0.052147,0.010642,0.035119,48.353906,89.400000,-12.487500
17.801321,-1.033104,0.068987,0.241583,-1.313900,-1.388637,-9.548076,2.552219,0.043633,0.024477,0.039376,47.828320,87.130078,-12.656250
17.902229,-1.008657,0.073621,0.255183,-1.324122,-1.350330,-9.567230,2.375048,0.009578,-0.012771,0.000000,47.828320,88.526953,-13.331250
18.003833,-1.176438,0.047382,0.242380,-1.335374,-1.053449,-9.514557,2.413355,-0.007450,0.021284,0.018092,48.178711,90.622266,-11.643750
18.105366,-1.157135,0.063165,0.261840,-1.361058,-0.991199,-8.916007,1.446098,0.009578,-0.055340,-0.080881,47.828320,89.225391,-10.968750
18.206887,-0.872637,0.030551,0.248873,-1.333627,-0.943315,-9.375694,2.255338,0.035119,0.034055,0.029798,47.828320,88.526953,-12.318750
18.308572,-1.408177,0.045109,0.243203,-1.307293,-1.144428,-9.476250,2.523489,0.032991,0.036184,0.014899,48.704297,89.050781,-13.162500
18.409941,-1.138164,0.057110,0.250303,-1.332473,-1.163582,-9.461885,2.279280,-0.006385,0.009578,0.023413,49.229883,88.876172,-11.643750
18.510933,-0.967906,0.072033,0.246236,-1.323526,-1.316811,-9.610325,2.619257,0.059597,0.060661,0.032991,49.229883,88.876172,-11.643750
18.612625,-0.814477,0.052519,0.263243,-1.316605,-1.096544,-9.428366,2.466028,0.030863,0.018092,-0.011706,49.229883,88.876172,-11.643750
18.714063,-0.910804,0.042053,0.259265,-1.306989,-1.086968,-9.524134,2.504335,0.011706,0.011706,0.026606,47.302734,89.050781,-12.825000
18.815227,-1.115758,0.070622,0.238447,-1.335912,-1.149217,-9.428366,2.154781,0.051083,0.014899,0.010642,49.755469,88.352344,-12.825000
18.916359,-0.914825,0.045389,0.261702,-1.332049,-1.015142,-9.327810,1.991976,-0.004257,-0.043633,-0.041505,48.529102,89.225391,-12.656250
19.017811,-1.132699,0.042447,0.260558,-1.306747,-1.048660,-9.476250,2.432509,-0.006385,0.001064,0.043633,48.704297,87.304687,-11.812500
19.118824,-1.142187,0.037850,0.248540,-1.328775,-0.948104,-9.370905,2.485181,0.055340,-0.031927,0.018092,48.353906,88.701562,-11.475000
19.219905,-1.048159,0.035164,0.267956,-1.321796,-1.077391,-9.567230,2.518700,0.058532,-0.032991,0.005321,48.704297,89.050781,-10.800000
19.321517,-1.192752,0.053218,0.289818,-1.317724,-1.106121,-9.275137,2.264915,0.017028,-0.044697,0.010642,49.229883,89.574609,-9.956250
19.422777,-1.040064,0.029823,0.292399,-1.293887,-1.130063,-9.662998,2.925714,0.043633,0.030863,0.018092,48.353906,89.400000,-11.475000
19.523787,-0.909489,0.048941,0.286182,-1.319695,-1.134852,-9.299079,2.221819,0.018092,0.007450,0.017028,48.353906,89.400000,-11.475000
19.625078,-1.095625,0.032883,0.282553,-1.287597,-1.168370,-9.667786,2.935291,0.030863,0.025541,0.030863,48.353906,89.400000,-11.475000
19.726237,-1.102646,0.036363,0.287548,-1.316423,-1.101333,-9.457097,2.269703,-0.011706,-0.025541,0.001064,48.353906,89.400000,-11.475000
19.827636,-1.151505,0.052667,0.252477,-1.316541,-1.154005,-9.433155,2.394202,0.080881,-0.024477,0.036184,47.653125,86.955469,-13.162500
19.928887,-1.085678,0.044504,0.268129,-1.311125,-1.067814,-9.490615,2.997540,0.100037,0.004257,0.040441,47.828320,88.177734,-10.968750
20.030910,-1.005018,0.040219,0.293636,-1.298240,-1.144428,-9.490615,2.695871,0.014899,-0.036184,0.041505,50.281055,90.273047,-11.981250
20.132613,-1.087188,0.045670,0.322363,-1.333558,-1.130063,-9.279926,2.102109,0.013835,0.018092,-0.029798,49.229883,89.574609,-10.293750
20.234865,-1.173076,0.031133,0.324571,-1.317753,-1.039084,-9.284714,2.097321,-0.018092,-0.026606,-0.010642,48.353906,88.701562,-11.475000
20.336842,-1.084521,0.024097,0.312475,-1.318314,-0.909797,-9.361328,2.255338,0.061725,0.032991,0.011706,48.178711,88.177734,-10.968750
20.438386,-0.961862,0.063317,0.295684,-1.311956,-1.168370,-9.543288,2.825158,0.091523,0.024477,0.021284,48.879492,87.479297,-11.643750
20.539317,-0.870959,0.036593,0.277566,-1.329357,-0.976834,-9.155427,1.853112,-0.001064,-0.026606,-0.014899,48.879492,87.479297,-11.643750
20.641394,-1.133195,0.040738,0.268490,-1.335220,-0.938527,-9.174581,2.073379,0.007450,0.061725,0.041505,48.879492,87.479297,-11.643750
20.742750,-1.088229,0.039852,0.270218,-1.320711,-1.101333,-9.380482,2.346318,-0.006385,0.018092,0.017028,48.704297,89.749219,-12.150000
20.844689,-0.790305,0.041352,0.272386,-1.323383,-1.043872,-9.528923,2.394202,-0.006385,-0.002128,0.020220,48.704297,87.653906,-12.150000
20.946171,-0.838214,0.046651,0.255627,-1.306255,-1.110910,-9.351752,2.427720,0.014899,0.010642,0.002128,48.529102,87.828516,-12.993750
21.047769,-1.012729,0.056117,0.248435,-1.321447,-1.197101,-9.447520,2.485181,0.019156,-0.004257,0.027670,48.529102,87.828516,-12.993750
21.148936,-0.824998,0.048921,0.273297,-1.329931,-1.058237,-9.452308,2.255338,0.004257,-0.017028,0.012771,48.178711,88.876172,-10.968750
21.250314,-0.791733,0.042154,0.243064,-1.323695,-0.957681,-9.351752,2.221819,0.041505,0.026606,0.024477,47.477930,87.130078,-13.331250
21.351844,-0.815527,0.037830,0.264131,-1.318550,-1.067814,-9.457097,2.351106,0.008514,0.021284,0.005321,49.229883,88.177734,-11.981250
21.453816,-0.956388,0.050474,0.268489,-1.331306,-1.053449,-9.232042,2.183512,0.040441,-0.018092,-0.015963,47.653125,88.352344,-12.150000
21.555503,-0.986405,0.055440,0.248574,-1.312899,-1.019930,-9.299079,2.312799,0.054275,0.026606,0.032991,47.828320,87.479297,-12.993750
21.656623,-1.038850,0.043943,0.257203,-1.302694,-1.053449,-9.270349,2.466028,0.022349,0.040441,0.006385,48.353906,89.749219,-13.162500
21.758201,-1.109816,0.033347,0.270175,-1.292418,-1.058237,-9.557653,2.662352,-0.022349,-0.020220,-0.004257,48.353906,89.050781,-12.487500
21.859561,-1.168799,0.038897,0.276783,-1.328007,-1.000776,-9.097966,1.776498,-0.044697,-0.001064,-0.001064,48.353906,89.050781,-12.487500
21.961496,-0.713043,0.043878,0.281983,-1.313535,-1.206678,-9.935937,2.657564,-0.206460,0.201138,0.018092,48.879492,88.876172,-11.306250
22.062431,-0.995551,0.076744,0.237078,-1.371640,-1.177947,-9.658209,1.369483,-0.197946,0.191560,-0.155377,47.302734,87.653906,-15.187500
22.163617,-0.844528,0.050122,0.154209,-1.359159,-0.694318,-9.811438,2.197877,-0.151120,0.096844,-0.380992,49.930664,88.177734,-16.368750
22.264989,-0.764860,-0.000396,0.072252,-1.429463,-0.545878,-9.902418,1.647211,-0.436332,0.045762,0.194753,50.281055,84.685547,-18.056250
22.366205,-0.868644,0.073293,-0.045896,-1.452796,-0.708684,-9.682152,0.311246,-0.243707,-0.017028,-0.028734,49.405078,85.907812,-21.937500
22.467873,-0.847934,0.081366,-0.191923,-1.484232,-0.775721,-9.265560,0.363919,-0.109615,0.011706,0.061725,48.704297,84.510937,-22.950000
22.568933,-1.270991,0.115950,-0.315873,-1.504675,-0.962469,-9.758766,0.474052,-0.026606,-0.101101,0.093652,48.704297,85.907812,-21.262500
22.670152,-0.845567,0.086187,-0.411585,-1.571020,-0.833182,-9.658209,-0.368707,0.013835,-0.189432,-0.001064,48.704297,85.907812,-21.262500
22.771425,-1.065799,0.093330,-0.457537,-1.552340,-0.871489,-9.801862,0.100556,-0.014899,0.050019,0.019156,48.879492,85.383984,-21.431250
22.872718,-1.103621,0.078634,-0.460377,-1.590635,-1.134852,-9.500192,0.086191,-0.091523,-0.057468,0.127707,50.105859,86.257031,-19.912500
22.974202,-1.059752,0.071242,-0.469983,-1.602969,-0.895431,-9.725247,-0.282516,-0.035119,0.041505,0.007450,50.105859,86.257031,-19.912500
23.075804,-0.909951,0.082539,-0.510244,-1.560521,-0.770933,-9.916783,0.076614,0.119193,-0.103230,-0.002128,48.704297,86.257031,-22.612500
23.177136,-0.783837,0.080101,-0.484987,-1.603224,-0.833182,-9.485827,-0.565032,-0.001064,-0.179854,0.013835,50.456250,84.161719,-20.250000
23.278235,-0.811403,0.097323,-0.483212,-1.598743,-1.201889,-10.208876,0.287304,0.096844,0.028734,0.087266,49.580273,86.082422,-18.056250
23.379533,-1.171439,0.087295,-0.481493,-1.584373,-0.948104,-9.686940,-0.201113,0.068110,-0.056404,-0.064918,48.003516,86.257031,-18.562500
23.481053,-1.201914,0.094150,-0.440076,-1.569848,-0.938527,-9.615114,0.000000,0.106422,0.012771,0.000000,48.178711,85.383984,-18.393750
23.582053,-1.199409,0.094412,-0.429109,-1.558518,-0.890643,-9.931148,0.344765,0.098973,0.062789,-0.027670,48.178711,87.130078,-18.731250
23.683699,-0.712505,0.114522,-0.406557,-1.521638,-0.905008,-9.993398,0.756568,0.080881,0.112808,-0.006385,48.529102,86.431641,-18.056250
23.784628,-1.047399,0.098294,-0.373339,-1.530147,-0.742203,-10.002975,0.531513,0.063853,0.017028,0.071303,49.229883,86.431641,-18.056250
23.885835,-0.901772,0.098785,-0.366638,-1.548564,-0.852336,-9.859322,0.177171,-0.001064,0.009578,0.019156,49.229883,86.431641,-18.056250
23.987831,-1.492944,0.083234,-0.379628,-1.554705,-0.780510,-9.662998,0.316035,0.064918,-0.009578,0.038312,49.229883,86.431641,-18.056250
24.089609,-1.053164,0.107806,-0.376628,-1.530135,-1.024718,-9.710882,0.627281,0.100037,0.022349,0.085138,49.229883,86.431641,-18.056250
24.190772,-1.099517,0.081146,-0.355629,-1.535634,-0.636858,-9.888053,0.641646,0.056404,0.052147,0.022349,49.054688,87.304687,-17.212500
24.292329,-1.583778,0.101813,-0.342510,-1.535572,-0.766145,-9.662998,0.229843,0.026606,0.028734,0.012771,48.353906,85.558594,-17.550000
24.393501,-1.106150,0.100577,-0.341619,-1.539322,-0.909797,-9.691728,0.569820,0.069175,0.050019,0.027670,49.755469,86.257031,-18.225000
24.495202,-1.232551,0.104226,-0.340151,-1.512409,-0.933739,-9.935937,0.804452,0.009578,0.053211,0.037248,49.580273,86.780859,-18.056250
24.597403,-1.231585,0.091417,-0.343553,-1.543738,-0.794875,-9.658209,0.239420,0.040441,0.017028,0.034055,49.755469,87.653906,-18.900000
24.698544,-1.173066,0.113011,-0.328940,-1.501832,-0.823605,-9.854534,0.828394,0.021284,0.012771,0.011706,49.580273,86.431641,-17.718750
24.799814,-1.394843,0.114404,-0.336104,-1.510200,-0.928950,-9.849746,0.541090,0.055340,-0.025541,0.070239,48.879492,85.034766,-17.718750
24.901006,-1.206802,0.128585,-0.342715,-1.520978,-1.043872,-9.720459,0.531513,0.005321,0.021284,0.057468,47.828320,87.479297,-18.731250
25.001628,-1.269816,0.122455,-0.351603,-1.520314,-0.995988,-9.686940,0.411803,-0.025541,-0.044697,0.039376,47.828320,87.479297,-18.731250
25.102877,-1.219822,0.149295,-0.348810,-1.534322,-1.230620,-9.648633,0.306458,0.039376,-0.054275,0.001064,49.580273,86.431641,-17.718750
25.204210,-0.897944,0.126672,-0.334551,-1.520070,-1.024718,-9.524134,0.416591,0.005321,-0.018092,0.018092,49.054688,87.304687,-17.887500
25.305055,-1.153374,0.096048,-0.332657,-1.545830,-0.828394,-9.409213,0.057461,-0.030863,-0.040441,-0.036184,48.353906,87.653906,-18.225000
25.406726,-0.874767,0.120605,-0.348955,-1.518250,-0.957681,-9.548076,0.483629,0.116000,-0.130900,-0.043633,49.054688,85.558594,-18.562500
25.507849,-1.069877,0.102291,-0.327338,-1.557016,-0.928950,-9.643844,0.177171,0.228808,-0.353322,-0.140478,48.529102,86.431641,-15.018750
25.609335,-1.047148,0.078305,-0.305425,-1.504209,-0.316035,-9.782708,1.877054,0.318203,-0.224551,-0.023413,51.332227,87.130078,-13.331250
25.711005,-0.959774,0.101235,-0.234286,-1.504980,-0.790087,-9.495404,0.976834,0.111744,-0.258606,-0.193689,49.229883,86.082422,-11.981250
25.812258,-0.763710,0.033080,-0.213096,-1.481885,0.153229,-9.337386,2.432509,0.514020,-0.576810,-0.509763,49.229883,86.082422,-11.981250
25.913422,-0.942731,-0.011736,-0.167138,-1.425984,1.039084,-9.696517,3.552995,0.500185,-0.443782,-0.095780,49.229883,86.082422,-11.981250
26.014734,-1.078166,-0.015623,-0.051703,-1.400203,0.881066,-9.787496,2.992752,0.031927,-0.201138,0.229872,52.558594,81.367969,-3.712500
26.115646,-1.233283,0.050964,0.075982,-1.441775,-0.397437,-10.184934,2.466028,-0.383121,0.261799,0.492736,48.353906,85.907812,-3.375000
26.217000,-0.933106,0.105548,0.102566,-1.494980,-2.059013,-10.850522,0.665588,0.225616,-0.193689,0.522534,48.529102,86.082422,-7.256250
26.318730,-0.845425,0.152892,0.138950,-1.420393,-1.623269,-7.934384,0.981623,0.734315,-0.330974,-0.864150,47.127539,88.177734,-6.243750
26.419760,-1.063350,0.026378,0.140522,-1.318058,-0.900220,-9.974244,3.203442,-0.101101,0.062789,0.609800,48.353906,86.257031,-0.675000
26.521113,-0.845255,0.003342,0.250541,-1.354482,0.052672,-10.654197,3.227384,-0.401213,0.413983,-0.682168,49.229883,85.034766,-3.881250
26.622509,-1.034871,-0.059867,0.280307,-1.385904,-2.245761,-9.902418,-0.071826,0.282019,0.350130,0.031927,49.229883,85.034766,-3.881250
26.724401,-0.915758,-0.021071,0.252089,-1.341715,-0.464475,-10.596737,2.638410,-0.069175,-0.420369,-0.252221,50.105859,86.606250,-7.762500
26.825894,-0.789053,-0.093805,0.216391,-1.303959,1.077391,-9.567230,2.796428,0.023413,-0.006385,-0.032991,49.755469,83.463281,-8.437500
26.927438,-0.726749,-0.016957,0.202491,-1.336775,-0.349553,-9.327810,2.341529,0.163891,-0.529984,-0.163891,49.755469,83.463281,-8.437500
27.028615,-0.715376,-0.130522,0.239916,-1.324951,0.469264,-9.457097,2.614468,0.199010,-0.187303,-0.063853,52.033008,82.939453,-0.506250
27.130220,-0.793249,-0.149084,0.292198,-1.312830,0.339977,-9.270349,2.082955,0.019156,-0.050019,0.017028,52.208203,79.272656,-0.337500
27.231728,-0.782902,-0.278133,0.383370,-1.172631,0.981623,-8.815451,3.591302,0.323524,0.039376,-0.171340,51.332227,81.193359,2.193750
27.333181,-0.454493,-0.313193,0.434514,-1.109479,0.842759,-9.016563,4.027047,0.249028,-0.068110,0.158569,51.507422,79.621875,3.037500
27.434452,-0.397260,-0.279307,0.494672,-1.098003,0.344765,-9.054871,3.921702,0.192625,0.216038,0.235194,51.507422,79.621875,3.037500
27.535941,-0.879747,-0.363434,0.565377,-1.003588,0.296881,-8.767566,4.501099,0.384185,-0.008514,0.050019,49.755469,81.018750,5.400000
27.637217,-0.481777,-0.442467,0.540789,-0.934899,0.699107,-8.844181,5.789180,0.388442,0.026606,0.046826,49.930664,79.447266,6.243750
27.739009,-1.016802,-0.441497,0.634598,-0.917261,0.110133,-8.264784,4.486734,0.185175,-0.080881,0.141542,47.828320,82.939453,6.918750
27.840136,-0.944284,-0.513230,0.674847,-0.815605,-0.301669,-8.609549,5.554548,0.213909,-0.038312,0.037248,46.251562,84.161719,7.087500
27.941351,-0.662618,-0.605526,0.674985,-0.762301,0.263362,-8.078036,5.099650,0.162826,0.062789,-0.058532,45.375586,84.685547,8.268750
28.042393,-0.886742,-0.666255,0.642814,-0.688111,0.718260,-7.939173,6.631939,0.337359,0.098973,0.010642,45.550781,83.812500,8.100000
28.144287,-0.784721,-0.620889,0.696664,-0.697364,-1.436521,-6.885724,3.955221,0.460809,0.213909,-0.034055,45.200391,84.510937,8.100000
28.245374,-0.801661,-0.680211,0.695689,-0.637189,-0.770933,-7.829039,5.923255,0.228808,0.226680,0.114936,43.273242,83.637891,9.281250
28.346544,-0.723226,-0.772076,0.650801,-0.551078,-0.110133,-7.125144,6.598420,0.627892,-0.009578,-0.130900,43.273242,83.637891,9.281250
28.447975,-1.026291,-0.809559,0.641371,-0.521216,-0.090980,-7.024588,6.718130,0.452295,0.306497,0.225616,40.820508,85.034766,9.281250
28.549250,-0.957263,-0.876854,0.633921,-0.424146,-0.531513,-7.034164,7.589619,0.361836,0.073431,0.173469,40.820508,85.034766,9.281250
28.650590,-0.836102,-0.956333,0.606488,-0.318217,-0.679953,-6.411672,8.475474,0.375671,0.124514,0.078753,40.645313,86.606250,11.475000
28.752152,-0.920783,-1.033447,0.554701,-0.263895,-0.349553,-6.042965,8.681375,0.467194,0.108551,0.052147,38.542969,85.907812,10.125000
28.853356,-0.814920,-1.092503,0.517066,-0.201138,-0.292093,-5.640739,9.452308,0.462938,0.128771,-0.116000,36.966211,86.082422,12.993750
28.954800,-0.841277,-1.117320,0.509300,-0.174175,-0.430956,-5.104438,8.441955,0.275634,0.137285,0.108551,35.389453,88.701562,12.150000
29.056318,-0.748492,-1.104958,0.526434,-0.165769,-0.780510,-4.888960,7.920019,0.529984,-0.129835,0.017028,35.739844,86.257031,11.475000
29.158571,-0.897284,-1.192327,0.447471,-0.115532,-0.517148,-4.472369,8.963891,0.542754,-0.060661,-0.053211,31.359961,87.828516,13.331250
29.259906,-1.066598,-1.202950,0.367495,-0.097965,-0.488417,-3.869030,9.514557,0.370350,0.112808,0.061725,31.359961,87.828516,13.331250
29.361672,-0.824970,-1.237197,0.359086,-0.080991,-0.363919,-3.524265,9.227253,0.257542,-0.002128,0.031927,28.907227,88.177734,15.018750
29.462601,-0.609751,-1.255115,0.322017,-0.013007,-1.034295,-3.093309,8.829816,0.465066,0.009578,0.154313,27.856055,87.479297,14.343750
29.563758,-0.514884,-1.284131,0.286802,0.021148,-1.163582,-2.485181,9.002198,0.645984,-0.044697,0.043633,26.629687,89.400000,14.512500
29.664860,-1.101789,-1.290652,0.219563,0.015512,-0.713472,-2.173935,10.687716,0.374607,-0.162826,0.014899,25.052930,88.526953,15.693750
29.766608,-1.012910,-1.306395,0.155204,0.044772,-0.991199,-1.407791,9.816227,0.650241,-0.309689,-0.072367,23.125781,86.257031,17.550000
29.868051,-0.850428,-1.308381,0.131206,0.034292,-0.818817,-1.666364,11.008539,0.288405,0.219230,0.213909,21.899414,87.479297,16.368750
29.969478,-1.060229,-1.324378,0.094631,0.026075,-0.512359,-0.914585,10.520122,0.097909,-0.325653,-0.052147,21.899414,87.479297,16.368750
30.070967,-1.315517,-1.325839,0.070802,0.047160,-0.574608,-1.647211,10.591948,0.893948,-1.054646,-0.297983,21.724219,87.304687,16.875000
30.172178,-0.956338,-1.342021,-0.002371,-0.113275,1.211466,-0.588974,10.036493,0.431011,-0.320332,-0.102166,21.198633,83.987109,17.718750
30.273507,-0.938747,-1.363745,-0.083833,-0.030005,-0.052672,0.952892,10.496180,0.431011,1.385620,0.105358,19.096289,81.891797,19.743750
30.374377,-1.068160,-1.341427,-0.063257,-0.010000,0.430956,0.426168,9.916783,-0.012771,0.081945,0.111744,19.096289,81.891797,19.743750
30.476300,-1.455080,-1.388524,-0.057779,-0.015699,0.359130,0.588974,10.165780,0.019156,0.041505,0.019156,16.293164,83.288672,20.756250
30.577253,-1.480899,-1.394163,-0.067974,-0.020901,0.392649,0.723049,10.170569,0.013835,0.022349,0.011706,16.293164,86.082422,18.731250
30.678585,-1.277539,-1.396260,-0.074034,-0.019542,0.325611,0.694318,10.084377,0.015963,0.009578,0.015963,16.117969,86.257031,18.562500
30.779905,-1.016667,-1.371452,-0.086449,-0.018250,0.325611,0.732626,10.132261,0.015963,0.013835,0.015963,17.344336,84.336328,18.731250
30.881131,-0.893026,-1.384375,-0.084089,-0.017034,0.363919,0.694318,10.074801,0.019156,0.031927,0.012771,16.643555,84.685547,19.068750
30.982386,-0.985642,-1.385193,-0.058284,-0.013359,0.292093,0.612916,10.189722,0.014899,0.007450,0.011706,16.818750,85.907812,18.562500
31.083578,-1.110151,-1.404970,-0.070833,-0.034316,0.450110,0.636858,10.089166,0.015963,0.004257,0.012771,14.891602,85.733203,18.393750
31.184741,-1.277002,-1.398416,-0.079972,-0.027469,0.320823,0.756568,10.079589,0.022349,0.030863,0.014899,14.891602,85.733203,19.068750
31.285970,-0.847057,-1.404409,-0.086150,-0.017346,0.316035,0.780510,10.180145,0.017028,0.005321,0.013835,14.891602,85.733203,19.068750
31.387656,-0.936146,-1.384176,-0.074974,-0.010416,0.215478,0.742203,10.160992,0.017028,0.010642,0.013835,16.293164,84.685547,19.406250
31.488697,-1.284353,-1.384393,-0.073045,-0.013008,0.282516,0.694318,10.256760,0.015963,0.012771,0.011706,16.293164,85.034766,18.393750
31.590367,-1.184503,-1.389653,-0.073147,-0.005908,0.253785,0.694318,10.093954,0.014899,0.003193,0.014899,16.293164,85.034766,18.393750
31.691279,-1.173013,-1.376250,-0.064700,-0.021304,0.282516,0.670376,10.079589,0.018092,0.004257,0.014899,16.993945,86.780859,18.731250
31.792916,-0.971774,-1.377336,-0.076269,-0.013128,0.220267,0.737414,10.156203,0.014899,0.007450,0.019156,16.468359,85.209375,20.250000
31.894504,-0.909806,-1.380996,-0.073339,-0.014772,0.268151,0.713472,10.232818,0.015963,0.008514,0.015963,16.293164,85.034766,18.056250
31.995772,-0.895959,-1.379000,-0.072513,-0.009383,0.215478,0.718260,10.299856,0.019156,0.004257,0.013835,16.293164,85.034766,18.393750
32.096958,-1.053751,-1.366724,-0.068363,-0.008966,0.201113,0.699107,10.098743,0.014899,0.006385,0.012771,16.993945,83.637891,18.056250
32.198689,-1.042565,-1.369398,-0.071871,-0.012309,0.210690,0.737414,9.988609,0.014899,0.006385,0.014899,17.519531,84.860156,18.562500
32.299941,-0.886082,-1.385956,-0.059002,-0.018936,0.311246,0.627281,10.199299,0.015963,0.007450,0.014899,16.818750,87.304687,18.900000
32.401670,-0.982863,-1.376668,-0.087034,-0.001169,0.172383,0.742203,10.055647,0.015963,0.008514,0.011706,16.117969,84.161719,18.562500
32.502644,-1.206565,-1.382672,-0.073643,-0.012686,0.272939,0.699107,10.237606,0.017028,0.008514,0.013835,16.117969,84.161719,18.562500
32.604707,-0.910694,-1.383890,-0.075823,-0.007251,0.253785,0.723049,10.041282,0.018092,0.005321,0.012771,16.643555,85.034766,18.056250
32.706383,-1.298654,-1.370931,-0.071707,-0.013133,0.225055,0.675165,10.180145,0.013835,0.007450,0.010642,17.169141,85.209375,19.237500
32.808459,-1.077019,-1.378059,-0.078217,0.004674,0.181959,0.804452,10.223241,0.018092,0.009578,0.013835,16.293164,85.733203,18.056250
32.910096,-1.035701,-1.370173,-0.072570,-0.012413,0.234632,0.694318,10.261548,0.015963,0.007450,0.012771,17.344336,85.733203,18.056250
33.011481,-0.817331,-1.359247,-0.088675,0.003926,0.196325,0.737414,10.084377,0.015963,0.003193,0.012771,18.220313,85.209375,18.562500
33.112539,-1.008472,-1.382850,-0.084899,-0.014645,0.287304,0.804452,10.223241,0.015963,0.003193,0.012771,15.942773,83.637891,18.731250
33.213864,-0.575627,-1.366735,-0.075346,-0.020496,0.316035,0.708684,10.036493,0.017028,0.005321,0.009578,18.045117,84.336328,19.743750
33.315551,-0.940208,-1.357389,-0.065034,-0.003995,0.153229,0.684742,10.122685,0.017028,0.009578,0.012771,18.045117,84.336328,19.743750
33.416851,-1.075315,-1.401744,-0.064631,0.001794,0.234632,0.732626,10.247183,0.015963,0.011706,0.013835,15.241992,86.780859,19.068750
33.518594,-0.827783,-1.387816,0.003643,-0.023051,1.072602,-2.940080,11.621455,-0.134092,0.023413,0.262863,15.592383,84.685547,17.043750
33.620032,-1.097143,-1.374748,-0.073098,0.022984,-0.339977,-0.229843,10.678139,0.719416,0.224551,0.251157,15.592383,84.685547,17.043750
33.721631,-1.198723,-1.405325,-0.101292,0.043327,-1.331176,0.718260,9.083601,-0.309689,-0.037248,-0.009578,14.190820,86.780859,17.718750
33.823342,-0.921387,-1.391014,-0.076377,0.042862,-0.067038,-0.153229,10.874464,-0.324588,0.114936,0.235194,13.840430,85.733203,17.718750
33.925229,-1.108589,-1.410454,-0.077300,-0.043607,0.593762,0.502782,10.371682,0.269249,-0.424625,-0.146863,14.716406,86.257031,16.537500
34.026255,-0.820055,-1.394477,-0.141353,0.051981,-1.570596,1.766921,6.449979,0.266056,-0.330974,0.443782,14.716406,84.860156,17.212500
34.127467,-0.784213,-1.365329,0.000434,0.002473,-0.411803,-1.264138,9.935937,-0.398020,0.034055,0.511892,16.117969,83.812500,17.887500
34.229293,-1.241095,-1.388130,-0.009409,-0.027311,-0.215478,-0.497994,10.089166,0.028734,0.047890,-0.211781,15.942773,82.939453,18.393750
34.331118,-1.101857,-1.370370,-0.032309,0.000893,0.378284,0.435745,10.644621,0.037248,0.023413,0.004257,17.519531,84.510937,20.250000
34.432581,-0.947904,-1.368202,-0.033211,0.012148,-0.354342,0.574608,10.070012,0.006385,0.015963,-0.094716,17.519531,84.510937,20.250000
34.534461,-1.166704,-1.366820,-0.058353,0.043618,-0.828394,-0.708684,9.184158,0.058532,0.172404,-0.278827,17.519531,84.510937,20.250000
34.636250,-1.257516,-1.363814,0.030012,-0.009572,0.943315,-1.757344,10.189722,0.022349,-0.062789,-0.084074,18.045117,83.637891,19.068750
34.737989,-0.790618,-1.357523,-0.006120,-0.010699,0.138864,0.009577,10.299856,0.012771,-0.001064,0.018092,18.045117,83.637891,19.068750
34.839205,-1.124780,-1.359672,0.005282,-0.011598,0.124498,-0.004788,10.055647,0.012771,-0.007450,0.004257,18.395508,84.336328,18.731250
34.940455,-0.861143,-1.366726,-0.008234,-0.028194,0.292093,0.028730,10.247183,0.019156,0.003193,0.021284,17.344336,82.939453,18.731250
35.041764,-1.057326,-1.358864,0.037888,-0.014316,0.148441,-0.670376,9.749189,0.010642,0.177725,0.015963,18.745898,84.336328,19.406250
35.143720,-0.898213,-1.378887,-0.009330,-0.009097,0.100556,0.229843,10.089166,0.020220,0.005321,0.017028,16.818750,85.209375,17.887500
35.245416,-1.190268,-1.366734,-0.002633,-0.008024,0.095768,0.019154,10.041282,0.014899,0.006385,0.014899,17.694727,83.987109,18.056250
35.347239,-1.247185,-1.338255,0.013499,0.018548,-1.465251,0.316035,10.433931,0.005321,0.015963,0.201138,19.621875,84.860156,18.562500
35.448664,-1.131081,-1.356470,-0.028158,-0.043044,0.541090,0.186748,10.505757,0.003193,0.007450,0.087266,19.621875,84.860156,18.562500
35.550594,-1.082792,-1.352246,-0.020314,-0.016106,0.119710,0.162806,10.127473,0.014899,-0.001064,0.020220,18.395508,84.685547,18.393750
35.651705,-1.065816,-1.377616,-0.000121,-0.000148,0.004788,0.000000,10.137050,0.010642,0.012771,0.086202,16.818750,84.510937,18.562500
35.753480,-0.873079,-1.348679,-0.017761,0.009765,0.004788,0.138864,10.199299,0.015963,0.009578,0.098973,18.570703,83.812500,17.550000
35.854905,-1.233978,-1.369438,-0.013714,-0.018599,0.201113,0.095768,10.223241,0.015963,0.003193,0.042569,17.169141,83.812500,19.575000
35.956440,-0.959803,-1.374613,-0.025677,-0.004568,0.694318,0.555455,10.103531,0.000000,0.023413,0.167083,16.643555,84.336328,18.393750
36.058662,-1.130131,-1.367668,-0.000767,-0.015377,0.114922,0.009577,10.065224,0.006385,0.003193,0.010642,17.519531,85.558594,18.900000
36.160432,-1.298836,-1.375206,-0.016484,0.003362,0.071826,0.057461,10.228029,0.013835,0.004257,0.013835,16.993945,84.336328,19.406250
36.261918,-1.585634,-1.390450,-0.010238,0.006403,-0.004788,0.105345,10.228029,0.015963,0.001064,0.019156,15.592383,83.987109,18.393750
36.363691,-1.000190,-1.389000,-0.015742,-0.004106,0.071826,0.143652,10.141838,0.018092,0.007450,0.013835,15.592383,83.987109,18.393750
36.464051,-1.474824,-1.389897,-0.015808,-0.017602,0.181959,0.086191,10.141838,0.017028,0.002128,0.011706,15.592383,83.987109,18.393750
36.565764,-1.228072,-1.363042,-0.014174,-0.000006,0.158017,0.028730,10.170569,0.015963,0.006385,0.014899,17.869922,83.463281,18.225000
36.667840,-1.068076,-1.373377,-0.015385,-0.013782,0.100556,0.033519,10.084377,0.012771,0.002128,0.013835,16.293164,83.288672,17.043750
36.769244,-0.859973,-1.365252,-0.000232,-0.017324,0.186748,-0.047884,10.165780,0.015963,0.005321,0.015963,17.694727,84.336328,19.743750
36.870373,-0.935133,-1.386978,-0.006098,-0.002586,-0.009577,0.028730,10.093954,0.014899,0.006385,0.013835,15.767578,83.114062,18.225000
36.971910,-1.059602,-1.387958,-0.013273,-0.001102,0.095768,0.143652,10.409989,0.013835,0.001064,0.011706,15.767578,83.463281,18.900000
37.074010,-1.308259,-1.398900,-0.006411,-0.015574,0.134075,-0.014365,10.170569,0.018092,0.005321,0.012771,15.767578,86.606250,19.237500
37.175601,-0.883337,-1.373509,-0.011308,-0.023898,0.119710,0.028730,10.060435,0.013835,-0.001064,0.014899,17.169141,84.510937,18.900000
37.277367,-1.066284,-1.371413,-0.020156,-0.001753,0.057461,0.138864,10.280702,0.017028,0.006385,0.012771,16.468359,85.209375,17.887500
37.379439,-0.982781,-1.383623,0.004192,-0.015099,0.134075,0.009577,10.223241,0.020220,0.004257,0.012771,16.818750,84.161719,19.237500
37.480661,-1.144388,-1.373183,-0.003375,-0.002351,0.019154,0.014365,10.208876,0.014899,0.002128,0.012771,16.818750,84.161719,19.237500
37.582787,-0.877706,-1.375161,-0.008663,-0.000359,0.090980,0.057461,10.170569,0.015963,0.004257,0.009578,16.818750,85.907812,18.562500
37.684288,-1.132820,-1.379425,-0.012044,-0.008991,0.110133,0.105345,10.189722,0.012771,0.002128,0.012771,16.293164,84.685547,16.706250
37.786380,-1.235172,-1.382043,-0.005109,0.005429,0.052672,0.086191,10.170569,0.014899,0.004257,0.012771,16.293164,84.685547,16.706250
37.888916,-0.588115,-1.370241,-0.005331,-0.014213,0.114922,0.047884,10.165780,0.014899,0.002128,0.010642,17.694727,83.987109,18.056250
37.990042,-1.099279,-1.373879,-0.011890,0.000091,0.086191,0.057461,10.170569,0.008514,0.001064,0.010642,17.694727,83.987109,18.056250
38.092373,-1.387982,-1.389709,-0.019989,-0.008918,0.186748,0.138864,10.228029,0.017028,0.004257,0.015963,16.468359,85.558594,17.887500
38.193990,-0.960565,-1.379391,-0.005620,-0.013140,0.153229,0.071826,10.146627,0.014899,0.006385,0.011706,16.643555,82.939453,17.718750
38.296122,-1.256235,-1.389637,-0.008716,-0.003711,0.114922,0.095768,10.089166,0.023413,0.003193,0.018092,15.942773,84.336328,18.731250
38.398087,-0.951904,-1.368497,-0.017885,-0.015280,0.119710,0.110133,10.141838,0.017028,0.008514,0.013835,16.993945,83.288672,19.068750
38.500131,-1.118217,-1.373432,0.003700,0.000613,0.062249,0.033519,10.242395,0.012771,0.000000,0.011706,16.993945,83.288672,19.068750
38.601971,-0.907292,-1.379288,-0.001679,0.004559,0.028730,0.057461,10.242395,0.017028,0.001064,0.015963,16.117969,83.812500,18.900000
38.703983,-1.176049,-1.365073,-0.013024,0.001211,0.009577,0.129287,10.084377,0.014899,0.005321,0.011706,17.694727,83.987109,17.718750
38.805422,-1.282408,-1.393475,-0.020177,-0.009980,0.114922,0.076614,10.213664,0.013835,0.005321,0.013835,15.592383,84.336328,17.718750
38.907815,-0.755532,-1.372593,-0.005949,0.004828,0.129287,0.129287,10.170569,0.014899,0.002128,0.013835,17.169141,84.860156,16.875000
39.010065,-1.040694,-1.375051,-0.016794,-0.009900,0.143652,0.148441,10.055647,0.015963,0.004257,0.012771,16.643555,83.288672,18.393750
39.112178,-1.214386,-1.392186,-0.007658,-0.007096,0.129287,0.028730,10.132261,0.015963,0.004257,0.014899,15.066797,85.209375,18.900000
39.213313,-1.063647,-1.387125,-0.009887,-0.013727,0.129287,0.076614,10.103531,0.017028,0.005321,0.012771,15.767578,84.510937,19.237500
39.315131,-1.020502,-1.384213,-0.001840,-0.004740,0.067038,0.076614,10.113108,0.014899,0.005321,0.013835,15.767578,84.510937,19.237500
39.416691,-1.194608,-1.385623,-0.012453,-0.013519,0.114922,0.047884,10.223241,0.018092,0.004257,0.010642,15.767578,84.510937,19.237500
39.517652,-1.253189,-1.387098,-0.016668,-0.019827,0.105345,0.033519,10.065224,0.017028,0.000000,0.014899,15.767578,84.510937,19.237500
39.619687,-0.943364,-1.374773,-0.002231,0.002108,0.114922,0.086191,10.228029,0.009578,0.021284,0.008514,17.344336,84.336328,18.056250
39.721100,-1.378580,-1.395210,-0.013200,-0.028530,0.239420,0.100556,10.132261,0.007450,0.018092,0.010642,15.767578,84.161719,17.550000
39.823252,-1.272216,-1.373344,-0.007691,-0.019619,0.201113,0.047884,10.122685,0.013835,0.003193,0.007450,16.643555,82.939453,18.056250
39.924649,-1.063637,-1.387793,-0.014139,-0.005914,0.138864,0.057461,10.314221,0.013835,-0.001064,0.011706,16.117969,84.161719,17.887500
40.025991,-1.584694,-1.388757,0.001551,-0.007452,0.047884,0.028730,10.103531,0.011706,0.011706,0.012771,15.767578,84.510937,19.237500
40.127850,-0.995367,-1.380394,-0.009692,-0.020158,0.186748,0.047884,10.280702,0.018092,0.005321,0.012771,16.117969,83.463281,18.225000
40.229354,-1.043785,-1.396504,-0.022322,-0.016624,0.225055,0.201113,10.534487,0.021284,0.008514,0.010642,15.592383,85.034766,19.406250
40.330900,-1.042405,-1.383837,-0.007094,-0.005259,0.105345,0.067038,10.108319,0.018092,0.009578,0.013835,16.468359,84.510937,20.250000
40.432760,-1.023231,-1.376475,-0.009566,-0.009213,0.119710,0.067038,10.132261,0.019156,0.004257,0.009578,16.468359,84.510937,18.900000
40.534044,-1.413989,-1.397268,-0.020375,-0.006257,0.143652,0.124498,10.132261,0.014899,0.017028,0.013835,15.417188,84.510937,18.225000
40.635651,-1.194323,-1.392665,-0.006518,-0.025237,0.244209,0.028730,10.199299,0.022349,-0.093652,0.023413,15.417188,84.510937,18.225000
40.736605,-0.840395,-1.364643,-0.020553,-0.019862,0.210690,0.148441,10.290279,0.018092,-0.021284,0.015963,17.694727,83.637891,19.068750
40.838146,-1.208020,-1.377998,-0.015318,-0.009016,0.090980,0.119710,10.184934,0.015963,0.003193,0.011706,16.117969,84.161719,18.900000
40.940264,-0.952857,-1.389855,-0.001983,-0.001332,0.110133,0.081403,10.218453,0.013835,0.002128,0.012771,16.117969,84.161719,18.900000
41.041628,-1.205728,-1.374511,-0.008660,-0.005406,0.071826,0.071826,10.065224,0.018092,0.006385,0.012771,17.169141,84.161719,17.550000
41.144149,-1.062689,-1.378004,-0.009501,-0.014275,0.181959,0.057461,10.314221,0.010642,0.001064,0.014899,16.993945,83.987109,17.381250
41.245416,-1.127848,-1.390253,-0.001906,-0.009937,0.172383,0.014365,10.137050,0.011706,0.003193,0.014899,15.942773,83.288672,19.743750
41.347574,-0.990701,-1.350756,-0.001244,-0.017250,0.105345,0.038307,10.146627,0.017028,0.006385,0.014899,18.745898,83.288672,19.068750
41.449078,-1.166143,-1.378338,-0.019713,-0.013313,0.172383,0.081403,10.223241,0.017028,0.008514,0.014899,16.993945,84.336328,17.043750
41.551189,-1.043603,-1.387667,0.012174,-0.024866,0.234632,-0.407014,9.021352,-0.035119,0.007450,-0.006385,15.942773,85.034766,20.081250
41.652313,-1.440790,-1.384996,-0.010859,-0.000051,0.158017,-0.277727,9.959879,0.038312,0.015963,0.025541,15.942773,85.034766,20.081250
41.754892,-1.226965,-1.358158,-0.033208,0.016808,0.162806,0.110133,10.395624,0.229872,-0.014899,0.147927,17.169141,82.415625,17.212500
41.856632,-1.069024,-1.397129,-0.148180,0.012172,0.205901,1.450886,9.897630,0.707709,0.069175,-0.091523,14.015625,84.161719,19.912500
41.958141,-1.492392,-1.424677,-0.160872,0.033593,-1.043872,0.632069,11.918336,0.709838,-0.113872,-0.113872,11.913281,84.860156,17.212500
42.059779,-1.521331,-1.436303,-0.234155,0.025099,-0.181959,1.484405,9.595960,0.424625,0.096844,-0.094716,10.862109,85.907812,17.887500
42.161501,-1.597919,-1.462590,-0.249227,0.014482,0.215478,2.547431,10.247183,0.581066,0.116000,-0.178790,8.409375,84.161719,18.225000
42.263397,-1.390810,-1.455046,-0.370462,0.059081,-0.306458,3.663129,9.169792,0.694938,-0.019156,-0.053211,7.533398,86.431641,16.706250
42.365268,-0.994135,-1.452234,-0.427843,0.048586,-0.119710,3.289633,9.097966,0.304368,0.094716,-0.109615,7.533398,86.431641,16.706250
42.466914,-1.376495,-1.474143,-0.480667,0.062400,-0.071826,4.841076,8.801085,0.516149,0.107487,-0.100037,5.255859,85.209375,14.512500
42.568125,-1.453750,-1.480159,-0.468671,0.069746,-0.215478,4.649540,9.045294,0.210716,0.096844,0.000000,4.905469,83.114062,12.825000
42.670118,-0.968905,-1.466689,-0.507986,0.091298,-0.325611,4.984728,8.844181,0.175597,0.054275,0.023413,4.905469,83.114062,12.825000
42.771709,-1.222129,-1.513831,-0.514190,0.043434,-0.225055,5.147534,8.983045,0.220294,0.060661,-0.021284,1.927148,85.034766,12.656250
42.873612,-1.476106,-1.515099,-0.550019,0.049319,-0.191536,5.300762,8.815451,0.203267,0.046826,-0.105358,2.102344,85.907812,11.475000
42.975172,-1.398324,-1.515932,-0.583249,0.063653,-0.301669,5.592855,8.475474,0.280955,0.071303,0.005321,0.525586,85.034766,12.993750
43.076624,-1.456472,-1.509556,-0.637497,0.075832,-0.344765,5.942409,8.121132,0.429947,0.227744,0.004257,0.700781,84.161719,12.487500
43.178606,-1.340370,-1.491810,-0.665123,0.109516,-0.632069,6.234501,8.025364,0.456552,0.136221,-0.010642,0.175195,86.780859,9.618750
43.279934,-1.604894,-1.492438,-0.741224,0.124792,-0.493206,7.192182,6.976704,0.416112,0.167083,-0.077688,-2.452734,86.257031,5.737500
43.381800,-1.044496,-1.500544,-0.817003,0.128516,-0.689530,7.153875,7.096414,0.818388,0.216038,-0.196881,-2.452734,86.257031,5.737500
43.483914,-1.168418,-1.387212,-0.856441,0.283961,-1.465251,7.455544,6.469133,0.608736,0.254350,-0.060661,-2.452734,86.257031,5.737500
43.586000,-1.117681,-1.309119,-0.904065,0.390026,-1.877054,7.896077,5.717354,0.489543,0.085138,-0.100037,-4.555078,89.050781,0.675000
43.687277,-1.507449,-1.337465,-0.952000,0.348746,-1.474828,8.173804,5.458780,0.415047,-0.044697,-0.093652,-4.555078,89.050781,0.675000
43.788975,-1.215284,-1.361371,-0.972185,0.342932,-1.833958,8.389283,5.363012,0.229872,0.032991,0.001064,-4.555078,89.050781,-0.675000
43.891856,-1.343991,-1.219292,-0.966034,0.450025,-1.680730,8.623914,5.233725,0.300111,0.071303,-0.025541,-2.452734,89.400000,-1.350000
43.992917,-1.549936,-1.194592,-1.017168,0.505836,-1.900996,8.748413,4.630386,0.328845,0.063853,0.006385,-5.431055,87.130078,-3.543750
44.094541,-1.424314,-1.165182,-1.021299,0.536202,-1.704672,8.848969,4.606444,0.441653,0.250093,-0.048954,-5.431055,88.526953,-1.181250
44.196345,-1.124924,-1.086524,-1.081030,0.630954,-1.900996,9.054871,3.356671,0.244772,0.350130,-0.147927,-5.956641,89.400000,-5.737500
44.297970,-1.362275,-0.952729,-1.045697,0.770726,-2.183512,8.978256,3.538630,0.304368,0.139413,-0.087266,-4.204688,91.146094,-6.750000
44.399459,-1.220128,-0.830266,-1.027870,0.923472,-2.422932,8.935161,3.021482,0.254350,0.122386,-0.059597,-3.503906,89.749219,-9.787500
44.500900,-1.245307,-0.715105,-1.041569,1.031610,-2.403778,9.447520,2.724601,0.317139,0.009578,0.059597,-3.679102,90.971484,-11.306250
44.602080,-1.310459,-0.631754,-1.029391,1.117278,-2.398990,9.399636,2.164358,0.249028,0.038312,-0.038312,-3.679102,90.971484,-11.306250
44.703564,-0.996596,-0.638767,-1.009729,1.091220,-2.116474,9.131485,2.944868,0.098973,0.021284,0.012771,-3.679102,90.971484,-11.306250
44.806214,-1.080653,-0.626686,-1.017441,1.143047,-2.580949,9.533711,2.078167,0.084074,0.038312,0.079817,-4.204688,88.352344,-13.837500
44.907779,-1.182589,-0.673390,-1.023952,1.084064,-2.437297,9.246407,2.360683,0.072367,0.077688,0.001064,-3.854297,90.796875,-13.500000
45.009827,-1.253177,-0.584457,-1.040845,1.162738,-2.269703,9.437943,1.987187,0.102166,0.014899,-0.017028,-3.503906,90.447656,-14.512500
45.111047,-1.375312,-0.581764,-1.032291,1.177130,-2.226608,9.457097,1.742979,0.073431,0.007450,0.007450,-4.379883,88.876172,-12.993750
45.213221,-1.179614,-0.579703,-1.019555,1.179201,-2.442086,9.485827,2.360683,0.103230,0.028734,-0.024477,-4.379883,88.876172,-12.993750
45.315172,-1.148756,-0.591615,-1.004527,1.189995,-2.772486,9.519346,2.068590,0.081945,-0.015963,0.019156,-5.080664,90.971484,-12.318750
45.417139,-1.575979,-0.521060,-1.003034,1.246374,-2.370260,9.457097,1.489193,0.042569,-0.025541,0.022349,-2.803125,89.400000,-14.512500
45.518617,-1.066728,-0.542757,-1.017932,1.225558,-2.360683,9.476250,1.642422,-0.001064,0.013835,0.008514,-4.029492,87.828516,-15.693750
