Time, Altitude, Yaw, Pitch, Roll, Ax, Ay, Az, Pitch_rate, Roll_rate,Yaw_rate, Magx, Magy, Magz0.863541,-0.423618,-0.174551,0.017384,0.033283,0.076614,0.095768,10.208876,0.017028,0.006385,0.012771,19.621875,83.812500,17.212500
0.963592,-0.359268,-0.363973,0.026159,0.072450,0.143652,0.019154,10.165780,0.017028,0.006385,0.013835,19.621875,83.812500,17.212500
1.063850,-0.255696,-0.546439,0.022435,0.103758,0.110133,0.105345,10.170569,0.015963,0.004257,0.011706,20.147461,83.637891,18.056250
1.163943,-0.486991,-0.720908,0.011074,0.121373,0.162806,0.038307,10.295067,0.017028,0.003193,0.013835,20.322656,83.463281,18.562500
1.264119,-0.529688,-0.887566,-0.002924,0.121647,0.014365,0.019154,10.242395,0.017028,0.003193,0.014899,19.972266,85.907812,18.225000
1.366618,-0.790397,-1.045992,-0.014135,0.101001,0.110133,0.043096,10.041282,0.014899,0.005321,0.012771,20.848242,82.939453,18.393750
1.468633,-0.519231,-1.195337,-0.015708,0.059013,0.076614,0.062249,10.204087,0.015963,0.006385,0.012771,20.848242,82.939453,18.393750
1.570077,-0.610511,-1.331500,-0.006782,-0.006224,0.134075,0.043096,10.261548,0.014899,0.007450,0.015963,20.322656,84.860156,18.900000
1.671422,-0.525659,-1.346836,0.002598,-0.022102,0.172383,0.004788,10.146627,0.018092,0.005321,0.011706,19.972266,85.558594,18.562500
1.772930,-0.460630,-1.335547,0.001422,-0.000549,0.057461,-0.004788,10.122685,0.012771,0.002128,0.013835,20.497852,86.780859,18.393750
1.874939,-0.729790,-1.313850,-0.007168,-0.016665,0.095768,0.014365,10.184934,0.018092,0.005321,0.013835,22.074609,84.860156,19.237500
1.977166,-0.392836,-1.326055,-0.003524,0.002770,0.057461,0.076614,10.266337,0.012771,0.002128,0.013835,21.198633,83.637891,20.418750
2.079490,-0.741331,-1.331600,-0.004704,-0.006427,0.110133,0.062249,10.165780,0.013835,0.006385,0.017028,19.797070,83.987109,19.406250
2.181042,-0.673738,-1.330975,-0.010662,-0.010333,0.100556,0.043096,10.342951,0.015963,0.009578,0.014899,20.322656,84.161719,20.250000
2.282421,-0.819533,-1.335810,-0.000215,-0.002174,0.033519,0.004788,10.218453,0.015963,0.002128,0.012771,20.322656,84.161719,20.250000
2.384278,-0.679075,-1.328956,-0.005903,-0.006916,0.057461,0.019154,10.242395,0.014899,0.004257,0.017028,20.848242,84.685547,18.731250
2.484885,-0.632346,-1.335191,-0.007954,-0.021664,0.220267,0.028730,10.108319,0.015963,0.006385,0.013835,20.147461,83.637891,18.731250
2.586423,-0.495681,-1.342210,-0.013638,-0.011583,0.153229,0.086191,10.132261,0.014899,0.005321,0.011706,20.147461,83.637891,18.731250
2.688099,-0.397641,-1.323473,0.001420,-0.011092,0.095768,-0.043096,10.295067,0.015963,0.004257,0.012771,21.373828,84.510937,19.912500
2.790105,-0.876742,-1.341034,0.005756,-0.014026,0.148441,-0.047884,10.170569,0.013835,0.004257,0.011706,19.972266,83.812500,18.900000
2.891834,-0.477847,-1.355682,-0.019731,-0.006438,0.105345,0.090980,9.940725,0.015963,0.006385,0.008514,19.096289,85.383984,18.393750
2.993636,-0.380367,-1.333104,-0.009992,-0.015111,0.119710,0.062249,10.256760,0.015963,0.004257,0.012771,20.497852,85.034766,19.743750
3.095362,-0.310120,-1.343774,-0.010030,-0.011255,0.172383,0.014365,10.213664,0.014899,0.005321,0.011706,20.497852,85.034766,19.068750
3.197149,-0.608414,-1.340933,-0.007475,-0.018576,0.158017,-0.019154,10.132261,0.015963,0.005321,0.012771,20.147461,85.034766,20.081250
3.299406,-0.727573,-1.342095,0.002733,-0.006744,0.090980,0.033519,10.184934,0.015963,0.005321,0.015963,19.972266,85.558594,18.900000
3.400842,-0.512748,-1.347118,-0.009464,-0.005788,0.119710,0.047884,10.237606,0.014899,0.004257,0.013835,19.972266,85.558594,18.900000
3.502674,-0.568578,-1.321748,-0.012841,-0.017001,0.153229,0.057461,10.012551,0.014899,0.006385,0.012771,21.549023,84.685547,19.743750
3.604477,-0.701525,-1.333909,0.001993,-0.019215,0.172383,0.004788,10.237606,0.014899,0.007450,0.011706,20.848242,83.987109,19.406250
3.706177,-0.340875,-1.334584,0.004398,-0.011867,0.148441,0.028730,10.117896,0.015963,0.006385,0.014899,20.848242,83.987109,19.406250
3.807722,-0.679316,-1.322023,-0.004420,-0.019483,0.067038,0.009577,10.204087,0.015963,0.004257,0.014899,21.373828,85.558594,20.587500
3.909353,-0.566450,-1.349665,-0.005451,-0.015898,0.134075,-0.014365,10.218453,0.011706,0.004257,0.015963,19.972266,84.510937,17.550000
4.010991,-0.642123,-1.338655,0.003230,-0.014737,0.114922,-0.057461,10.160992,0.015963,0.006385,0.014899,19.972266,84.860156,19.237500
4.112243,-0.864347,-1.327238,0.005075,-0.005406,0.090980,0.023942,10.184934,0.013835,0.004257,0.013835,21.549023,83.987109,18.731250
4.214343,-0.676502,-1.343311,-0.015001,-0.002714,0.100556,0.110133,10.218453,0.015963,0.004257,0.009578,20.147461,85.034766,19.743750
4.316351,-0.472909,-1.338487,-0.001575,-0.014795,0.148441,0.028730,10.242395,0.013835,0.004257,0.012771,20.147461,85.034766,19.743750
4.418256,-0.544041,-1.319395,-0.015095,-0.015773,0.119710,0.110133,10.132261,0.017028,0.006385,0.011706,21.899414,86.082422,19.743750
4.519800,-0.279695,-1.333487,-0.009042,-0.000845,0.052672,0.057461,10.098743,0.017028,0.004257,0.013835,20.673047,84.161719,18.562500
4.620997,-0.529005,-1.340156,-0.003753,-0.011831,0.114922,0.009577,10.208876,0.015963,0.004257,0.015963,19.621875,83.812500,19.912500
4.722501,-0.790331,-1.326108,-0.016052,-0.010934,0.153229,0.114922,10.141838,0.017028,0.005321,0.011706,21.373828,84.161719,19.575000
4.824069,-0.749591,-1.339298,-0.021280,-0.018330,0.138864,0.090980,10.266337,0.014899,0.003193,0.013835,19.446680,83.637891,19.068750
4.926526,-1.062128,-1.332800,-0.010471,-0.015483,0.100556,0.057461,10.237606,0.013835,0.005321,0.013835,20.497852,85.383984,19.406250
5.028561,-0.830926,-1.340661,0.000212,-0.016939,0.138864,-0.009577,10.223241,0.013835,0.005321,0.009578,19.972266,85.209375,18.900000
5.130646,-0.487436,-1.339297,-0.013808,-0.001912,0.062249,0.062249,10.232818,0.017028,0.003193,0.015963,19.972266,85.209375,18.900000
5.231828,-0.510842,-1.343752,-0.008001,0.004357,0.028730,0.047884,10.323798,0.014899,0.007450,0.012771,19.972266,85.209375,18.900000
5.333306,-0.428091,-1.331583,0.002069,0.016608,-0.186748,0.014365,9.988609,0.012771,0.004257,0.013835,20.497852,83.987109,18.393750
5.434918,-0.610971,-1.321556,-0.018562,-0.022034,0.244209,0.114922,10.132261,0.011706,0.003193,0.013835,21.549023,83.987109,19.743750
5.536746,-0.553133,-1.334075,0.012653,-0.013969,0.138864,-0.043096,10.228029,0.013835,0.002128,0.012771,20.848242,85.733203,20.756250
5.638861,-0.492450,-1.337016,-0.018005,-0.020267,0.258574,0.119710,10.184934,0.014899,0.012771,0.002128,20.673047,85.209375,18.225000
5.741190,-0.800863,-1.341741,-0.024626,-0.032690,0.368707,0.143652,9.993398,0.017028,0.007450,0.012771,20.673047,86.257031,18.900000
5.842690,-0.756365,-1.328825,-0.009585,-0.023336,0.426168,-0.086191,10.477026,0.015963,0.001064,0.014899,20.848242,83.987109,19.068750
5.944759,-1.004456,-1.310606,-0.013235,-0.025070,0.282516,0.244209,10.840945,0.021284,0.008514,0.011706,23.300977,84.336328,18.393750
6.046763,-0.867987,-1.309672,-0.016085,-0.015487,0.172383,0.114922,10.180145,0.018092,0.024477,-0.041505,23.300977,84.336328,18.393750
6.148400,-0.851219,-1.340954,-0.009490,-0.017308,0.186748,0.033519,10.199299,0.013835,0.010642,0.026606,20.673047,85.558594,19.575000
6.250875,-0.521529,-1.321086,-0.006173,0.015463,-0.114922,0.095768,10.491392,0.019156,-0.009578,-0.021284,21.373828,83.812500,19.237500
6.352933,-0.741335,-1.326399,0.011051,-0.020276,-0.359130,-0.411803,9.859322,0.009578,0.018092,0.014899,22.074609,84.161719,19.575000
6.454736,-0.726670,-1.327320,-0.009494,-0.010655,-0.105345,0.119710,10.280702,0.019156,-0.012771,0.036184,19.446680,85.034766,18.731250
6.556411,-0.581297,-1.344950,-0.014189,-0.009806,0.153229,0.124498,10.180145,0.012771,0.001064,0.019156,19.446680,85.034766,18.731250
6.658073,-0.698206,-1.329246,0.000318,-0.012740,0.062249,-0.033519,10.194511,0.022349,-0.025541,0.017028,20.322656,83.463281,19.912500
6.759934,-0.928549,-1.331080,-0.015013,-0.007241,0.071826,0.095768,10.228029,0.011706,-0.037248,0.015963,20.322656,84.161719,18.225000
6.861477,-0.960487,-1.335930,-0.026164,-0.079901,0.905008,0.086191,10.309432,0.019156,-0.288405,0.073431,21.373828,84.510937,18.562500
6.964216,-0.972688,-1.353977,-0.014569,-0.082741,1.168370,0.000000,10.299856,0.009578,-0.495929,-0.131964,19.972266,83.463281,19.237500
7.066157,-0.386727,-1.369391,-0.030040,-0.106224,0.957681,0.129287,9.988609,-0.011706,-0.491672,-0.141542,19.972266,83.463281,19.237500
7.168461,-0.843404,-1.360766,-0.032846,-0.187200,1.934515,-0.023942,9.892841,0.011706,-0.096844,0.015963,21.724219,78.574219,24.637500
7.269971,-0.766025,-1.372584,-0.035537,-0.174918,1.829170,0.019154,10.117896,0.032991,-0.015963,0.111744,20.673047,78.225000,23.625000
7.371839,-0.552171,-1.390261,-0.033667,-0.179454,1.800440,0.009577,10.098743,0.022349,-0.065982,0.062789,19.621875,78.574219,25.650000
7.473710,-0.994651,-1.378367,-0.054845,-0.219837,2.245761,0.114922,9.998186,0.017028,-0.147927,0.013835,21.023438,75.780469,25.312500
7.575363,-0.555542,-1.407640,-0.051523,-0.216064,2.293645,0.105345,9.825804,0.017028,-0.091523,0.014899,20.147461,77.002734,25.818750
7.677623,-0.711759,-1.395672,-0.044469,-0.234432,2.317587,0.043096,9.892841,0.018092,-0.038312,0.013835,19.797070,75.955078,25.818750
7.778916,-0.720386,-1.399489,-0.054390,-0.253477,2.571373,0.105345,9.931148,0.011706,-0.179854,-0.005321,21.023438,74.732812,26.662500
7.881333,-1.174822,-1.416662,-0.041583,-0.266642,2.758120,0.038307,9.892841,0.013835,-0.074496,0.010642,20.322656,74.732812,27.675000
7.983297,-1.112500,-1.416070,-0.053227,-0.278288,2.786851,0.086191,9.844957,0.015963,-0.108551,0.011706,20.322656,74.732812,27.675000
8.085376,-0.584582,-1.419329,-0.056707,-0.283551,2.896984,0.110133,9.763554,0.015963,-0.078753,0.013835,20.322656,74.732812,27.675000
8.187559,-0.544696,-1.399648,-0.072472,-0.279834,2.873042,0.100556,9.653421,0.014899,-0.028734,0.012771,22.775391,75.082031,25.987500
8.289587,-0.939226,-1.423650,-0.053127,-0.289720,2.949656,0.086191,9.782708,0.019156,-0.063853,0.014899,19.972266,71.939062,25.987500
8.391607,-0.744076,-1.441254,-0.046482,-0.304029,3.155558,0.033519,9.777920,0.012771,-0.097909,0.014899,19.972266,73.335938,29.025000
8.493446,-1.087083,-1.431344,-0.051517,-0.305810,3.150769,0.057461,9.658209,0.015963,-0.113872,0.011706,20.848242,73.161328,27.843750
8.595376,-0.931071,-1.439891,-0.069226,-0.343941,3.390190,0.172383,9.581595,0.020220,-0.208588,0.013835,20.673047,73.685156,28.012500
8.697197,-0.730261,-1.442313,-0.046870,-0.358547,3.600879,0.071826,9.466673,0.013835,-0.162826,0.010642,21.198633,71.066016,27.168750
8.798734,-1.109351,-1.462078,-0.047119,-0.365418,3.758897,0.047884,9.509769,-0.001064,-0.181982,-0.028734,21.373828,70.542187,30.037500
8.900643,-0.694507,-1.470333,-0.053637,-0.407484,4.074931,0.071826,9.332598,0.020220,-0.161762,0.011706,21.373828,70.542187,30.037500
9.002192,-0.957269,-1.509118,-0.028253,-0.412344,4.151546,0.095768,9.356540,0.015963,-0.224551,0.014899,18.745898,69.669141,30.206250
9.104565,-0.828766,-1.487088,-0.051089,-0.472608,4.592079,0.076614,9.050082,0.015963,-0.206460,0.012771,22.074609,66.002344,30.375000
9.206227,-0.797794,-1.522358,-0.027381,-0.474911,4.616021,0.105345,8.983045,0.017028,-0.116000,0.010642,20.147461,66.875391,31.218750
9.307603,-0.945486,-1.519709,-0.046382,-0.489259,4.869806,0.129287,8.959103,0.015963,-0.121322,0.015963,22.600195,66.176953,31.556250
9.409483,-0.968403,-1.534836,-0.032841,-0.483660,4.850653,0.071826,9.059659,0.034055,-0.051083,0.040441,19.621875,65.653125,33.412500
9.511702,-0.799431,-1.546134,-0.022053,-0.512773,4.869806,0.081403,8.801085,0.017028,-0.031927,0.013835,21.023438,64.954687,33.412500
9.612694,-0.889392,-1.554710,-0.028568,-0.506330,5.008670,0.143652,8.820239,0.012771,-0.050019,0.012771,21.023438,64.954687,32.737500
9.714814,-0.671983,-1.552219,-0.025166,-0.511963,4.955997,0.129287,8.724471,0.015963,-0.086202,0.013835,19.972266,64.954687,31.050000
9.816305,-0.587204,-1.569851,-0.016087,-0.515960,5.051766,0.143652,8.762778,0.015963,-0.043633,0.014899,19.271484,63.208594,32.062500
9.918292,-0.627867,-1.571436,-0.000515,-0.535668,5.204994,0.028730,8.662222,0.018092,-0.057468,0.010642,19.271484,63.208594,32.062500
10.019807,-0.827636,-1.613474,0.004101,-0.573981,5.583278,0.244209,8.236054,-0.014899,-0.213909,-0.054275,18.395508,63.033984,33.918750
10.121585,-1.025863,-1.603905,0.000024,-0.599879,5.166687,0.043096,8.489839,-0.028734,-0.296919,-0.031927,20.497852,61.986328,31.893750
10.223981,-0.655775,-1.566166,-0.015612,-0.565035,5.176264,0.038307,8.485051,0.038312,-0.358644,0.044697,21.198633,60.938672,31.556250
10.325750,-1.035075,-1.596094,0.023456,-0.618012,5.760449,-0.004788,8.293515,0.011706,0.007450,0.004257,21.899414,58.144922,35.606250
10.427576,-0.732493,-1.618440,0.012838,-0.631695,5.937620,0.272939,8.216900,0.044697,-0.224551,0.056404,21.549023,60.240234,33.918750
10.529940,-0.678210,-1.638556,0.043199,-0.656397,6.200982,0.038307,7.972692,0.023413,0.014899,0.022349,20.673047,56.922656,34.087500
10.631755,-0.974560,-1.646067,0.041469,-0.609924,5.635951,0.033519,8.566454,0.052147,0.324588,0.068110,19.797070,58.144922,34.931250
10.733515,-0.590363,-1.664950,0.036850,-0.633389,6.100426,0.196325,8.125920,-0.017028,-0.250093,-0.034055,19.797070,58.144922,34.931250
10.834877,-0.894864,-1.659835,0.051404,-0.684663,6.382942,0.158017,7.738060,0.030863,-0.417176,0.013835,19.797070,58.144922,34.931250
10.936918,-0.838652,-1.688467,0.095315,-0.792555,7.364564,0.248997,7.038953,-0.095780,-0.784333,-0.111744,19.972266,56.573437,33.412500
11.039409,-0.647623,-1.747814,0.171453,-0.805962,7.508216,0.090980,6.991069,-0.089395,0.273506,0.088331,19.972266,50.985937,35.100000
11.141195,-0.609932,-1.710662,0.111800,-0.758786,6.785168,0.392649,7.350199,-0.144734,-0.077688,-0.141542,22.074609,51.335156,35.437500
11.243562,-1.065093,-1.708249,0.151274,-0.838279,7.503428,0.100556,6.665457,0.029798,-0.750278,0.019156,21.198633,51.160547,32.906250
11.345640,-0.681474,-1.729288,0.180703,-0.896589,7.407660,0.440533,5.674258,0.209652,-0.999307,0.138349,22.425000,46.795312,36.450000
11.447455,-0.760587,-1.759856,0.323759,-1.017859,9.121908,0.196325,4.486734,0.349066,-1.305803,0.181982,20.147461,41.382422,35.268750
11.548609,-0.226258,-1.754741,0.463191,-1.133428,9.399636,0.292093,3.466804,0.227744,-0.670461,0.083009,19.972266,34.223437,33.412500
11.649481,-0.539879,-1.825900,0.593898,-1.145088,9.414001,0.277727,3.203442,0.093652,-0.024477,0.043633,18.745898,30.556641,32.906250
11.750806,-0.664347,-1.818662,0.652589,-1.173904,9.509769,-0.124498,2.959233,0.008514,-0.142606,0.077688,18.745898,30.556641,32.906250
11.852387,-0.454944,-1.831653,0.676617,-1.172891,9.500192,0.143652,2.940080,0.015963,-0.029798,0.032991,18.745898,30.556641,32.906250
11.953441,-0.762030,-1.860585,0.677463,-1.160386,9.500192,0.229843,3.241749,0.028734,0.160698,-0.057468,16.643555,28.810547,31.893750
12.055025,-0.634123,-1.838344,0.645931,-1.152646,9.351752,0.033519,3.313575,-0.008514,0.126643,0.013835,16.293164,29.159766,30.881250
12.156396,-0.729099,-1.793234,0.645969,-1.251828,9.414001,0.469264,1.857900,0.125578,-0.523598,0.057468,15.942773,30.905859,30.543750
12.257630,-0.656835,-1.771121,0.662901,-1.280970,10.041282,0.258574,3.830723,0.559782,0.044697,0.131964,17.869922,27.588281,30.375000
12.359316,-0.518290,-1.802124,0.690805,-1.245427,9.787496,0.167594,2.011129,0.023413,-0.401213,0.012771,15.066797,26.889844,28.687500
12.461056,-0.556152,-1.787975,0.770460,-1.284613,9.739612,0.201113,1.934515,0.019156,-0.075560,0.015963,17.344336,24.270703,29.193750
12.562522,-0.821173,-1.746824,0.819652,-1.350965,9.835380,0.158017,1.637634,0.022349,-0.678975,0.012771,17.344336,24.270703,29.193750
12.663600,-0.391890,-1.674937,0.875163,-1.464575,10.026917,0.229843,0.632069,0.021284,-0.257542,0.008514,16.643555,20.429297,25.143750
12.765743,-0.665403,-1.660483,0.864333,-1.483098,9.864111,0.172383,0.569820,0.013835,0.054275,0.012771,17.869922,19.556250,23.287500
12.867048,-0.619822,-1.657235,0.857098,-1.469729,9.859322,0.105345,0.612916,0.018092,0.161762,0.011706,17.869922,19.556250,23.287500
12.968720,-0.988691,-1.717436,0.909680,-1.406111,9.854534,0.153229,1.019930,0.013835,0.485286,0.013835,15.592383,19.381641,26.493750
13.070020,-0.955098,-1.766856,0.834772,-1.345381,9.840169,0.253785,1.412579,0.013835,0.138349,0.018092,16.117969,19.905469,24.975000
13.171514,-0.747134,-1.719173,0.806861,-1.400140,9.844957,0.172383,1.192312,0.015963,0.150056,0.012771,16.468359,23.048437,26.662500
13.273261,-0.568230,-1.787246,0.780887,-1.297139,9.720459,0.186748,1.848324,0.008514,0.522534,0.013835,16.468359,23.397656,27.000000
13.374934,-1.192040,-1.802512,0.716179,-1.265536,9.605537,0.186748,2.274492,0.017028,0.191560,0.014899,16.468359,26.540625,28.687500
13.475600,-0.868766,-1.782795,0.725374,-1.264119,9.816227,0.100556,2.226608,0.017028,0.015963,0.012771,16.468359,26.540625,28.687500
13.577419,-0.888605,-1.795162,0.713112,-1.260563,9.701305,0.162806,2.279280,0.030863,0.127707,0.012771,15.942773,26.715234,28.856250
13.678616,-0.929552,-1.828076,0.726778,-1.197553,9.557653,0.076614,2.667141,0.017028,0.196881,0.015963,15.241992,26.715234,30.206250
13.779622,-0.376616,-1.856814,0.682458,-1.152599,9.471462,0.019154,3.145981,0.069175,0.532112,0.029798,16.643555,28.112109,30.881250
13.881552,-1.015267,-1.857646,0.588244,-1.090925,9.313444,-0.134075,4.055778,0.106422,1.212151,0.054275,16.468359,33.874219,31.725000
13.982978,-0.790691,-1.907352,0.397905,-0.898599,8.145074,0.220267,5.875371,0.051083,2.041182,0.133028,14.366016,40.509375,33.412500
14.084587,-0.604221,-1.904363,0.219155,-0.657804,5.123592,0.636858,6.852205,0.121322,2.444523,0.168147,16.117969,58.319531,33.412500
14.186403,-1.248965,-1.782244,0.100044,-0.571302,5.813122,0.191536,8.963891,-0.047890,0.284148,0.081945,16.117969,58.319531,33.412500
14.287562,-1.130976,-1.659903,0.035781,-0.541209,4.707000,0.100556,8.935161,0.014899,0.111744,0.015963,15.942773,65.478516,30.881250
14.388921,-1.017728,-1.570100,0.003163,-0.474941,4.692635,0.033519,9.050082,0.027670,0.300111,0.046826,15.942773,65.478516,30.881250
14.490770,-1.177201,-1.567638,-0.008316,-0.423444,4.290409,0.129287,9.236830,0.014899,0.189432,0.015963,15.417188,65.653125,31.387500
14.592093,-0.766414,-1.504799,-0.000055,-0.332270,3.763685,-0.071826,10.247183,0.039376,1.262170,0.080881,15.241992,68.272266,29.531250
14.693586,-1.088940,-1.483821,-0.025870,-0.238055,2.844312,0.225055,11.386823,-0.008514,1.399455,0.120257,14.366016,71.240625,28.350000
14.794909,-0.918986,-1.421267,-0.054668,-0.078268,0.900220,0.335188,9.260772,0.131964,-0.459745,-0.101101,14.015625,79.621875,21.600000
14.896239,-0.717524,-1.406588,-0.037802,-0.012018,-0.134075,0.153229,10.031705,0.023413,0.004257,0.048954,14.366016,84.860156,19.912500
14.998009,-0.978012,-1.407371,-0.005308,-0.008970,0.153229,-0.014365,10.189722,0.015963,0.005321,0.026606,14.541211,84.336328,19.406250
15.099376,-0.852754,-1.414845,-0.024749,-0.006504,0.158017,0.205901,10.208876,0.021284,0.010642,0.013835,14.015625,85.209375,20.587500
15.201999,-1.080096,-1.416077,0.003924,-0.009916,0.153229,-0.033519,10.299856,0.017028,0.006385,0.014899,14.015625,85.209375,20.587500
15.304141,-1.039949,-1.418625,-0.011346,-0.025520,0.196325,-0.038307,10.141838,0.013835,0.005321,0.012771,13.314844,84.161719,19.237500
15.406265,-0.918878,-1.423120,0.001040,-0.013973,0.201113,0.033519,10.146627,0.013835,0.006385,0.010642,13.139648,83.288672,18.393750
15.509854,-0.832213,-1.396579,-0.001240,-0.007550,0.119710,0.000000,10.055647,0.019156,0.008514,0.014899,15.417188,84.510937,18.900000
15.611709,-1.019530,-1.404188,-0.002978,-0.028261,0.220267,0.023942,10.290279,0.014899,0.006385,0.015963,14.015625,84.860156,18.562500
15.713451,-0.956486,-1.405515,-0.000049,-0.022498,0.196325,-0.023942,10.261548,0.013835,0.009578,0.012771,14.015625,83.114062,19.237500
15.815731,-1.075382,-1.416315,-0.000361,-0.015932,0.191536,0.000000,10.170569,0.013835,0.005321,0.011706,12.263672,84.161719,19.912500
15.920052,-0.848765,-1.428146,-0.014060,-0.023385,0.153229,0.023942,10.218453,0.014899,0.005321,0.014899,12.263672,84.161719,19.912500
16.021886,-0.728926,-1.411212,0.006531,-0.026518,0.148441,-0.004788,10.070012,0.015963,0.004257,0.009578,13.314844,84.161719,18.562500
16.122875,-0.783959,-1.403559,-0.005775,-0.007989,0.095768,0.067038,10.170569,0.015963,0.009578,0.011706,14.190820,82.939453,19.406250
16.225053,-1.143891,-1.397153,-0.003591,-0.024535,0.172383,0.038307,10.180145,0.013835,0.009578,0.009578,14.190820,82.939453,19.406250
16.326674,-0.753314,-1.419110,-0.002812,-0.020986,0.268151,-0.009577,10.036493,0.014899,0.007450,0.011706,12.964453,84.161719,18.225000
16.427997,-1.118787,-1.421720,0.008644,-0.008003,0.086191,-0.019154,10.146627,0.014899,0.004257,0.013835,12.789258,83.637891,17.718750
16.529924,-0.894995,-1.416090,-0.008014,-0.007667,0.148441,0.071826,10.103531,0.017028,0.003193,0.012771,13.840430,84.685547,19.406250
16.631468,-0.844297,-1.402981,-0.003454,-0.007860,0.100556,0.019154,10.122685,0.014899,0.006385,0.014899,14.716406,84.161719,17.887500
16.733617,-1.051265,-1.416705,-0.005621,-0.026029,0.177171,0.009577,10.108319,0.017028,0.005321,0.014899,13.139648,85.383984,18.731250
16.835500,-0.558255,-1.421179,-0.005914,-0.017564,0.177171,0.009577,10.132261,0.013835,0.005321,0.012771,13.139648,85.383984,18.731250
16.937672,-1.041516,-1.426201,-0.001099,-0.002438,0.090980,0.038307,10.160992,0.014899,0.005321,0.011706,12.438867,83.637891,19.068750
17.039329,-0.997857,-1.406642,-0.002600,-0.011338,0.158017,0.019154,10.031705,0.018092,0.007450,0.012771,14.190820,82.241016,18.731250
17.140956,-1.205690,-1.403871,-0.013190,-0.009431,0.067038,0.062249,10.184934,0.018092,0.002128,0.015963,13.314844,82.764844,19.912500
17.242564,-0.842135,-1.396323,-0.021068,-0.015944,0.114922,0.124498,10.050859,0.013835,0.007450,0.013835,14.015625,82.764844,18.225000
17.344616,-1.008231,-1.426271,-0.011330,-0.030292,0.177171,0.095768,10.285490,0.014899,0.008514,0.011706,12.088477,83.637891,18.393750
17.446166,-0.904344,-1.395538,-0.003516,-0.009155,0.100556,0.009577,10.175357,0.015963,0.004257,0.011706,15.241992,84.336328,19.406250
17.548497,-1.211420,-1.398383,-0.005106,-0.005387,0.114922,0.033519,10.146627,0.015963,0.007450,0.014899,15.241992,84.336328,19.406250
17.649756,-1.255519,-1.423044,-0.001530,-0.011152,0.148441,-0.009577,10.223241,0.014899,0.003193,0.014899,12.789258,82.241016,18.393750
17.750707,-1.141773,-1.403650,0.003133,-0.012919,0.076614,-0.067038,10.204087,0.018092,0.009578,0.012771,14.716406,83.463281,18.900000
17.852315,-1.333234,-1.405875,-0.017922,-0.022621,0.210690,0.076614,10.314221,0.014899,0.007450,0.013835,14.716406,83.463281,18.900000
17.954395,-1.354311,-1.412133,0.001700,0.003189,0.105345,0.028730,10.261548,0.015963,0.003193,0.014899,13.314844,83.114062,18.225000
18.057163,-1.224691,-1.407242,-0.009094,-0.000132,0.110133,0.071826,10.175357,0.014899,0.003193,0.011706,14.366016,83.114062,19.575000
18.159091,-1.459590,-1.402673,0.001843,-0.007067,0.143652,0.014365,10.180145,0.015963,0.002128,0.011706,14.716406,82.415625,20.587500
18.261655,-0.994553,-1.402127,-0.013439,-0.011686,0.062249,0.057461,10.165780,0.015963,0.005321,0.012771,13.840430,83.987109,19.406250
18.363713,-1.313950,-1.410524,0.015759,-0.007809,0.124498,-0.071826,10.127473,0.015963,0.006385,0.014899,13.840430,83.987109,19.406250
18.465373,-1.130766,-1.395762,-0.002463,-0.017462,0.105345,0.009577,10.074801,0.012771,0.002128,0.011706,14.366016,83.114062,18.225000
18.567330,-0.869154,-1.399527,-0.002750,-0.019510,0.158017,-0.043096,10.223241,0.014899,0.005321,0.010642,14.015625,83.812500,18.562500
18.669083,-0.982038,-1.412749,-0.002185,-0.011328,0.067038,-0.019154,10.199299,0.015963,0.004257,0.011706,12.964453,84.161719,19.237500
18.771087,-1.287393,-1.413791,-0.014000,-0.002483,0.076614,0.095768,10.228029,0.017028,0.004257,0.014899,13.665234,84.161719,19.575000
18.873331,-1.050497,-1.399846,0.000289,-0.022569,0.181959,-0.038307,10.304644,0.017028,0.003193,0.010642,14.716406,85.209375,19.912500
18.975019,-1.229572,-1.394647,-0.020811,-0.005449,0.162806,0.062249,10.127473,0.014899,0.006385,0.013835,15.241992,83.288672,18.731250
19.076891,-1.234557,-1.393001,-0.006642,-0.019890,0.244209,0.067038,10.232818,0.015963,0.005321,0.010642,15.241992,83.288672,18.731250
19.178480,-0.841555,-1.404829,-0.004179,-0.009131,0.172383,0.028730,10.280702,0.015963,0.005321,0.010642,13.490039,83.288672,19.068750
19.280199,-1.297664,-1.417928,-0.003899,-0.010198,0.162806,0.038307,10.175357,0.017028,0.004257,0.015963,13.490039,83.288672,19.068750
19.382541,-1.001054,-1.408652,-0.005577,-0.011320,0.086191,0.067038,10.146627,0.018092,0.004257,0.012771,14.015625,83.463281,17.550000
19.484346,-1.208364,-1.401116,-0.009077,-0.002558,0.110133,0.019154,10.165780,0.018092,0.006385,0.012771,14.891602,83.288672,18.056250
19.586467,-0.921857,-1.399323,0.006621,-0.013457,0.119710,-0.043096,10.175357,0.013835,0.006385,0.012771,14.541211,83.288672,17.381250
19.688090,-0.992597,-1.401962,-0.016452,-0.015150,0.177171,0.004788,10.223241,0.014899,0.006385,0.014899,14.541211,82.939453,18.393750
19.791196,-1.107708,-1.420900,-0.003761,-0.014047,0.095768,0.004788,10.170569,0.014899,0.004257,0.013835,12.438867,84.336328,18.731250
19.891778,-1.340988,-1.422817,-0.015571,-0.004282,0.062249,0.114922,10.204087,0.017028,0.005321,0.012771,12.438867,84.336328,18.731250
19.993882,-1.163444,-1.414631,-0.011815,-0.024901,0.153229,0.043096,10.127473,0.015963,0.007450,0.012771,12.614063,81.717187,18.900000
20.094834,-0.864924,-1.391060,-0.002519,-0.020488,0.119710,0.000000,10.271125,0.013835,0.004257,0.008514,14.716406,83.463281,17.887500
20.197094,-1.094967,-1.417351,-0.008371,-0.014281,0.162806,0.043096,10.041282,0.013835,0.004257,0.014899,13.139648,83.637891,17.381250
20.298860,-1.154179,-1.419583,-0.004638,-0.007191,0.158017,0.019154,10.122685,0.014899,0.003193,0.013835,13.490039,83.288672,19.743750
20.400876,-0.812376,-1.389989,-0.001882,-0.012407,0.100556,0.019154,10.237606,0.014899,0.003193,0.012771,15.066797,82.764844,19.237500
20.501937,-0.901616,-1.387473,-0.000198,-0.012888,0.071826,-0.004788,10.261548,0.015963,0.004257,0.010642,15.066797,82.764844,19.237500
20.603993,-0.933156,-1.409842,-0.005849,-0.017717,0.153229,0.019154,10.228029,0.014899,0.004257,0.010642,13.665234,82.066406,18.900000
20.706098,-1.210258,-1.400247,-0.007841,-0.015437,0.148441,-0.004788,10.012551,0.014899,0.008514,0.013835,15.241992,82.939453,18.056250
20.808203,-1.217080,-1.388109,-0.003414,-0.022704,0.134075,-0.004788,9.969456,0.015963,0.006385,0.011706,15.241992,82.939453,18.056250
20.909167,-0.856394,-1.408973,-0.001257,0.000947,0.095768,0.004788,10.184934,0.014899,0.004257,0.010642,14.716406,84.860156,17.887500
21.010806,-1.273431,-1.411873,-0.011456,-0.011761,0.181959,0.086191,10.242395,0.015963,0.004257,0.013835,14.015625,83.463281,19.237500
21.112999,-0.849394,-1.417554,-0.004959,-0.014626,0.124498,0.000000,10.184934,0.015963,0.007450,0.015963,13.139648,83.288672,18.393750
21.215098,-1.182757,-1.410537,-0.007075,-0.021216,0.129287,-0.009577,10.084377,0.017028,0.006385,0.012771,13.139648,83.288672,18.393750
21.317520,-1.295507,-1.408363,-0.006417,-0.007201,0.095768,-0.004788,10.108319,0.013835,0.004257,0.014899,13.840430,82.939453,17.381250
21.418476,-1.278193,-1.411484,-0.001467,-0.000318,0.105345,0.047884,10.098743,0.017028,0.004257,0.015963,13.840430,82.939453,17.381250
21.520288,-0.849392,-1.407889,0.003253,-0.003205,0.067038,-0.038307,10.285490,0.014899,0.005321,0.011706,14.190820,83.637891,18.731250
21.622020,-1.086028,-1.405873,0.001258,-0.019240,0.105345,-0.033519,10.213664,0.013835,0.003193,0.013835,14.891602,83.987109,17.718750
21.724345,-1.157832,-1.404957,0.002709,-0.013238,0.138864,-0.019154,10.199299,0.019156,0.004257,0.011706,14.541211,85.034766,18.731250
21.825794,-0.857021,-1.417747,-0.010584,-0.004949,0.129287,0.071826,10.208876,0.018092,0.004257,0.014899,13.665234,84.860156,18.900000
21.927465,-0.999578,-1.404136,-0.014150,-0.006934,0.105345,0.062249,10.194511,0.012771,0.004257,0.013835,14.541211,84.685547,21.093750
22.029787,-1.174688,-1.426047,-0.006979,-0.001081,0.095768,0.067038,10.208876,0.018092,0.003193,0.011706,12.789258,84.685547,18.393750
22.132433,-0.932359,-1.403820,-0.004023,-0.014565,0.110133,0.023942,10.175357,0.013835,0.002128,0.013835,14.541211,83.637891,18.731250
22.233759,-0.920086,-1.396029,-0.001232,-0.016176,0.095768,0.071826,10.156203,0.015963,0.001064,0.009578,14.541211,83.637891,18.731250
22.335822,-1.404816,-1.418844,-0.002332,-0.021138,0.153229,0.000000,10.333374,0.015963,0.004257,0.014899,12.614063,83.114062,18.225000
22.436627,-0.903540,-1.418128,-0.015293,-0.015416,0.138864,0.100556,10.103531,0.014899,0.003193,0.014899,12.964453,84.161719,19.912500
22.537659,-1.006552,-1.413445,-0.013298,-0.004524,0.076614,0.033519,10.199299,0.019156,0.004257,0.013835,13.490039,83.987109,20.418750
22.639661,-1.176374,-1.399236,-0.004619,-0.015680,0.138864,0.000000,10.180145,0.015963,0.006385,0.010642,14.541211,83.288672,18.393750
22.741766,-1.141707,-1.400045,-0.014012,-0.008332,0.129287,0.100556,10.141838,0.013835,0.006385,0.013835,15.066797,84.510937,21.937500
22.844799,-1.330268,-1.395432,0.002489,-0.012756,0.138864,-0.014365,10.184934,0.012771,0.003193,0.011706,15.241992,84.336328,20.418750
22.948873,-0.938009,-1.389824,-0.009786,-0.013355,0.162806,0.047884,10.266337,0.013835,0.004257,0.013835,15.767578,85.558594,19.237500
23.049637,-1.173348,-1.393844,0.008532,-0.017448,0.177171,-0.057461,10.204087,0.012771,0.003193,0.014899,15.767578,85.558594,19.237500
23.152551,-1.183693,-1.418160,0.005302,-0.011348,0.162806,-0.014365,10.223241,0.015963,0.005321,0.010642,13.490039,84.685547,19.068750
23.254044,-1.067770,-1.425792,-0.010875,-0.004523,0.114922,0.028730,10.189722,0.018092,0.003193,0.010642,12.964453,83.812500,19.575000
23.355507,-1.177433,-1.392266,-0.005043,-0.034157,0.201113,0.000000,10.189722,0.011706,0.008514,0.013835,14.716406,82.764844,18.562500
23.457771,-1.446521,-1.403891,0.004381,-0.023112,0.201113,-0.071826,10.137050,0.015963,0.003193,0.013835,14.366016,84.860156,17.550000
23.558964,-1.172511,-1.396992,-0.001982,-0.012729,0.105345,0.004788,10.237606,0.012771,0.003193,0.010642,15.241992,84.685547,20.081250
23.660336,-1.276946,-1.411256,-0.002052,-0.014205,0.158017,0.009577,10.170569,0.015963,0.003193,0.011706,13.665234,83.812500,19.575000
23.762326,-1.203603,-1.412597,-0.006475,-0.019940,0.201113,0.023942,10.247183,0.014899,0.004257,0.012771,13.665234,83.812500,19.575000
23.863335,-1.328630,-1.430710,-0.016012,-0.002940,0.076614,0.148441,10.127473,0.014899,0.007450,0.009578,12.263672,84.161719,20.250000
23.964809,-1.618005,-1.428195,-0.000429,-0.019688,0.177171,-0.009577,10.031705,0.015963,0.006385,0.014899,12.263672,84.161719,20.250000
24.066549,-1.201235,-1.412549,-0.001102,0.004890,0.086191,0.033519,10.122685,0.013835,0.003193,0.013835,13.840430,83.288672,18.731250
24.169344,-1.163499,-1.418909,-0.001641,-0.009202,0.143652,0.019154,10.141838,0.018092,0.004257,0.013835,13.314844,83.463281,18.562500
24.271778,-1.164270,-1.405674,-0.012360,-0.011709,0.138864,0.071826,10.117896,0.013835,0.005321,0.011706,13.665234,82.066406,17.887500
24.372855,-1.144484,-1.407035,0.003914,-0.009414,0.105345,-0.052672,10.208876,0.015963,0.000000,0.013835,14.366016,85.558594,19.912500
24.474066,-1.351504,-1.415666,0.000647,-0.029898,0.191536,-0.004788,10.113108,0.018092,0.004257,0.008514,12.789258,83.288672,17.718750
24.575865,-1.310225,-1.410875,0.002519,-0.015270,0.138864,-0.004788,10.127473,0.015963,0.004257,0.010642,13.665234,83.812500,19.912500
24.677548,-0.797857,-1.417838,-0.005887,-0.016096,0.201113,-0.019154,10.041282,0.014899,0.007450,0.011706,13.665234,83.812500,19.912500
24.779316,-1.200456,-1.416737,-0.013317,-0.013412,0.186748,0.057461,10.156203,0.015963,0.001064,0.012771,13.665234,83.812500,19.912500
24.881417,-0.982696,-1.416220,-0.001607,-0.003228,0.119710,0.014365,10.194511,0.015963,0.004257,0.013835,13.665234,83.812500,19.912500
24.982440,-1.411647,-1.397587,-0.000709,-0.000500,0.057461,0.038307,10.156203,0.013835,0.005321,0.014899,14.891602,83.288672,17.718750
25.083914,-1.365965,-1.405939,-0.005224,-0.006936,0.143652,0.023942,10.228029,0.015963,0.005321,0.011706,14.716406,85.209375,17.887500
25.185641,-1.329296,-1.407731,-0.008261,-0.017350,0.138864,0.033519,10.103531,0.017028,0.004257,0.013835,13.665234,84.161719,16.537500
25.287076,-1.196899,-1.411512,0.006185,-0.026849,0.196325,-0.076614,10.175357,0.017028,0.004257,0.011706,13.139648,81.891797,18.393750
25.388758,-1.211980,-1.408246,-0.017814,-0.019417,0.138864,0.114922,10.122685,0.019156,0.003193,0.014899,13.490039,84.336328,19.068750
25.490579,-1.104152,-1.398045,-0.002455,-0.020873,0.119710,0.019154,10.160992,0.017028,0.003193,0.012771,14.366016,83.812500,18.225000
25.592217,-1.080996,-1.402764,0.002420,-0.022385,0.153229,-0.019154,10.170569,0.014899,0.005321,0.013835,14.015625,83.812500,18.900000
25.693691,-1.313953,-1.421657,-0.009004,-0.031035,0.153229,0.086191,10.204087,0.014899,0.003193,0.014899,13.139648,85.034766,18.731250
25.794550,-1.237176,-1.389740,-0.008609,-0.017462,0.129287,0.038307,10.204087,0.015963,0.007450,0.011706,15.066797,84.510937,18.900000
25.896513,-1.520941,-1.412301,-0.009016,-0.008965,0.148441,0.038307,10.103531,0.013835,0.007450,0.013835,12.614063,83.114062,20.250000
25.998347,-1.044297,-1.411265,-0.003974,-0.009121,0.100556,0.033519,10.189722,0.014899,0.007450,0.013835,13.665234,83.463281,18.562500
26.100460,-1.020384,-1.412432,0.006058,-0.004286,0.047884,-0.062249,10.194511,0.015963,0.005321,0.010642,13.490039,82.590234,19.406250
26.203597,-1.195975,-1.396179,0.006729,-0.018085,0.129287,0.000000,10.213664,0.017028,0.003193,0.010642,14.541211,82.939453,20.081250
26.305168,-1.503769,-1.427718,-0.023736,-0.022662,0.215478,0.086191,10.256760,0.015963,0.005321,0.010642,12.789258,83.987109,19.068750
26.406903,-0.998544,-1.404049,-0.010278,-0.020504,0.177171,0.000000,10.213664,0.017028,0.005321,0.011706,14.366016,83.114062,18.225000
26.508746,-1.036633,-1.401274,-0.002126,-0.021402,0.153229,-0.033519,10.036493,0.012771,0.005321,0.013835,14.366016,83.114062,18.225000
26.610623,-1.088675,-1.387997,0.001061,-0.016913,0.114922,0.062249,10.328586,0.017028,0.004257,0.013835,15.592383,82.241016,19.406250
26.712332,-0.715618,-1.403999,-0.008734,-0.017894,0.181959,0.081403,10.132261,0.012771,0.003193,0.011706,14.015625,82.066406,19.575000
26.814978,-1.001514,-1.411269,-0.002926,0.000130,0.071826,0.062249,9.988609,0.017028,0.003193,0.013835,12.964453,84.161719,18.562500
26.916552,-1.116868,-1.392489,-0.005610,-0.018904,0.129287,0.033519,10.295067,0.018092,0.001064,0.012771,14.541211,81.891797,18.393750
27.018808,-1.350066,-1.392677,0.003433,-0.013403,0.177171,-0.009577,10.160992,0.013835,0.003193,0.010642,15.942773,83.987109,20.081250
27.120974,-0.950185,-1.410709,0.000371,-0.008847,0.105345,0.023942,10.218453,0.015963,0.003193,0.009578,13.665234,83.114062,19.575000
27.222760,-1.219820,-1.425889,0.000774,-0.029262,0.143652,0.023942,10.108319,0.012771,0.005321,0.011706,12.088477,85.034766,18.056250
27.325132,-1.023766,-1.422923,-0.008613,-0.009117,0.129287,0.071826,10.333374,0.014899,0.004257,0.013835,12.964453,83.463281,20.250000
27.426805,-1.228306,-1.423054,-0.014678,-0.004071,0.129287,0.067038,10.074801,0.011706,0.003193,0.015963,12.964453,83.463281,20.250000
27.528079,-1.491936,-1.417562,-0.011516,-0.017477,0.158017,0.062249,10.285490,0.012771,0.004257,0.013835,12.964453,83.463281,20.250000
27.629731,-1.102687,-1.419190,0.000391,-0.013562,0.162806,-0.062249,10.055647,0.015963,0.005321,0.012771,12.789258,83.637891,19.068750
27.731145,-1.223262,-1.418907,-0.006489,-0.021669,0.181959,0.057461,10.304644,0.012771,0.006385,0.011706,12.789258,83.637891,19.068750
27.832875,-1.056874,-1.395900,-0.005191,-0.005856,0.067038,0.009577,10.290279,0.018092,0.006385,0.013835,14.190820,83.288672,18.393750
27.934431,-1.433256,-1.412852,0.000778,-0.022920,0.172383,0.000000,10.108319,0.015963,0.006385,0.014899,13.139648,82.590234,17.381250
28.035900,-1.189083,-1.392231,0.005949,-0.010276,0.090980,-0.081403,10.146627,0.014899,0.006385,0.011706,15.767578,84.510937,18.900000
28.137720,-1.440318,-1.410806,-0.011061,-0.006442,0.148441,0.033519,10.194511,0.014899,0.007450,0.011706,14.366016,83.114062,18.562500
28.239606,-1.018484,-1.403699,-0.005920,-0.012321,0.114922,0.028730,10.103531,0.014899,0.005321,0.014899,13.840430,82.590234,19.406250
28.343153,-1.353625,-1.403183,0.004173,-0.011763,0.129287,-0.076614,10.189722,0.015963,0.002128,0.009578,13.840430,82.590234,19.406250
28.444357,-1.412301,-1.407653,-0.001152,-0.006838,0.100556,0.000000,10.165780,0.013835,0.005321,0.011706,14.190820,83.288672,18.731250
28.545585,-1.339791,-1.408635,-0.006128,-0.007624,0.172383,0.067038,10.146627,0.013835,0.003193,0.015963,14.366016,83.463281,19.237500
28.648652,-1.412336,-1.393278,-0.003033,-0.023944,0.191536,0.000000,10.036493,0.014899,0.003193,0.013835,15.066797,83.812500,18.900000
28.750223,-1.228463,-1.399613,-0.007896,-0.007980,0.100556,0.047884,10.093954,0.015963,0.004257,0.013835,14.716406,82.764844,18.900000
28.852447,-1.078024,-1.396334,0.003393,-0.010904,0.105345,0.028730,10.132261,0.015963,0.007450,0.008514,15.066797,84.860156,20.587500
28.954259,-1.234852,-1.398764,-0.015195,-0.012778,0.134075,0.033519,10.165780,0.015963,0.005321,0.013835,14.891602,82.590234,19.068750
29.055031,-1.454114,-1.408410,-0.007006,-0.016752,0.153229,-0.014365,10.127473,0.017028,0.006385,0.012771,13.840430,82.939453,20.756250
29.156377,-1.095078,-1.415168,-0.007906,-0.024578,0.225055,0.023942,10.232818,0.015963,0.006385,0.010642,13.490039,85.034766,19.068750
29.258536,-1.200339,-1.413914,0.001636,-0.027473,0.196325,-0.033519,10.266337,0.013835,0.004257,0.013835,13.490039,85.034766,19.068750
29.360568,-1.085171,-1.412554,-0.000548,-0.019249,0.143652,0.023942,10.333374,0.014899,0.006385,0.012771,13.490039,85.034766,20.081250
29.461405,-1.419222,-1.406448,-0.001470,-0.009629,0.196325,0.004788,10.271125,0.018092,0.003193,0.011706,14.716406,83.812500,19.575000
29.563032,-1.070568,-1.397793,-0.001455,-0.022206,0.153229,0.043096,10.295067,0.014899,0.003193,0.014899,14.366016,83.114062,18.900000
29.664728,-1.402662,-1.415144,-0.004811,-0.015160,0.210690,0.043096,10.089166,0.015963,0.003193,0.008514,12.964453,83.812500,19.237500
29.766813,-1.062436,-1.423480,0.009014,-0.026844,0.220267,-0.057461,10.175357,0.018092,0.003193,0.010642,12.964453,83.812500,19.237500
29.867753,-1.426095,-1.418097,-0.000825,-0.025995,0.124498,-0.090980,10.060435,0.014899,0.006385,0.013835,12.789258,83.288672,20.081250
29.969382,-1.469531,-1.402394,0.000167,-0.014979,0.129287,0.033519,10.103531,0.012771,0.003193,0.013835,13.840430,82.590234,17.718750
30.071404,-1.324165,-1.407961,-0.008522,-0.005461,0.076614,0.067038,10.074801,0.010642,0.006385,0.008514,13.840430,82.590234,17.718750
30.174310,-1.465150,-1.404378,-0.007897,-0.011209,0.071826,0.000000,10.132261,0.015963,0.004257,0.012771,13.840430,82.590234,17.718750
30.275702,-1.270643,-1.429148,-0.010210,-0.010983,0.134075,0.095768,10.295067,0.013835,0.004257,0.011706,12.088477,84.685547,20.418750
30.377565,-1.335328,-1.426753,-0.014853,-0.014358,0.181959,0.062249,10.084377,0.013835,0.005321,0.013835,12.964453,83.812500,17.550000
30.478814,-1.416211,-1.413970,0.006924,0.005246,0.028730,-0.004788,10.199299,0.013835,0.004257,0.017028,14.015625,83.812500,17.212500
30.580318,-1.490504,-1.422706,-0.003004,-0.012464,0.110133,0.000000,10.213664,0.012771,0.003193,0.014899,12.438867,82.241016,18.393750
30.681564,-1.279078,-1.419019,0.002454,-0.017869,0.172383,-0.043096,10.199299,0.013835,0.004257,0.011706,13.139648,84.336328,19.068750
30.783074,-1.694980,-1.411460,-0.002552,-0.021899,0.158017,-0.009577,10.304644,0.011706,0.006385,0.011706,13.314844,83.463281,17.550000
30.885648,-1.313604,-1.419934,-0.002011,-0.020506,0.191536,-0.009577,10.175357,0.012771,0.005321,0.013835,12.614063,82.764844,19.575000
30.987213,-1.086409,-1.417956,-0.018244,0.000263,0.028730,0.095768,10.218453,0.015963,0.004257,0.013835,12.614063,82.764844,19.575000
31.088619,-1.743972,-1.385375,-0.010051,-0.011375,0.158017,0.124498,10.232818,0.017028,0.003193,0.014899,15.592383,82.590234,19.406250
31.189810,-1.652871,-1.416496,-0.003211,-0.015210,0.162806,0.009577,10.208876,0.015963,0.003193,0.012771,12.964453,82.764844,19.575000
31.291265,-1.313192,-1.413627,0.011894,-0.008128,0.129287,-0.019154,10.199299,0.015963,0.008514,0.013835,13.840430,83.987109,19.406250
31.392930,-1.360599,-1.405021,-0.001008,-0.022567,0.162806,-0.004788,10.295067,0.015963,0.005321,0.017028,13.840430,83.987109,17.043750
31.495528,-1.290887,-1.410643,-0.005380,-0.020247,0.191536,0.023942,10.141838,0.017028,0.002128,0.013835,13.665234,84.161719,19.575000
31.597730,-1.574081,-1.408331,0.000485,-0.020959,0.158017,0.028730,10.165780,0.015963,0.008514,0.013835,13.490039,82.590234,19.406250
31.700528,-1.353637,-1.420014,-0.004866,-0.011971,0.138864,0.028730,10.060435,0.012771,0.007450,0.011706,12.964453,85.209375,18.900000
31.801214,-1.421423,-1.400511,-0.011643,-0.020777,0.210690,0.047884,10.204087,0.018092,0.004257,0.012771,15.417188,85.209375,19.237500
31.903077,-1.578560,-1.402375,-0.009935,-0.002852,0.114922,0.004788,10.213664,0.011706,0.005321,0.012771,15.417188,85.209375,19.237500
32.004169,-1.533123,-1.406883,-0.010400,-0.008008,0.119710,0.076614,10.165780,0.020220,0.003193,0.011706,14.015625,83.812500,19.575000
32.106551,-1.614404,-1.409854,-0.006904,-0.008537,0.086191,0.071826,10.127473,0.017028,0.003193,0.010642,14.015625,83.812500,19.575000
32.207719,-1.649936,-1.399531,-0.005787,-0.022918,0.148441,0.028730,10.199299,0.014899,0.003193,0.010642,14.190820,83.987109,18.056250
32.309777,-1.413734,-1.396465,-0.010248,-0.017558,0.124498,0.047884,10.012551,0.018092,0.005321,0.014899,14.190820,81.542578,19.743750
32.411468,-1.249842,-1.392888,-0.007428,-0.012469,0.177171,0.047884,10.208876,0.014899,0.007450,0.013835,15.592383,83.637891,20.081250
32.513052,-1.691156,-1.401795,-0.011937,-0.019779,0.148441,0.038307,10.175357,0.015963,0.004257,0.018092,13.840430,83.987109,19.406250
32.614840,-1.304733,-1.387733,-0.003028,-0.023328,0.134075,-0.004788,10.280702,0.017028,0.006385,0.010642,15.767578,84.860156,18.900000
32.716804,-1.796497,-1.415477,-0.003914,-0.001423,0.004788,0.047884,10.165780,0.013835,0.006385,0.012771,13.665234,84.860156,20.250000
32.818809,-1.544056,-1.426239,-0.012235,-0.015317,0.134075,0.086191,10.285490,0.012771,0.002128,0.012771,12.263672,84.510937,18.562500
32.920886,-1.656376,-1.428359,-0.013149,-0.015412,0.158017,0.090980,10.333374,0.015963,0.005321,0.010642,12.263672,84.510937,18.562500
33.023127,-1.229296,-1.418347,0.004335,-0.016468,0.095768,-0.009577,10.213664,0.015963,0.005321,0.014899,12.789258,85.383984,18.393750
33.124789,-1.507935,-1.414476,-0.016354,-0.019920,0.153229,0.071826,10.012551,0.013835,0.007450,0.010642,13.139648,83.987109,20.418750
33.226520,-1.238331,-1.396880,-0.006646,-0.010811,0.076614,0.023942,10.093954,0.015963,0.005321,0.013835,14.190820,81.891797,18.393750
33.327979,-1.494227,-1.406754,-0.010498,-0.000100,0.100556,0.062249,10.213664,0.017028,0.006385,0.010642,14.366016,84.161719,19.237500
33.429683,-1.697882,-1.386195,-0.009022,-0.011252,0.110133,0.028730,10.199299,0.013835,0.007450,0.013835,15.066797,83.812500,18.562500
