Time, Altitude, Yaw, Pitch, Roll, Ax, Ay, Az, Pitch_rate, Roll_rate,Yaw_rate, Magx, Magy, Magz
0.762702,0.368696,0.095319,0.149262,-0.041022,1.939303,2.624045,9.418789,-0.013835,0.010642,-0.002128,-23.203125,-26.102344,38.402344
0.862769,0.513270,0.238100,0.281999,-0.105221,1.991976,2.624045,9.414001,-0.015963,0.013835,0.000000,-24.609375,-24.338672,37.382812
0.962945,0.740424,0.436249,0.322492,-0.170873,1.915361,2.662352,9.423578,-0.014899,0.012771,-0.001064,-23.203125,-24.338672,36.703125
1.063178,0.570666,0.634966,0.301021,-0.193767,2.025495,2.528277,9.337386,-0.017028,0.009578,-0.002128,-21.972656,-24.515039,37.892578
1.164659,0.470985,0.824228,0.283431,-0.199532,1.987187,2.576161,9.567230,-0.017028,0.008514,-0.003193,-21.972656,-24.515039,37.892578
1.266676,0.494504,1.005878,0.275124,-0.198127,2.025495,2.513912,9.485827,-0.019156,0.014899,-0.001064,-23.730469,-24.515039,38.912109
1.368136,0.186969,1.181968,0.271087,-0.195987,1.996764,2.552219,9.476250,-0.017028,0.011706,0.000000,-23.027344,-24.515039,35.513672
1.469157,0.211287,1.351666,0.268092,-0.185858,1.977611,2.643199,9.495404,-0.015963,0.010642,0.002128,-22.500000,-24.691406,37.382812
1.570844,0.312833,1.514628,0.268120,-0.165149,1.963245,2.528277,9.548076,-0.020220,0.013835,-0.002128,-22.851562,-25.749609,37.042969
1.672237,0.160125,1.673190,0.273096,-0.141746,1.924938,2.628833,9.313444,-0.018092,0.010642,-0.004257,-22.851562,-25.749609,37.042969
1.773972,0.266041,1.827268,0.283604,-0.112870,1.991976,2.489970,9.461885,-0.015963,0.012771,-0.002128,-22.324219,-25.220508,36.873047
1.875475,0.208016,1.979359,0.299451,-0.085918,2.054225,2.633622,9.414001,-0.017028,0.013835,-0.002128,-23.203125,-26.455078,36.023438
1.977385,0.017164,2.130126,0.317645,-0.058897,1.929727,2.638410,9.509769,-0.014899,0.011706,-0.002128,-22.500000,-24.691406,37.382812
2.079274,0.407715,2.279238,0.332185,-0.028150,1.968034,2.604891,9.437943,-0.017028,0.012771,-0.001064,-22.500000,-24.691406,37.382812
2.181188,0.255768,2.298833,0.327890,-0.026604,1.905785,2.552219,9.414001,-0.013835,0.010642,-0.002128,-23.906250,-26.102344,38.062500
2.283188,0.282235,2.289414,0.327303,-0.013367,1.987187,2.600103,9.533711,-0.018092,0.008514,-0.003193,-23.378906,-25.573242,37.552734
2.385168,0.159293,2.289688,0.321730,-0.014284,1.934515,2.547431,9.457097,-0.019156,0.015963,-0.001064,-23.378906,-25.573242,37.552734
2.487261,0.465227,2.289195,0.329451,-0.013524,2.039860,2.590526,9.648633,-0.015963,0.007450,-0.001064,-21.445312,-23.985937,38.062500
2.588913,0.106383,2.295330,0.339486,-0.026988,2.087744,2.624045,9.375694,-0.014899,0.013835,0.000000,-21.445312,-23.985937,38.062500
2.690580,0.254661,2.311110,0.334897,-0.024138,1.987187,2.643199,9.476250,-0.015963,0.012771,0.000000,-23.554688,-24.338672,36.363281
2.792117,-0.006361,2.317644,0.325619,-0.041648,1.939303,2.633622,9.514557,-0.020220,0.012771,-0.001064,-23.027344,-23.809570,37.892578
2.893689,0.405189,2.288725,0.337710,-0.023507,2.015918,2.614468,9.375694,-0.019156,0.013835,-0.001064,-22.500000,-25.396875,36.363281
2.995941,0.272578,2.312637,0.338048,-0.032649,2.059013,2.600103,9.385271,-0.019156,0.012771,-0.001064,-21.972656,-23.456836,36.873047
3.097747,0.039289,2.300045,0.329907,-0.040716,1.934515,2.633622,9.394847,-0.014899,0.009578,-0.001064,-22.148438,-23.985937,37.042969
3.199898,0.382630,2.279805,0.334340,-0.023443,1.991976,2.624045,9.524134,-0.018092,0.011706,-0.002128,-21.972656,-25.220508,38.232422
3.301767,0.235926,2.295467,0.326459,-0.034594,1.900996,2.489970,9.548076,-0.019156,0.013835,0.002128,-23.730469,-23.809570,38.912109
3.403640,0.483920,2.329037,0.318258,-0.045376,1.867477,2.557007,9.481039,-0.015963,0.008514,-0.002128,-23.730469,-23.809570,38.912109
3.505249,-0.003343,2.344950,0.332232,-0.050271,1.920150,2.600103,9.303868,-0.019156,0.012771,0.002128,-23.906250,-23.280469,38.062500
3.606859,0.435956,2.319883,0.316825,-0.038108,1.810016,2.552219,9.591172,-0.012771,-0.011706,-0.004257,-23.554688,-24.338672,37.382812
3.709134,0.282159,2.301720,0.323056,-0.011993,1.944092,2.504335,9.279926,-0.017028,0.014899,0.001064,-24.082031,-25.573242,37.212891
3.810219,0.214178,2.291734,0.330690,-0.009338,1.968034,2.537854,9.385271,-0.017028,0.008514,-0.001064,-21.621094,-23.456836,37.212891
3.911708,0.320406,2.309974,0.321500,-0.037412,1.944092,2.547431,9.380482,-0.015963,0.008514,0.001064,-23.027344,-24.515039,38.572266
4.013131,0.494572,2.316202,0.329638,-0.020280,2.015918,2.537854,9.442731,-0.020220,0.008514,-0.003193,-23.554688,-24.338672,36.363281
4.115006,0.472988,2.279770,0.336965,-0.022028,1.948880,2.528277,9.313444,-0.018092,0.012771,-0.001064,-22.148438,-25.396875,37.382812
4.216322,0.078666,2.276674,0.330755,-0.029050,1.881843,2.604891,9.327810,-0.015963,0.012771,0.001064,-22.148438,-25.396875,37.382812
4.318227,0.234077,2.268290,0.322098,-0.002849,1.958457,2.547431,9.548076,-0.017028,0.007450,0.000000,-21.621094,-24.867773,37.552734
4.419819,-0.242170,2.291226,0.329578,-0.028431,2.025495,2.662352,9.418789,-0.014899,0.008514,-0.002128,-24.433594,-24.515039,37.212891
4.521724,-0.159267,2.334103,0.367735,-0.046203,2.504335,3.303998,9.236830,-0.084074,0.496993,0.144734,-24.433594,-24.515039,37.212891
4.623009,0.504568,2.313256,0.302491,-0.052840,1.388637,2.513912,9.801862,0.010642,-0.204331,-0.041505,-23.378906,-23.809570,36.873047
4.724759,0.132428,2.308530,0.328941,-0.018313,1.920150,2.542642,9.481039,-0.014899,-0.003193,-0.002128,-23.554688,-24.338672,39.082031
4.826060,0.216328,2.309253,0.284624,-0.059560,1.364695,2.590526,9.691728,0.075560,0.063853,-0.017028,-23.554688,-24.338672,39.082031
4.928241,0.246463,2.298995,0.269048,-0.049553,1.436521,2.269703,9.447520,-0.047890,0.100037,0.008514,-22.324219,-23.104102,40.271484
5.029926,-0.037972,2.326294,0.224620,-0.073147,1.297657,2.250550,10.884041,-0.269249,0.617250,-0.323524,-22.675781,-18.871289,42.650391
5.131791,0.473986,2.364773,0.162624,-0.155922,1.517924,1.838747,10.735600,-0.460809,1.284519,-0.169212,-19.160156,-4.409180,40.271484
5.233912,0.489594,2.372035,0.063159,-0.248356,-1.115698,1.053449,8.518570,0.097909,0.527855,-0.327781,-15.996094,12.874805,39.251953
5.335663,0.347508,2.414129,0.022663,-0.352032,-1.972822,1.728614,9.797073,-0.771563,-0.475708,-0.085138,-15.996094,12.874805,39.251953
5.437366,0.608440,2.473565,0.043056,-0.230823,-0.038307,0.081403,8.662222,-1.097215,-0.024477,-0.230937,-10.546875,13.403906,37.722656
5.538907,0.422521,2.555772,0.104017,-0.207406,-0.134075,-0.215478,8.987833,-0.085138,-0.316075,-0.223487,-10.546875,13.403906,37.722656
5.641264,0.284434,2.670788,0.183265,-0.179719,0.201113,-0.095768,10.065224,-0.007450,-0.352258,0.030863,-1.582031,15.343945,36.193359
5.742311,0.321388,2.734375,0.105991,-0.115914,0.114922,-0.119710,10.199299,0.044697,0.035119,0.035119,-1.054688,9.876563,37.382812
5.843782,0.383534,2.855316,0.111094,-0.159659,0.086191,0.210690,9.610325,-0.086202,0.064918,0.028734,-1.757812,11.287500,36.023438
5.945057,0.554384,2.947925,0.078379,-0.116618,0.148441,-0.119710,10.285490,-0.078753,-0.039376,0.038312,-2.285156,8.994727,36.873047
6.046415,0.442462,3.060131,0.089022,-0.122010,0.483629,0.095768,10.146627,-0.092588,-0.125578,-0.027670,-2.636719,8.994727,36.873047
6.148436,0.144989,-3.086278,0.083860,-0.121571,0.421379,0.052672,10.299856,-0.023413,0.026606,-0.021284,-2.636719,8.994727,36.873047
6.249618,0.098667,-2.972338,0.068117,-0.079579,0.560243,-0.095768,9.730036,-0.041505,0.042569,-0.023413,-3.867188,7.054688,37.382812
6.351888,0.128431,-2.842139,0.055483,-0.127333,0.244209,0.196325,10.046070,0.022349,-0.112808,0.017028,-2.988281,9.700195,36.193359
6.453718,-0.083490,-2.690920,0.069449,-0.120814,0.670376,0.086191,9.734824,0.086202,-0.042569,-0.007450,-2.988281,9.700195,36.193359
6.555039,0.239154,-2.605088,0.028326,-0.069377,0.531513,0.229843,10.390835,0.073431,-0.017028,-0.040441,-4.042969,6.878320,37.892578
6.656652,-0.178682,-2.559355,0.026467,-0.066226,0.397437,0.239420,9.998186,0.002128,0.074496,-0.028734,-3.164062,6.349219,36.703125
6.758361,-0.060168,-2.492751,0.024636,-0.070668,0.392649,0.158017,9.864111,0.007450,0.042569,-0.020220,-3.164062,6.349219,36.703125
6.860006,-0.101701,-2.450778,0.030151,-0.076380,0.588974,0.258574,9.998186,-0.006385,0.027670,-0.005321,-3.164062,6.349219,36.703125
6.961765,0.025810,-2.420159,0.019165,-0.069422,0.488417,0.430956,9.892841,-0.001064,0.031927,-0.004257,-4.394531,7.583789,37.212891
7.063420,-0.106703,-2.336284,0.014566,-0.083961,0.617704,0.306458,9.921572,-0.026606,0.053211,0.004257,-3.164062,8.465625,37.382812
7.165460,-0.657680,-2.282032,0.003743,-0.074621,0.402226,0.292093,10.017340,-0.013835,0.036184,-0.018092,-2.812500,8.112891,36.363281
7.267050,0.174292,-2.231935,0.004993,-0.078042,0.440533,0.296881,10.113108,-0.039376,0.036184,-0.004257,-2.109375,8.112891,37.382812
7.368396,-0.594537,-2.201786,-0.006157,-0.051826,0.368707,0.411803,9.940725,-0.014899,0.053211,-0.019156,-3.339844,7.231055,36.533203
7.469586,-0.215866,-2.199130,0.000352,-0.057393,0.292093,0.244209,9.854534,0.017028,-0.030863,-0.034055,-3.164062,8.465625,38.742188
7.571189,-0.408283,-2.188944,-0.013858,-0.055642,0.339977,0.344765,9.907206,0.029798,-0.039376,-0.002128,-3.691406,8.641992,37.552734
7.673650,0.100640,-2.190325,-0.008458,-0.037227,0.359130,0.349553,10.237606,-0.009578,0.006385,-0.012771,-3.691406,8.641992,37.552734
7.774613,-0.055635,-2.192151,-0.006542,-0.066576,0.402226,0.282516,9.911995,-0.032991,0.009578,-0.015963,-3.691406,8.641992,37.552734
7.876163,-0.156010,-2.230128,0.047616,-0.056289,0.866701,0.138864,9.739612,-0.095780,-0.047890,0.037248,-4.394531,8.289258,37.892578
7.978382,-0.380500,-2.225149,0.039924,-0.030279,0.450110,-0.335188,10.831368,0.087266,-0.266056,-0.045762,-3.867188,7.407422,36.703125
8.080196,0.037004,-2.229995,0.036521,-0.048147,0.344765,-0.043096,8.767566,0.343744,0.336295,0.034055,-2.460938,6.349219,35.683594
8.182074,-0.094976,-2.221883,-0.044492,-0.019960,-0.062249,0.766145,9.816227,0.154313,0.088331,0.009578,-4.921875,6.349219,37.722656
8.283758,-0.541537,-2.247920,-0.057828,-0.018658,-0.411803,0.617704,10.386047,0.410791,0.144734,-0.324588,-4.746094,6.525586,39.591797
8.384670,0.229259,-2.311057,-0.096311,-0.057777,-0.067038,1.331176,9.859322,0.585323,0.103230,-0.200074,-4.746094,6.525586,39.591797
8.485825,-0.156547,-2.455907,-0.167979,-0.080337,-0.521936,2.020706,10.285490,0.638535,0.235194,-0.159634,-11.601562,11.287500,37.042969
8.588094,-0.172888,-2.604723,-0.167239,-0.149285,-0.325611,2.557007,9.519346,0.642791,0.152184,-0.104294,-17.402344,13.933008,35.173828
8.689699,-0.459222,-2.789570,-0.166842,-0.248297,-0.536301,3.347094,9.318233,0.561910,0.057468,-0.154313,-17.402344,13.933008,35.173828
8.791066,-0.234903,-2.914175,-0.156786,-0.371688,-0.617704,3.663129,8.916007,0.402277,0.116000,-0.229872,-27.070312,17.989453,26.507812
8.892610,-0.116800,-2.906961,-0.215149,-0.390132,-1.058237,3.969586,9.011775,0.278827,0.118129,-0.169212,-32.167969,21.340430,25.998047
8.994516,-0.254482,-2.896483,-0.258856,-0.387044,-1.422156,4.175488,9.083601,0.136221,0.244772,-0.120257,-32.695312,22.927734,24.128906
9.095647,-0.534360,-2.872748,-0.276356,-0.390877,-1.369483,4.414908,9.088390,0.195817,0.293726,-0.077688,-33.046875,23.985937,22.769531
9.197330,-0.169127,-2.878354,-0.316668,-0.418626,-1.685518,4.510676,8.628703,0.203267,0.166019,-0.077688,-33.046875,23.985937,22.769531
9.299479,-0.251020,-2.813036,-0.354231,-0.413712,-1.771709,4.702212,8.475474,0.104294,0.107487,-0.055340,-33.398438,25.749609,19.710938
9.401297,-0.120433,-2.798331,-0.400119,-0.397580,-2.025495,4.774038,8.307880,0.029798,-0.006385,-0.081945,-34.980469,27.689648,19.201172
9.502915,-0.124834,-2.751487,-0.373456,-0.361209,-1.661576,4.577714,8.743624,-0.046826,0.032991,-0.092588,-33.925781,26.984180,18.181641
9.604701,-0.021161,-2.727458,-0.401833,-0.353813,-2.035071,4.539406,8.671798,-0.101101,0.057468,-0.039376,-35.332031,28.747852,18.861328
9.706246,-0.537367,-2.710983,-0.410682,-0.344208,-2.054225,4.496311,8.628703,-0.111744,0.031927,-0.021284,-34.101562,28.924219,19.031250
9.808072,-0.069265,-2.693034,-0.399204,-0.342492,-2.006341,4.587290,8.695740,-0.051083,0.055340,-0.011706,-34.980469,29.806055,18.521484
9.910269,-0.313818,-2.697476,-0.410013,-0.339609,-1.977611,4.544195,8.599972,-0.020220,-0.008514,-0.010642,-34.980469,29.806055,18.521484
10.011451,-0.170340,-2.684493,-0.412745,-0.320030,-2.030283,4.405331,8.619126,-0.031927,-0.006385,-0.014899,-34.980469,29.806055,18.521484
10.113642,0.039439,-2.673830,-0.408057,-0.311872,-1.996764,4.410119,8.595184,-0.050019,0.021284,-0.008514,-34.277344,29.100586,17.501953
10.215536,-0.148705,-2.633930,-0.409833,-0.275787,-2.068590,4.280833,8.825027,-0.110679,-0.021284,0.008514,-32.871094,30.158789,19.880859
10.317096,-0.463834,-2.608929,-0.413607,-0.267470,-1.939303,4.022259,8.446743,-0.147927,-0.012771,0.035119,-32.167969,29.806055,19.880859
10.420262,0.008753,-2.632436,-0.387511,-0.236702,-2.063802,3.677494,8.667010,-0.640663,-0.036184,0.043633,-31.640625,26.807813,19.710938
10.522246,-0.247088,-2.540217,-0.324117,-0.136408,-1.810016,2.753332,8.920795,-0.857765,-0.005321,0.101101,-29.179688,27.160547,24.128906
10.623515,-0.076153,-2.519686,-0.270634,-0.130201,-1.369483,2.791639,9.868899,-0.368222,0.015963,0.220294,-24.785156,23.104102,28.376953
10.725145,-0.302765,-2.558689,-0.271366,-0.130891,-1.527501,2.782062,9.859322,-0.233065,-0.147927,0.311818,-23.378906,20.282227,32.115234
10.826281,-0.072454,-2.588168,-0.178402,-0.142602,-0.521936,2.212242,9.600749,-0.108551,-0.368222,0.461873,-20.390625,15.873047,35.003906
10.928062,-0.133000,-2.674099,-0.145922,-0.168872,-0.234632,2.327164,9.677363,-0.106422,-0.418240,0.477837,-20.390625,15.873047,35.003906
11.029662,-0.437284,-2.723683,-0.092986,-0.182113,0.172383,2.164358,10.395624,-0.008514,-0.029798,0.086202,-20.390625,15.873047,35.003906
11.131155,-0.623282,-2.838175,-0.057972,-0.121178,-0.071826,2.346318,9.701305,0.012771,0.004257,0.000000,-19.335938,5.996484,36.363281
11.232714,-0.116831,-3.021203,-0.041308,-0.174380,-0.191536,2.829946,9.595960,-0.008514,0.097909,-0.035119,-19.863281,5.467383,36.873047
11.335353,-0.287605,3.117506,0.025965,-0.226753,0.196325,2.427720,9.720459,-0.043633,0.048954,-0.039376,-20.390625,6.701953,36.363281
11.436895,-0.533932,3.044666,0.030988,-0.227773,0.110133,2.370260,9.653421,0.019156,-0.040441,-0.030863,-20.742188,5.643750,36.703125
11.538743,0.094864,3.005002,0.044190,-0.227153,0.138864,2.408567,9.844957,-0.060661,0.061725,-0.027670,-20.742188,5.643750,36.703125
11.639986,0.065661,2.982617,0.021615,-0.227764,-0.172383,2.614468,11.224017,-0.075560,0.092588,0.029798,-20.742188,5.643750,36.703125
11.741722,-0.431764,2.988968,0.002048,-0.238385,-0.239420,2.375048,9.983821,-0.063853,0.276698,-0.130900,-20.917969,6.172852,37.552734
11.843761,0.306069,3.102167,-0.069327,-0.266427,-0.794875,2.355894,9.528923,-0.119193,0.203267,-0.087266,-22.851562,9.876563,35.003906
11.945834,0.437740,-3.122534,-0.147391,-0.213128,-1.364695,2.006341,9.552865,-0.174533,0.151120,-0.094716,-22.851562,9.876563,35.003906
12.047713,0.053605,-3.008888,-0.108857,-0.247044,-0.550666,1.580173,9.165004,-0.293726,-0.053211,0.003193,-17.929688,16.931250,36.023438
12.149354,0.337570,-2.866166,-0.114121,-0.216396,-0.646434,1.891419,9.667786,-0.058532,-0.045762,-0.010642,-15.468750,15.873047,38.402344
12.250746,0.198508,-2.739404,-0.148835,-0.160551,-0.938527,1.695095,9.974244,-0.068110,-0.034055,-0.001064,-15.468750,15.873047,38.402344
12.352071,0.006351,-2.628128,-0.150972,-0.134674,-0.881066,1.565808,9.811438,-0.170276,-0.112808,0.014899,-14.238281,16.402148,38.912109
12.453403,0.391695,-2.532551,-0.184146,-0.100516,-1.072602,1.556231,9.509769,-0.098973,-0.094716,0.034055,-14.238281,16.402148,38.912109
12.556304,0.316107,-2.549099,-0.152524,-0.064537,-0.823605,1.465251,9.974244,-0.058532,0.166019,-0.042569,-15.820312,14.109375,38.742188
12.657818,0.363578,-2.437554,-0.180073,-0.067002,-1.130063,1.455675,9.945514,-0.038312,0.093652,-0.025541,-13.886719,17.107617,38.572266
12.761878,0.288948,-2.381539,-0.093825,-0.080042,0.028730,1.369483,10.429142,-0.501250,-0.545947,0.038312,-15.117188,18.342187,38.742188
12.861743,0.083277,-2.353181,-0.095850,-0.066432,-0.244209,1.053449,9.916783,-0.089395,-0.007450,-0.004257,-11.953125,15.520312,38.402344
12.963168,0.264095,-2.318206,-0.110605,-0.025557,-0.665588,0.833182,9.725247,-0.077688,0.180918,-0.008514,-10.546875,14.814844,40.441406
13.065474,0.278478,-2.263074,-0.101996,-0.028330,-0.373495,0.814029,9.792285,0.025541,-0.005321,0.025541,-10.546875,14.814844,40.441406
13.167323,0.052765,-2.245248,-0.113639,-0.042515,-0.483629,0.948104,9.610325,0.172404,-0.027670,0.133028,-10.371094,15.343945,39.931641
13.268810,0.209881,-2.248210,-0.115294,0.000215,-0.560243,0.785298,10.055647,0.105358,-0.130900,0.085138,-10.546875,12.698437,39.761719
13.371249,0.319365,-2.305605,-0.109390,-0.035251,-0.043096,1.355118,9.782708,0.112808,0.025541,0.119193,-12.480469,12.169336,38.572266
13.472598,0.465946,-2.413553,-0.113110,-0.054056,-0.234632,1.431733,9.715670,0.236258,-0.063853,0.133028,-11.601562,10.229297,39.082031
13.574320,0.643047,-2.479384,-0.129788,-0.081246,-0.378284,1.915361,9.342175,0.085138,-0.277763,0.141542,-11.601562,10.229297,39.082031
13.676233,0.402425,-2.575553,-0.034876,-0.032559,0.114922,1.838747,10.079589,0.060661,-0.193689,0.146863,-13.183594,2.292773,37.892578
13.779005,0.256220,-2.730840,-0.006368,-0.025193,0.622492,2.116474,9.447520,0.228808,-0.425690,-0.041505,-15.644531,-1.234570,35.513672
13.881212,-0.131465,-2.900643,0.072103,-0.028147,0.976834,2.159570,9.500192,0.295854,-0.443782,0.050019,-16.347656,-5.114648,34.833984
13.983530,-0.067085,-3.078102,0.130151,-0.010419,1.244985,2.662352,10.247183,-0.017028,0.096844,-0.013835,-19.863281,-10.052930,35.173828
14.085837,0.426651,3.024770,0.158117,-0.029926,1.120486,2.240973,9.725247,0.030863,-0.055340,-0.018092,-20.214844,-10.405664,32.794922
14.186878,0.344103,2.846046,0.183902,-0.062755,1.244985,2.801216,9.543288,-0.010642,0.014899,-0.044697,-21.269531,-10.758398,33.474609
14.289234,-0.037878,2.678084,0.223047,-0.086446,1.345541,2.557007,9.974244,-0.004257,0.001064,-0.011706,-21.796875,-11.992969,34.324219
14.391638,0.240420,2.531322,0.254359,-0.133041,1.187524,2.695871,9.552865,0.001064,0.041505,-0.003193,-21.796875,-11.992969,34.324219
14.494333,0.272332,2.517762,0.247978,-0.135942,1.254562,2.437297,9.471462,0.019156,0.036184,-0.032991,-21.445312,-11.640234,32.964844
14.597935,0.494501,2.479402,0.269378,-0.112503,1.288080,2.480393,9.495404,-0.021284,0.020220,0.025541,-21.796875,-13.051172,33.984375
14.698429,0.258388,2.506455,0.267498,-0.128899,1.211466,3.007117,9.528923,-0.026606,-0.018092,0.004257,-21.445312,-11.640234,33.984375
14.800226,0.028419,2.471174,0.264360,-0.103972,1.460463,2.370260,9.658209,-0.012771,-0.010642,-0.001064,-20.566406,-13.227539,33.474609
14.903473,0.515843,2.506937,0.251314,-0.141149,1.201889,2.614468,9.677363,-0.023413,0.008514,0.013835,-24.082031,-13.227539,33.134766
15.006330,0.344656,2.493846,0.256455,-0.107313,1.268927,2.442086,9.485827,-0.014899,0.012771,0.003193,-21.445312,-14.109375,33.304688
15.106109,0.314114,2.451935,0.249367,-0.106648,1.264138,2.365471,9.629479,-0.015963,0.005321,-0.006385,-21.445312,-14.109375,33.304688
15.208818,0.312405,2.458650,0.262933,-0.109831,1.302446,2.499547,9.591172,-0.014899,0.006385,0.003193,-21.445312,-14.109375,33.304688
15.309482,-0.387154,2.502325,0.257442,-0.123191,1.312023,2.466028,9.634267,-0.008514,0.007450,-0.009578,-22.148438,-12.698437,33.644531
15.411512,0.537987,2.470199,0.261594,-0.110712,1.312023,2.528277,9.672575,-0.021284,0.003193,-0.002128,-22.148438,-13.756641,33.644531
15.514228,0.189543,2.495979,0.266103,-0.110697,1.417367,2.470816,9.586383,-0.018092,0.007450,0.000000,-22.500000,-13.051172,32.964844
15.614879,0.241523,2.486420,0.271303,-0.115540,1.364695,2.542642,9.619902,-0.012771,0.010642,-0.001064,-21.972656,-13.580273,32.794922
15.717170,0.258516,2.488726,0.265608,-0.106971,1.340753,2.499547,9.653421,-0.019156,0.008514,0.003193,-21.796875,-12.698437,33.984375
15.818964,0.111221,2.481355,0.260794,-0.112184,1.292869,2.418144,9.591172,-0.017028,0.005321,-0.002128,-21.621094,-12.874805,33.814453
15.921249,0.220303,2.487822,0.269770,-0.116465,1.340753,2.518700,9.533711,-0.021284,0.007450,-0.004257,-21.621094,-12.874805,33.814453
16.023034,0.400256,2.464178,0.273432,-0.092086,1.417367,2.408567,9.466673,-0.015963,0.006385,-0.002128,-21.621094,-13.933008,33.814453
16.125679,-0.439596,2.466595,0.272595,-0.101241,1.417367,2.518700,9.576807,-0.025541,0.008514,-0.003193,-23.378906,-14.991211,33.474609
16.227113,0.372667,2.466748,0.262059,-0.102880,1.355118,2.413355,9.610325,-0.010642,0.010642,-0.001064,-22.324219,-14.285742,32.455078
16.328875,-0.120873,2.448066,0.272756,-0.098958,1.359907,2.552219,9.581595,-0.023413,0.008514,0.001064,-21.972656,-14.638477,32.115234
16.430618,0.105398,2.457483,0.255381,-0.111413,1.340753,2.470816,9.591172,-0.014899,0.014899,-0.004257,-21.972656,-14.638477,32.115234
16.532854,0.310513,2.440226,0.285236,-0.099018,1.422156,2.499547,9.691728,-0.015963,0.010642,0.000000,-21.796875,-15.167578,31.605469
16.634164,0.579813,2.449967,0.261468,-0.110193,1.359907,2.528277,9.634267,-0.012771,0.011706,-0.002128,-22.324219,-13.933008,34.154297
16.737189,0.259495,2.461550,0.263079,-0.105384,1.350330,2.533065,9.490615,-0.013835,0.010642,-0.001064,-22.324219,-13.933008,34.154297
16.838852,0.211030,2.463328,0.271841,-0.112431,1.379060,2.485181,9.495404,-0.020220,0.009578,-0.001064,-22.148438,-14.462109,32.964844
16.940602,0.106021,2.470990,0.254481,-0.107884,1.359907,2.456451,9.576807,-0.014899,0.007450,-0.001064,-21.621094,-13.580273,34.494141
17.042433,0.080294,2.469447,0.258073,-0.105841,1.312023,2.499547,9.658209,-0.020220,0.005321,0.004257,-24.082031,-15.343945,33.814453
17.144166,0.015890,2.488837,0.268314,-0.121402,1.383849,2.533065,9.581595,-0.020220,0.009578,-0.002128,-20.566406,-12.169336,33.134766
17.245901,0.041147,2.452942,0.263955,-0.095766,1.350330,2.456451,9.605537,-0.021284,0.013835,0.000000,-22.148438,-14.814844,33.644531
17.347842,0.084801,2.445822,0.264181,-0.101654,1.302446,2.442086,9.514557,-0.014899,0.009578,-0.004257,-22.148438,-14.814844,33.644531
17.449839,-0.407377,2.446647,0.258157,-0.098289,1.283292,2.470816,9.624691,-0.015963,0.012771,0.001064,-22.148438,-14.814844,33.644531
17.551114,0.267762,2.467865,0.272663,-0.106040,1.321599,2.489970,9.504981,-0.015963,0.010642,-0.002128,-22.148438,-14.109375,32.285156
17.652938,0.386411,2.469456,0.269455,-0.098183,1.403002,2.475605,9.457097,-0.012771,0.011706,-0.003193,-21.796875,-13.756641,32.285156
17.754467,-0.063090,2.461371,0.266276,-0.100386,1.388637,2.470816,9.648633,-0.020220,0.012771,0.000000,-22.324219,-14.638477,32.115234
17.856541,0.301984,2.471305,0.272081,-0.115073,1.393425,2.528277,9.490615,-0.014899,0.009578,-0.002128,-21.445312,-13.756641,31.945312
17.958321,0.302490,2.481562,0.272249,-0.105211,1.340753,2.513912,9.581595,-0.017028,0.009578,-0.001064,-21.445312,-12.698437,32.625000
18.063146,0.167694,2.468877,0.262952,-0.113707,1.345541,2.504335,9.696517,-0.013835,0.014899,-0.002128,-21.972656,-14.285742,34.154297
18.163918,0.060771,2.467649,0.267445,-0.114279,1.350330,2.557007,9.672575,-0.014899,0.012771,-0.001064,-23.554688,-14.462109,33.984375
18.265534,0.108533,2.473051,0.258474,-0.106419,1.331176,2.557007,9.758766,-0.021284,0.011706,-0.003193,-23.554688,-14.462109,33.984375
18.367809,0.062152,2.449642,0.274570,-0.109059,1.393425,2.557007,9.572018,-0.020220,0.014899,0.001064,-22.324219,-15.343945,33.474609
18.471024,-0.231591,2.439472,0.258435,-0.103143,1.244985,2.427720,9.725247,-0.018092,0.008514,-0.002128,-22.324219,-15.343945,33.474609
18.572355,-0.175511,2.476726,0.268188,-0.123293,1.364695,2.518700,9.605537,-0.015963,0.011706,-0.002128,-21.972656,-13.933008,32.455078
18.674277,-0.023292,2.498162,0.252064,-0.113509,1.307234,2.504335,9.634267,-0.011706,0.013835,-0.002128,-22.675781,-12.874805,33.134766
18.782233,0.121910,2.475467,0.265037,-0.098448,1.426944,2.456451,9.715670,-0.015963,0.011706,0.001064,-22.675781,-14.285742,33.474609
18.884553,0.208929,2.471317,0.263203,-0.118518,1.383849,2.475605,9.586383,-0.019156,0.012771,-0.001064,-20.742188,-13.051172,33.984375
18.984484,-0.049795,2.462976,0.265205,-0.101197,1.355118,2.470816,9.605537,-0.014899,0.010642,-0.005321,-20.742188,-13.051172,33.984375
19.084741,-0.283992,2.458973,0.269020,-0.101825,1.364695,2.523489,9.610325,-0.011706,0.012771,-0.002128,-20.742188,-13.051172,33.984375
19.187679,-0.262152,2.427200,0.272888,-0.102621,1.388637,2.561796,9.591172,-0.018092,0.013835,0.000000,-20.917969,-14.991211,32.794922
19.288681,0.151867,2.430906,0.266038,-0.091112,1.345541,2.446874,9.595960,-0.018092,0.009578,0.001064,-20.390625,-14.109375,34.664062
19.390178,-0.384637,2.433425,0.270872,-0.101501,1.403002,2.432509,9.562441,-0.015963,0.009578,-0.010642,-20.390625,-14.109375,34.664062
19.492454,0.105569,2.459702,0.264995,-0.091011,1.431733,2.351106,9.567230,-0.019156,0.010642,0.005321,-21.972656,-14.285742,34.833984
19.594927,0.116165,2.446119,0.257620,-0.108271,1.326388,2.418144,9.634267,-0.014899,0.010642,0.001064,-21.445312,-14.814844,32.625000
19.696354,0.031286,2.429158,0.274535,-0.089884,1.379060,2.398990,9.466673,-0.022349,0.009578,-0.002128,-21.445312,-15.520312,32.285156
19.797992,-0.028569,2.434222,0.270408,-0.102239,1.417367,2.466028,9.624691,-0.015963,0.010642,-0.002128,-22.500000,-15.873047,33.304688
19.900385,-0.069631,2.433171,0.274364,-0.095198,1.355118,2.466028,9.634267,-0.013835,0.011706,-0.001064,-22.500000,-15.873047,33.304688
20.001952,-0.127034,2.462971,0.255642,-0.099887,1.369483,2.413355,9.548076,-0.023413,0.010642,0.003193,-21.972656,-14.285742,33.474609
20.103934,-0.316855,2.478850,0.261777,-0.126097,1.350330,2.557007,9.720459,-0.018092,0.010642,-0.001064,-22.324219,-13.933008,33.474609
20.205274,0.190150,2.478585,0.268983,-0.103774,1.441309,2.480393,9.634267,-0.019156,0.009578,0.000000,-22.324219,-13.933008,33.474609
20.307248,0.122021,2.414516,0.275787,-0.090544,1.446098,2.494758,9.624691,-0.017028,0.006385,0.000000,-21.093750,-15.520312,33.304688
20.410239,-0.161513,2.451803,0.262861,-0.100921,1.369483,2.375048,9.581595,-0.015963,0.014899,-0.001064,-20.742188,-13.051172,33.304688
20.512159,0.252319,2.465726,0.275573,-0.096322,1.426944,2.451662,9.428366,-0.022349,0.014899,0.002128,-22.851562,-15.167578,33.304688
20.614295,0.054622,2.460255,0.256611,-0.107613,1.355118,2.413355,9.610325,-0.018092,0.013835,-0.001064,-22.851562,-15.167578,33.304688
20.716112,-0.095107,2.466761,0.257015,-0.101708,1.316811,2.461239,9.615114,-0.013835,0.011706,-0.004257,-21.796875,-13.756641,32.625000
20.818836,-0.022957,2.469257,0.263541,-0.094655,1.364695,2.437297,9.576807,-0.021284,0.010642,-0.001064,-21.796875,-13.756641,32.625000
20.920434,-0.075917,2.453401,0.260544,-0.092816,1.345541,2.456451,9.552865,-0.013835,0.011706,0.002128,-21.445312,-13.756641,33.984375
21.022065,0.374328,2.451531,0.268028,-0.097632,1.379060,2.461239,9.572018,-0.019156,0.009578,0.000000,-22.324219,-14.638477,34.494141
21.124195,0.286355,2.459778,0.256852,-0.093492,1.350330,2.398990,9.706094,-0.013835,0.011706,-0.001064,-21.269531,-13.580273,33.474609
21.226610,-0.163795,2.452586,0.269229,-0.097251,1.359907,2.528277,9.610325,-0.018092,0.011706,-0.003193,-23.378906,-15.343945,34.494141
21.330742,0.226503,2.462055,0.274979,-0.091131,1.508347,2.451662,9.639056,-0.013835,0.009578,-0.002128,-23.378906,-15.343945,34.494141
21.431938,0.056289,2.456499,0.256755,-0.103789,1.288080,2.437297,9.586383,-0.017028,0.011706,0.000000,-23.378906,-15.343945,34.494141
21.534321,0.101602,2.483999,0.268473,-0.119790,1.374272,2.494758,9.476250,-0.014899,0.010642,-0.002128,-21.621094,-12.874805,35.173828
21.636201,0.234675,2.482023,0.262435,-0.119596,1.355118,2.442086,9.610325,-0.018092,0.013835,-0.001064,-22.148438,-13.756641,33.644531
21.738064,0.150629,2.503988,0.259539,-0.107838,1.364695,2.466028,9.615114,-0.015963,0.012771,0.000000,-21.445312,-11.992969,33.304688
21.839874,0.049926,2.468460,0.276515,-0.119791,1.407791,2.533065,9.476250,-0.012771,0.018092,0.005321,-22.500000,-14.814844,32.285156
21.942474,0.307473,2.486515,0.260069,-0.100481,1.364695,2.456451,9.686940,-0.026606,0.006385,-0.001064,-22.148438,-13.051172,33.644531
22.044684,0.162843,2.463470,0.260700,-0.114339,1.340753,2.489970,9.600749,-0.013835,0.008514,-0.003193,-21.621094,-13.933008,33.474609
22.146423,-0.034210,2.464024,0.270947,-0.115538,1.383849,2.489970,9.495404,-0.014899,0.011706,0.000000,-21.621094,-13.933008,33.474609
22.248158,0.113410,2.474449,0.259911,-0.103569,1.345541,2.427720,9.619902,-0.017028,0.012771,-0.001064,-21.621094,-13.580273,31.095703
22.350007,-0.050196,2.476772,0.271234,-0.116606,1.369483,2.518700,9.552865,-0.020220,0.008514,0.000000,-23.203125,-14.462109,34.324219
22.451413,-0.094416,2.438995,0.275662,-0.093147,1.450886,2.494758,9.595960,-0.012771,0.017028,0.001064,-21.621094,-14.991211,32.455078
22.554041,0.216399,2.449308,0.272572,-0.115730,1.350330,2.533065,9.658209,-0.014899,0.009578,0.001064,-21.621094,-14.638477,33.134766
22.655550,0.319751,2.458521,0.266997,-0.109164,1.340753,2.480393,9.442731,-0.017028,0.012771,0.000000,-21.269531,-13.933008,33.814453
22.757118,0.119957,2.461350,0.266836,-0.106607,1.355118,2.456451,9.572018,-0.018092,0.009578,-0.002128,-21.972656,-14.285742,32.794922
22.859298,0.077287,2.455200,0.267953,-0.097809,1.335965,2.451662,9.710882,-0.010642,0.012771,-0.005321,-20.742188,-15.520312,32.964844
22.960935,0.348401,2.409600,0.272287,-0.082718,1.379060,2.456451,9.576807,-0.015963,0.008514,-0.004257,-20.742188,-15.520312,32.964844
23.063281,0.298622,2.445325,0.274374,-0.097140,1.412579,2.561796,9.682152,-0.013835,0.013835,0.001064,-21.796875,-14.814844,31.605469
23.165736,0.107080,2.437209,0.270059,-0.094211,1.379060,2.494758,9.533711,-0.019156,0.013835,-0.003193,-20.214844,-13.933008,32.115234
23.267610,0.369158,2.481517,0.267728,-0.120832,1.350330,2.509123,9.437943,-0.018092,0.013835,-0.005321,-21.972656,-13.580273,31.775391
23.368940,0.336563,2.464990,0.264879,-0.102010,1.345541,2.513912,9.686940,-0.010642,0.008514,-0.001064,-21.796875,-13.756641,33.304688
23.470314,0.088143,2.468369,0.260345,-0.096566,1.417367,2.470816,9.509769,-0.015963,0.011706,-0.002128,-21.796875,-13.756641,33.304688
23.572769,0.167611,2.467938,0.255919,-0.119628,1.292869,2.427720,9.562441,-0.020220,0.008514,-0.004257,-20.917969,-13.227539,33.474609
23.674081,0.358835,2.472306,0.273091,-0.108290,1.446098,2.489970,9.548076,-0.020220,0.014899,-0.003193,-20.917969,-13.227539,33.474609
23.776605,0.168139,2.461197,0.277100,-0.108165,1.446098,2.509123,9.433155,-0.017028,0.011706,-0.002128,-22.148438,-14.462109,33.644531
23.878080,0.261206,2.487102,0.265610,-0.108679,1.426944,2.466028,9.557653,-0.019156,0.009578,0.001064,-23.730469,-14.638477,32.794922
23.980014,0.219926,2.484629,0.244906,-0.118628,1.249773,2.365471,9.610325,-0.012771,0.017028,0.003193,-21.621094,-13.227539,32.455078
24.080939,0.388976,2.464352,0.266071,-0.125348,1.278504,2.437297,9.476250,-0.018092,0.012771,-0.005321,-23.203125,-15.167578,33.304688
24.182756,0.018830,2.449685,0.257902,-0.104293,1.312023,2.466028,9.524134,-0.018092,0.008514,0.000000,-21.093750,-14.109375,32.285156
24.284358,0.199127,2.494969,0.275043,-0.104110,1.379060,2.480393,9.552865,-0.020220,0.010642,0.000000,-21.972656,-12.522070,34.833984
24.386313,0.414462,2.467816,0.275995,-0.109716,1.407791,2.470816,9.519346,-0.012771,0.011706,0.000000,-20.917969,-13.227539,34.154297
24.488083,0.470405,2.451528,0.262253,-0.109550,1.312023,2.470816,9.481039,-0.014899,0.007450,-0.006385,-21.445312,-14.109375,32.964844
24.590326,0.327149,2.457342,0.270907,-0.114656,1.364695,2.518700,9.538499,-0.015963,0.014899,0.001064,-22.324219,-14.991211,33.134766
24.692365,0.287996,2.446381,0.279754,-0.106769,1.364695,2.485181,9.519346,-0.018092,0.010642,0.001064,-20.917969,-13.933008,35.173828
24.793513,0.240141,2.446940,0.266421,-0.105151,1.422156,2.442086,9.576807,-0.017028,0.008514,0.000000,-20.917969,-13.933008,35.173828
24.895814,0.152510,2.463703,0.265706,-0.109250,1.383849,2.451662,9.567230,-0.015963,0.012771,-0.005321,-21.269531,-13.580273,33.474609
24.997790,0.395144,2.458771,0.266881,-0.105035,1.412579,2.456451,9.538499,-0.018092,0.010642,0.000000,-21.269531,-13.580273,33.474609
25.099124,0.012902,2.441572,0.262896,-0.108665,1.302446,2.432509,9.509769,-0.011706,0.007450,-0.003193,-21.093750,-14.462109,33.644531
25.200963,-0.149012,2.480501,0.254008,-0.121296,1.307234,2.466028,9.572018,-0.020220,0.008514,-0.003193,-21.796875,-13.403906,32.285156
25.302412,-0.013236,2.392202,0.269364,-0.074746,1.412579,2.427720,9.682152,-0.020220,0.010642,-0.002128,-20.039062,-15.873047,33.984375
25.403747,0.110653,2.440681,0.269922,-0.117892,1.364695,2.499547,9.581595,-0.025541,0.009578,0.001064,-22.148438,-14.109375,33.644531
25.505467,0.091991,2.475694,0.260391,-0.110508,1.393425,2.379836,9.600749,-0.013835,0.009578,-0.002128,-22.148438,-14.109375,33.644531
25.606305,0.642686,2.450191,0.260689,-0.094078,1.379060,2.466028,9.725247,-0.017028,0.009578,0.000000,-21.796875,-14.814844,33.304688
25.708004,0.125283,2.443009,0.264250,-0.095495,1.340753,2.384625,9.490615,-0.015963,0.009578,0.000000,-21.796875,-14.814844,33.304688
25.809457,0.318632,2.460039,0.271356,-0.112994,1.369483,2.537854,9.634267,-0.025541,0.002128,-0.006385,-21.269531,-13.933008,32.115234
25.911138,0.416044,2.442116,0.270840,-0.091284,1.441309,2.389413,9.624691,-0.015963,0.002128,-0.003193,-21.972656,-14.991211,34.494141
26.012352,0.169442,2.479617,0.267401,-0.121396,1.355118,2.528277,9.572018,-0.018092,0.012771,0.000000,-20.917969,-12.874805,32.455078
26.114635,-0.335596,2.480279,0.255403,-0.113477,1.359907,2.398990,9.619902,-0.013835,0.014899,0.001064,-20.917969,-12.874805,32.455078
26.217224,0.309933,2.491347,0.270918,-0.112906,1.436521,2.533065,9.567230,-0.022349,0.011706,-0.001064,-22.500000,-13.051172,34.664062
26.318795,0.073824,2.518020,0.270793,-0.123815,1.345541,2.470816,9.519346,0.001064,0.010642,-0.021284,-24.082031,-13.580273,33.474609
26.421219,0.188807,2.517769,0.263129,-0.139449,1.331176,2.576161,9.471462,0.001064,0.085138,0.011706,-24.082031,-13.580273,33.474609
26.523791,0.350987,2.486870,0.235504,-0.116154,1.058237,2.485181,10.012551,0.074496,0.205395,0.067046,-22.324219,-13.933008,32.115234
26.624920,0.345390,2.488584,0.236274,-0.141692,1.139640,2.686294,10.319009,-0.325653,0.333102,0.010642,-20.917969,-11.463867,34.154297
26.727941,0.088648,2.524716,0.166306,-0.132170,1.005565,1.905785,9.581595,-0.746021,0.303304,0.130900,-18.984375,-6.701953,33.304688
26.829778,0.356848,2.579044,0.097397,-0.102891,1.149217,1.283292,9.500192,-0.213909,0.293726,0.224551,-13.183594,-1.940039,34.833984
26.931569,0.218828,2.610529,0.015321,-0.169799,-0.660800,1.254562,9.787496,-0.242643,0.536369,0.029798,-11.250000,1.763672,36.023438
27.033788,0.105885,2.658234,0.004201,-0.208735,-0.699107,1.302446,10.338163,-0.309689,0.370350,-0.128771,-8.789062,7.407422,37.382812
27.135545,0.219335,2.708987,0.048064,-0.239351,-0.905008,0.794875,9.528923,-0.344809,0.073431,-0.154313,-6.503906,14.991211,37.552734
27.239095,0.183742,2.809935,0.098950,-0.268359,-0.430956,0.541090,9.552865,-0.123450,0.080881,-0.181982,-2.636719,18.871289,38.912109
27.341442,0.169588,2.922970,0.103743,-0.275105,-0.756568,0.454898,9.428366,0.023413,-0.013835,-0.051083,-3.164062,19.400391,36.703125
27.443756,-0.010713,3.032276,0.068853,-0.244024,-1.177947,0.033519,10.103531,0.028734,-0.137285,0.228808,-1.757812,19.047656,39.082031
27.545623,0.229868,-3.119731,0.055437,-0.236725,-1.024718,0.205901,9.816227,0.002128,-0.211781,0.050019,-1.757812,19.047656,39.082031
27.646921,0.307532,-3.024194,0.007416,-0.230959,-0.861913,0.421379,10.232818,0.233065,-0.155377,-0.004257,-2.285156,16.754883,37.552734
27.750080,0.004128,-2.941862,-0.036655,-0.182682,-0.660800,0.622492,9.959879,0.123450,0.189432,-0.105358,-4.394531,13.227539,36.533203
27.851607,0.147786,-2.819432,-0.025758,-0.169225,-0.277727,0.416591,9.370905,0.010642,0.009578,0.004257,-6.328125,14.814844,37.722656
27.953624,0.154633,-2.687388,-0.046983,-0.138621,-0.651223,0.565032,10.347740,-0.050019,-0.217102,0.093652,-3.164062,12.698437,37.722656
28.056061,0.168538,-2.576959,-0.059927,-0.111695,-0.378284,0.742203,10.017340,0.092588,-0.070239,-0.004257,-4.570312,10.582031,36.703125
28.157035,0.270366,-2.463659,-0.081673,-0.078453,-0.555455,0.833182,10.611102,-0.063853,0.105358,-0.003193,-4.746094,10.405664,36.533203
28.259472,0.178675,-2.388268,-0.134889,-0.025445,-1.450886,0.742203,10.496180,-0.459745,0.269249,-0.256478,-5.449219,15.343945,36.193359
28.361447,0.217931,-2.322055,-0.048002,-0.031951,-1.000776,-0.019154,8.633491,-0.491672,-0.050019,-0.495929,-5.449219,15.343945,36.193359
28.463008,-0.013495,-2.259216,0.013901,-0.081510,-0.684742,0.033519,10.146627,-0.261799,0.027670,-0.544883,-1.757812,18.694922,36.023438
28.565758,0.343459,-2.160643,0.069350,-0.149858,-0.450110,-0.497994,9.773131,0.088331,-0.319267,0.005321,2.988281,23.104102,38.572266
28.667164,0.210716,-2.030236,0.047932,-0.130465,-0.881066,-0.502782,10.089166,0.126643,-0.214973,0.116000,2.988281,23.104102,38.572266
28.769281,0.148766,-1.907974,0.028666,-0.052577,-0.565032,-0.450110,10.046070,0.084074,-0.106422,0.140478,0.175781,18.165820,37.212891
28.870717,0.160827,-1.785465,0.040225,-0.028761,-0.057461,-0.517148,9.715670,-0.091523,-0.057468,-0.010642,-0.703125,17.989453,37.722656
28.972910,0.571024,-1.680959,0.034173,-0.012076,-1.130063,0.009577,9.825804,0.026606,-0.087266,-0.010642,2.988281,16.049414,37.552734
29.075071,0.645179,-1.604450,0.046329,-0.042576,0.114922,-0.608127,10.007763,0.045762,-0.360772,-0.236258,2.988281,16.049414,37.552734
29.177121,-0.052160,-1.554724,0.050812,-0.067239,1.350330,-0.459687,10.778696,-0.157505,0.036184,-0.164955,1.406250,14.109375,38.742188
29.279488,0.077708,-1.572704,0.067211,-0.028225,0.225055,-0.670376,10.491392,-0.088331,0.630021,-0.105358,1.406250,14.109375,38.742188
29.381361,0.220524,-1.511067,0.100706,0.071697,-1.120486,-0.938527,10.141838,-0.368222,1.182353,0.001064,0.703125,17.989453,39.761719
29.483871,0.525487,-1.409849,0.147248,0.173494,-2.159570,-1.244985,10.002975,-0.017028,1.539932,-0.208588,4.394531,28.395117,37.212891
29.585996,0.068882,-1.331022,0.219283,0.342385,-3.610456,-1.077391,8.638280,-0.105358,1.368592,-0.117065,2.285156,40.035352,36.193359
29.687723,0.128215,-1.289607,0.344336,0.494669,-5.037400,-1.489193,7.632715,0.075560,0.865214,0.071303,2.285156,40.035352,36.193359
29.790025,0.603828,-1.272618,0.356308,0.579988,-5.846640,-1.072602,7.378930,-0.135156,0.647048,0.108551,4.218750,58.553906,27.527344
29.892701,0.157446,-1.398550,0.289353,0.689525,-6.258443,-1.029507,7.010222,-0.029798,0.211781,0.037248,2.460938,60.670313,24.808594
29.995156,0.610808,-1.441699,0.277840,0.691315,-6.560113,-1.388637,7.436390,-0.063853,0.089395,0.050019,2.460938,60.670313,24.808594
30.097631,0.322180,-1.432098,0.243018,0.668362,-6.387730,-1.139640,7.584831,-0.028734,0.059597,0.039376,2.460938,63.139453,23.449219
30.199219,0.171893,-1.421018,0.283529,0.662238,-6.215348,-1.110910,7.369353,0.005321,0.029798,0.027670,3.515625,61.023047,24.808594
30.301127,0.067267,-1.434369,0.257448,0.667287,-6.287174,-1.086968,7.431602,-0.006385,0.036184,0.022349,2.285156,60.846680,23.958984
30.402787,0.316309,-1.438528,0.278448,0.687583,-6.402095,-1.225831,7.244854,0.000000,0.011706,0.019156,1.933594,59.788477,24.638672
30.504314,0.058156,-1.438642,0.262155,0.641082,-6.143521,-1.197101,7.560889,-0.008514,-0.021284,0.011706,1.933594,61.904883,24.978516
30.605908,0.299477,-1.438137,0.243148,0.632059,-6.205771,-1.163582,7.939173,0.018092,-0.036184,0.002128,1.406250,61.023047,24.128906
30.708212,0.080835,-1.430290,0.250817,0.650990,-6.291962,-0.972046,7.656657,-0.010642,-0.017028,0.007450,2.636719,61.199414,24.638672
30.810479,0.356723,-1.419152,0.245994,0.647045,-6.200982,-1.015142,7.699753,-0.032991,0.004257,-0.007450,2.636719,61.199414,24.638672
30.911948,0.060880,-1.445241,0.248380,0.639900,-6.224924,-1.149217,7.747637,-0.024477,0.007450,0.002128,0.703125,59.612109,23.789062
31.013627,0.192603,-1.416827,0.255713,0.651942,-6.191405,-0.995988,7.546524,0.003193,0.003193,0.002128,2.109375,58.906641,24.808594
31.116278,0.114224,-1.429974,0.253215,0.643418,-6.258443,-1.134852,7.762002,-0.012771,-0.004257,-0.003193,1.757812,59.612109,24.128906
31.218483,0.239497,-1.430355,0.243854,0.648207,-6.220136,-1.043872,7.675811,-0.015963,0.035119,-0.009578,1.757812,59.612109,24.128906
31.320383,0.418191,-1.421977,0.231742,0.644488,-6.215348,-1.015142,7.656657,0.007450,0.005321,0.004257,2.285156,59.788477,23.279297
31.422580,0.082837,-1.426287,0.242266,0.648912,-6.119579,-0.938527,7.723695,0.012771,0.017028,-0.007450,1.054688,59.612109,24.808594
31.524849,0.303007,-1.425613,0.243108,0.646863,-6.129156,-1.015142,7.699753,-0.013835,0.026606,-0.001064,1.054688,59.612109,24.808594
31.626590,0.191276,-1.420214,0.249264,0.645958,-6.086061,-1.015142,7.723695,-0.012771,-0.010642,-0.006385,1.757812,61.375781,25.488281
31.728766,0.011552,-1.440225,0.226637,0.649210,-6.100426,-1.039084,7.450756,0.012771,-0.062789,0.029798,0.351562,59.612109,24.468750
31.831358,0.020917,-1.418614,0.210264,0.630113,-5.693412,-0.713472,7.374141,0.252221,-0.608736,0.083009,0.351562,59.612109,24.468750
31.933785,0.212765,-1.379840,0.164827,0.520091,-5.042189,-0.445322,8.015787,0.306497,-1.073802,0.124514,1.054688,56.790234,25.828125
32.035706,0.164345,-1.405417,0.153854,0.396614,-4.118027,-0.708684,8.844181,0.144734,-1.247271,-0.053211,-1.230469,50.264648,30.416016
32.137367,-0.002816,-1.394741,0.118144,0.291665,-3.026271,-0.598550,9.327810,0.018092,-0.929068,0.090459,-1.230469,39.682617,32.115234
32.239722,0.155594,-1.408368,0.058369,0.213479,-2.173935,-0.215478,9.653421,0.157505,-0.884370,0.058532,-2.812500,32.451563,33.644531
32.341146,0.033886,-1.470583,0.039258,0.160253,-1.517924,-0.119710,9.797073,-0.129835,-0.604479,0.282019,-2.812500,32.451563,33.644531
32.443546,0.093137,-1.509605,0.042913,0.082312,-1.000776,-0.421379,9.591172,0.024477,-0.735379,0.054275,-1.406250,19.047656,36.703125
32.545867,-0.084285,-1.577216,0.004292,-0.038084,0.842759,-0.019154,10.323798,-0.075560,-0.672590,0.086202,-1.054688,13.051172,35.683594
32.648432,-0.088232,-1.696627,0.022361,-0.074108,1.211466,-0.205901,9.787496,-0.001064,-0.394827,0.026606,-1.054688,13.051172,35.683594
32.750244,-0.001511,-1.809043,0.055413,-0.046579,1.082179,-0.325611,9.787496,0.121322,-0.086202,-0.025541,-2.285156,8.289258,34.154297
32.852673,0.012535,-1.918316,0.060640,-0.057101,1.326388,-0.081403,9.897630,0.061725,-0.008514,-0.029798,-2.109375,5.291016,35.343750
32.954352,0.131736,-2.043333,0.056634,-0.035057,1.197101,0.143652,9.868899,0.011706,0.040441,0.007450,-3.515625,3.880078,36.023438
33.055718,-0.098690,-2.170854,0.064108,-0.041093,1.192312,0.172383,9.878476,-0.017028,0.028734,-0.004257,-3.515625,3.880078,36.023438
33.158102,0.431737,-2.306547,0.076709,-0.034611,1.163582,0.129287,9.844957,-0.030863,0.063853,0.013835,-3.691406,3.350977,36.533203
33.259658,-0.031258,-2.419285,0.075727,-0.044248,1.053449,0.167594,9.715670,0.022349,-0.006385,0.001064,-3.164062,3.527344,34.664062
33.361841,0.163494,-2.498599,0.089326,-0.039803,1.235408,0.181959,9.825804,-0.002128,0.010642,0.006385,-4.746094,1.940039,36.193359
33.464245,0.125717,-2.620442,0.101203,-0.022136,1.216254,0.196325,10.046070,-0.034055,0.024477,0.013835,-4.746094,1.940039,36.193359
33.565961,0.105107,-2.726262,0.117818,-0.042655,1.388637,0.248997,9.720459,-0.026606,0.017028,0.017028,-4.746094,1.940039,36.193359
33.668208,0.079199,-2.748226,0.116707,-0.077008,1.326388,0.210690,9.878476,0.021284,-0.008514,0.011706,-2.812500,3.527344,36.023438
33.769806,-0.002150,-2.778222,0.111138,-0.038575,1.264138,0.234632,9.907206,-0.007450,-0.019156,0.004257,-4.746094,2.998242,34.494141
33.871229,0.175242,-2.836908,0.096679,-0.051066,0.972046,0.450110,9.658209,0.059597,0.280955,-0.005321,-4.042969,2.292773,35.173828
33.973597,-0.226732,-2.865319,0.102044,-0.056633,1.134852,0.282516,10.122685,0.014899,-0.002128,-0.001064,-5.449219,4.056445,35.853516
34.074808,0.344405,-2.854554,0.108662,-0.077201,1.244985,0.287304,10.050859,-0.003193,0.020220,0.001064,-5.449219,4.056445,35.853516
34.176627,0.049473,-2.848988,0.111904,-0.072097,1.230620,0.239420,10.026917,-0.008514,0.014899,0.001064,-5.449219,4.056445,35.853516
34.279474,0.058074,-2.934687,0.117487,-0.031839,1.278504,0.344765,9.840169,-0.030863,0.048954,0.000000,-4.218750,0.705469,35.343750
34.381749,0.026129,-2.910230,0.107697,-0.064306,1.187524,0.320823,9.888053,-0.009578,0.017028,0.001064,-4.218750,3.880078,34.324219
34.485189,-0.270590,-2.910023,0.111068,-0.064229,1.206678,0.320823,9.902418,-0.004257,0.010642,-0.009578,-4.746094,2.998242,36.873047
34.587620,0.156216,-2.918733,0.111777,-0.068958,1.182736,0.344765,9.864111,-0.017028,0.037248,0.003193,-2.988281,2.645508,35.173828
34.690408,-0.107310,-2.929876,0.094220,-0.047656,1.039084,0.296881,9.797073,-0.009578,0.017028,-0.008514,-4.921875,2.469141,36.023438
34.792160,-0.135109,-2.918473,0.101785,-0.072943,1.000776,0.287304,9.730036,0.008514,-0.004257,-0.001064,-5.097656,4.761914,35.853516
34.894400,0.314362,-2.869674,0.109067,-0.068893,1.201889,0.411803,9.821015,-0.021284,0.011706,0.000000,-4.394531,2.645508,36.533203
34.995959,0.044466,-2.905810,0.098924,-0.050493,1.163582,0.244209,9.993398,-0.021284,0.003193,0.002128,-4.394531,2.645508,36.533203
35.098713,-0.150627,-2.889868,0.104633,-0.070156,1.106121,0.349553,9.710882,0.023413,-0.001064,-0.008514,-5.097656,3.703711,35.853516
35.201266,-0.156615,-2.925497,0.105258,-0.039725,1.125275,0.330400,9.844957,-0.032991,0.003193,0.005321,-4.921875,2.469141,34.664062
35.302888,0.393265,-2.951944,0.122453,-0.043914,1.307234,0.335188,9.821015,-0.011706,0.007450,-0.001064,-4.921875,2.469141,35.683594
35.405004,0.347980,-2.894385,0.117975,-0.082995,1.340753,0.407014,9.964667,-0.003193,-0.028734,0.005321,-5.449219,4.409180,34.494141
35.507539,0.041765,-2.897062,0.122462,-0.041660,1.321599,0.383072,9.811438,-0.002128,0.031927,0.013835,-4.570312,2.469141,35.683594
35.608874,0.474298,-2.931975,0.101482,-0.069984,1.058237,0.521936,9.509769,-0.055340,0.025541,-0.004257,-5.449219,2.645508,35.513672
35.711282,0.404796,-2.966872,0.109992,-0.068934,1.235408,0.378284,10.137050,-0.015963,0.041505,0.030863,-4.746094,3.350977,35.173828
35.813052,-0.191249,-2.937501,0.094506,-0.072557,1.082179,0.349553,9.921572,0.035119,-0.008514,0.013835,-4.746094,3.350977,35.173828
35.915396,-0.180620,-2.901289,0.124236,-0.063111,1.436521,0.359130,10.098743,-0.003193,0.301175,-0.026606,-4.570312,3.527344,34.664062
36.017806,-0.403455,-2.962389,0.090037,-0.039082,0.933739,0.440533,10.055647,0.019156,-0.029798,-0.011706,-5.800781,1.940039,34.833984
36.120308,0.168583,-2.977370,0.108399,-0.067439,1.225831,0.445322,9.849746,-0.032991,0.021284,0.013835,-4.570312,3.174609,36.363281
36.222222,-0.000666,-3.011309,0.099733,-0.058735,1.096544,0.488417,9.993398,-0.026606,0.034055,-0.017028,-6.503906,1.940039,36.193359
36.325151,0.209332,-3.029826,0.102067,-0.069300,1.173159,0.392649,9.940725,-0.010642,0.067046,-0.002128,-3.691406,2.998242,35.513672
36.427179,0.477829,-2.994783,0.094432,-0.065410,0.948104,0.330400,9.926360,-0.040441,0.053211,-0.008514,-4.746094,3.350977,35.173828
36.529072,0.252868,-2.967856,0.067181,-0.063956,0.881066,0.392649,10.007763,0.045762,0.050019,0.008514,-4.746094,3.350977,35.173828
36.630938,0.608912,-2.937384,0.065975,-0.077921,0.718260,0.488417,10.036493,-0.031927,0.035119,-0.030863,-4.394531,4.056445,36.193359
36.733494,0.140676,-2.876263,0.085905,-0.077714,0.948104,0.316035,9.701305,0.004257,0.015963,0.001064,-6.152344,4.761914,36.533203
36.835583,0.623171,-2.823018,0.082064,-0.077147,1.072602,0.311246,9.864111,0.062789,-0.031927,0.004257,-5.097656,5.114648,35.853516
36.937531,0.355811,-2.817095,0.050898,-0.069444,0.651223,0.488417,10.070012,0.078753,-0.020220,0.029798,-6.152344,4.761914,35.853516
37.039528,0.446919,-2.801017,0.061928,-0.077936,0.703895,0.416591,9.935937,0.003193,0.214973,-0.029798,-6.328125,5.291016,36.363281
37.142057,0.091306,-2.797215,0.042341,-0.087482,0.670376,0.598550,9.873688,-0.079817,0.162826,0.013835,-6.503906,5.467383,37.552734
37.243106,0.388100,-2.779041,0.013378,-0.086530,-0.043096,0.608127,9.911995,-0.050019,0.146863,0.096844,-5.273438,7.054688,36.023438
37.345236,0.472547,-2.712766,0.036577,-0.093696,0.905008,0.378284,9.873688,-0.123450,0.032991,0.002128,-5.449219,7.936523,37.552734
37.447712,0.457406,-2.638270,-0.005008,-0.071851,0.181959,0.435745,10.184934,-0.103230,-0.007450,-0.069175,-5.449219,7.936523,37.552734
37.549814,0.420901,-2.566715,0.047694,-0.087265,0.694318,0.292093,9.878476,-0.153248,-0.122386,-0.005321,-5.449219,7.936523,37.552734
37.652640,0.454003,-2.505471,0.052555,-0.082753,1.024718,0.138864,10.132261,-0.187303,0.026606,0.028734,-4.042969,8.289258,38.232422
37.755690,0.261857,-2.477650,0.040961,-0.067829,0.861913,0.277727,10.026917,-0.011706,0.044697,0.040441,-3.691406,6.525586,37.552734
37.856697,0.441250,-2.426724,0.000726,-0.061652,0.076614,0.316035,10.342951,0.056404,-0.064918,0.031927,-2.988281,7.231055,36.873047
37.958380,0.305012,-2.394589,0.006675,-0.050634,0.282516,0.263362,10.180145,0.029798,0.038312,-0.027670,-4.394531,7.231055,37.892578
38.060324,0.780975,-2.399033,0.016301,-0.068656,0.526724,0.344765,10.060435,0.032991,0.004257,0.025541,-4.394531,7.231055,37.892578
38.162047,0.205285,-2.398256,0.002710,-0.050724,0.339977,0.320823,10.098743,-0.019156,-0.015963,0.017028,-4.394531,7.231055,37.892578
38.264005,0.244108,-2.407230,0.006492,-0.046733,0.421379,0.354342,10.065224,0.011706,-0.028734,0.008514,-5.097656,7.231055,36.873047
38.366239,0.400769,-2.434132,0.023120,-0.045872,0.598550,0.349553,9.993398,-0.003193,-0.031927,-0.006385,-5.800781,7.231055,35.853516
38.468438,0.472944,-2.453706,0.044075,-0.062098,0.756568,0.311246,9.773131,-0.004257,0.074496,0.003193,-5.800781,7.231055,35.853516
38.570061,0.386288,-2.505321,0.000898,-0.045348,0.292093,0.445322,9.955091,0.148991,-0.259671,-0.014899,-5.800781,5.467383,37.552734
38.672304,0.316262,-2.578867,0.053449,-0.049581,0.857124,0.502782,9.806650,0.079817,-0.114936,0.006385,-6.152344,4.056445,36.193359
38.774855,0.417833,-2.680878,0.042640,-0.044318,0.751779,0.617704,9.935937,0.037248,0.052147,-0.017028,-5.625000,3.527344,37.722656
38.876858,0.234835,-2.771346,0.063997,-0.066901,0.852336,0.622492,9.964667,0.024477,0.048954,0.001064,-7.382812,4.938281,36.703125
38.978364,0.302525,-2.831207,0.046892,-0.080368,0.756568,0.823605,9.806650,0.077688,0.030863,-0.027670,-7.382812,4.938281,36.703125
39.080557,0.423534,-2.894683,0.043785,-0.084846,0.713472,0.962469,10.165780,0.139413,0.053211,-0.021284,-7.382812,4.938281,36.703125
39.182243,0.398034,-2.997137,0.051946,-0.088245,0.665588,1.043872,9.653421,0.353322,0.119193,-0.089395,-11.250000,3.880078,36.703125
39.284029,0.363011,-3.089714,0.035389,-0.149142,0.435745,1.599327,9.725247,0.464002,0.109615,-0.159634,-13.535156,6.172852,37.552734
39.385540,0.093440,-3.138927,0.012780,-0.213284,0.143652,2.078167,9.921572,0.451231,0.172404,-0.086202,-16.171875,7.407422,36.703125
39.487180,0.548537,3.086334,0.024443,-0.269794,0.162806,2.671929,9.811438,0.543819,0.125578,-0.116000,-20.039062,8.465625,36.363281
39.589371,0.319513,3.006969,0.074240,-0.334385,0.258574,3.371036,9.198523,0.436332,-0.056404,-0.172404,-20.039062,8.465625,36.363281
39.690670,0.430964,2.927942,0.082992,-0.325949,0.105345,3.361459,9.428366,0.111744,-0.063853,-0.241579,-20.039062,8.465625,36.363281
39.792604,0.302395,3.069572,0.049390,-0.382819,0.248997,3.375824,9.351752,0.072367,-0.062789,-0.179854,-28.652344,12.169336,31.775391
39.894825,0.291049,-3.132361,-0.005488,-0.332984,-0.028730,3.471592,9.610325,0.081945,0.078753,-0.013835,-30.058594,11.816602,31.435547
39.996908,0.050328,3.116068,0.026754,-0.387141,0.143652,3.715801,9.418789,0.032991,0.019156,-0.013835,-31.464844,11.111133,31.095703
40.097495,0.382223,-3.125332,0.003618,-0.379400,0.067038,3.782839,9.188946,0.037248,0.018092,-0.015963,-30.761719,12.874805,29.736328
40.199580,0.664705,-3.141387,0.007607,-0.365727,0.071826,3.624821,9.212888,0.042569,0.014899,-0.013835,-32.871094,12.169336,31.435547
40.300762,0.160422,-3.135125,0.005355,-0.401655,0.067038,3.792415,9.179369,0.078753,0.053211,0.021284,-33.046875,12.698437,30.246094
40.402911,0.311455,-3.136708,-0.012699,-0.404058,-0.076614,3.979163,9.270349,0.123450,0.101101,0.022349,-33.046875,12.698437,30.246094
40.505152,0.322059,3.111600,0.005019,-0.442042,-0.062249,4.132392,8.748413,0.151120,0.014899,0.077688,-33.046875,12.698437,30.246094
40.606862,0.175700,3.128677,0.009963,-0.455820,0.071826,4.352659,9.054871,0.032991,-0.056404,-0.036184,-34.277344,13.580273,29.736328
40.708930,0.218039,-3.135646,-0.012848,-0.428263,-0.119710,4.089296,9.174581,0.002128,0.005321,-0.032991,-36.386719,13.580273,30.076172
40.810729,0.278770,-3.131603,-0.002015,-0.445051,0.028730,4.165911,8.753201,-0.012771,-0.037248,0.021284,-34.453125,13.756641,28.886719
40.913348,0.586334,-3.134298,-0.007868,-0.433100,0.038307,4.175488,9.222465,-0.042569,-0.017028,-0.001064,-35.156250,13.403906,29.226562
41.014386,0.596349,-3.140981,0.017184,-0.435445,0.071826,4.209007,9.016563,-0.046826,0.020220,0.004257,-35.156250,13.403906,29.226562
41.116463,0.475793,3.134523,0.009909,-0.432611,0.062249,4.074931,9.026140,-0.046826,0.011706,-0.014899,-35.683594,12.522070,29.056641
41.217960,0.127868,3.123620,0.023954,-0.426830,0.052672,4.084508,9.050082,-0.063853,0.029798,-0.010642,-34.101562,12.345703,29.906250
41.320507,0.328595,3.111800,-0.002763,-0.428190,-0.062249,4.170699,9.227253,-0.043633,0.025541,0.000000,-34.101562,12.345703,29.906250
41.421606,0.248041,3.118567,0.012280,-0.422849,0.028730,4.113238,9.184158,-0.046826,0.018092,-0.019156,-32.167969,11.816602,28.716797
41.522773,0.177464,-3.129539,-0.002805,-0.403050,-0.038307,3.950433,9.021352,-0.077688,0.047890,-0.002128,-34.980469,13.933008,30.416016
41.624718,0.331485,-3.130222,-0.018787,-0.400441,-0.119710,4.065354,9.332598,-0.051083,0.048954,0.001064,-34.980469,13.933008,30.416016
41.726015,0.168354,-3.105886,-0.020438,-0.386148,-0.100556,3.921702,9.548076,-0.411855,0.059597,0.026606,-31.816406,13.580273,30.076172
41.827651,-0.069143,-3.068332,-0.044114,-0.311583,-0.248997,2.863465,8.963891,-1.064224,0.105358,-0.088331,-28.125000,14.462109,32.964844
41.929571,0.334202,-2.956427,-0.062949,-0.204134,-0.339977,1.819593,9.514557,-0.736443,-0.070239,0.013835,-28.125000,14.462109,32.964844
42.031851,0.428435,-2.804408,-0.013354,-0.100247,0.138864,0.871489,9.519346,-1.058903,0.084074,0.225616,-28.125000,14.462109,32.964844
42.133305,0.435720,-2.670381,0.020819,-0.076823,0.268151,0.253785,9.926360,-0.529984,-0.024477,0.214973,-11.250000,10.934766,37.042969
42.234912,0.224601,-2.541819,0.019074,-0.113746,0.220267,0.153229,9.806650,-0.056404,0.069175,-0.009578,-4.570312,12.698437,37.722656
42.337123,0.712010,-2.412513,-0.000487,-0.069529,-0.277727,-0.129287,9.911995,0.135156,0.014899,-0.008514,-4.570312,12.698437,37.722656
42.439066,0.024649,-2.280357,0.007542,-0.097355,0.129287,0.148441,10.060435,0.045762,-0.086202,0.011706,-2.109375,12.698437,37.382812
42.540515,0.221918,-2.165116,-0.000721,-0.060782,0.162806,0.143652,10.160992,0.003193,-0.006385,0.022349,-3.515625,11.287500,38.062500
42.643033,0.380329,-2.063451,-0.011172,-0.045732,0.090980,0.186748,9.907206,-0.013835,0.012771,-0.008514,-2.812500,11.992969,39.082031
42.744382,0.246215,-1.994269,-0.022785,-0.022619,0.100556,0.220267,9.883264,0.050019,0.144734,-0.042569,-3.691406,11.816602,37.892578
42.846117,0.072522,-1.959191,-0.008507,-0.014456,0.086191,0.076614,10.275914,0.200074,0.108551,-0.129835,-3.691406,11.816602,37.892578
42.947817,0.338569,-1.966191,-0.071279,0.007954,-0.981623,0.785298,9.619902,0.249028,0.110679,0.196881,-4.921875,14.814844,38.742188
43.048949,0.376969,-1.902153,-0.067421,0.016173,-0.402226,0.598550,10.314221,0.031927,0.557654,0.156441,-5.273438,13.051172,40.101562
43.151170,0.054422,-1.892465,-0.031472,0.023822,-0.885855,0.909797,8.595184,0.252221,-0.136221,0.566167,-6.855469,17.460352,41.291016
43.252258,0.210064,-1.838865,-0.112443,0.090546,-0.976834,0.809240,11.056423,-0.274570,-0.124514,0.348001,-7.382812,14.109375,40.781250
43.353953,0.033421,-1.846642,-0.098658,0.097923,-1.321599,1.403002,10.467450,0.325653,0.354387,-0.293726,-5.273438,12.345703,39.421875
43.456740,-0.218333,-1.858263,-0.080102,0.064212,-2.772486,0.234632,9.437943,0.294790,-0.233065,0.045762,-9.843750,17.283984,37.722656
43.558259,0.299961,-1.811241,-0.119738,0.181036,-2.537854,0.660800,10.371682,-0.479965,0.487415,0.388442,-9.843750,17.283984,37.722656
43.660335,0.200606,-1.723696,-0.060909,0.129845,-1.819593,0.158017,9.457097,-0.191560,0.143670,0.008514,-5.625000,17.283984,40.441406
43.761543,0.303377,-1.639630,0.023499,0.097104,-1.896208,-0.392649,8.949526,-0.407598,-0.309689,-0.028734,-1.406250,25.044141,40.781250
43.863125,0.308012,-1.525745,0.037017,0.000678,-0.464475,-0.277727,10.726023,0.091523,-0.406534,-0.012771,2.812500,26.102344,42.140625
43.963914,0.314446,-1.466300,0.081768,0.030228,-0.598550,-0.761356,10.290279,-0.290533,-0.080881,-0.336295,2.812500,26.102344,42.140625
44.065741,0.491065,-1.422269,0.085174,0.042144,-1.460463,-0.646434,9.567230,0.063853,0.385249,-0.512956,6.679688,21.164062,45.199219
44.166856,0.180988,-1.347156,0.126572,0.065998,-0.957681,-0.924162,9.399636,-0.202203,0.417176,0.124514,4.042969,23.809570,45.029297
44.268262,0.156915,-1.350240,0.088033,0.060680,-1.240196,-0.598550,9.835380,0.133028,-0.297983,-0.244772,4.042969,23.809570,45.029297
44.369726,0.144487,-1.357491,0.024661,0.071294,-0.924162,0.225055,10.295067,0.140478,0.080881,-0.071303,3.164062,25.044141,45.878906
44.471715,0.041600,-1.363609,0.004919,0.100924,-1.043872,0.124498,9.045294,0.071303,-0.108551,-0.048954,-0.527344,24.515039,46.728516
44.572530,-0.096530,-1.401425,-0.009652,0.113603,-0.933739,0.541090,11.267113,0.185175,-0.036184,-0.179854,-2.285156,23.809570,45.029297
44.673476,0.131916,-1.503159,-0.005152,0.058125,-0.608127,0.100556,10.208876,0.249028,-0.696003,-0.077688,-2.285156,23.809570,45.029297
44.774573,0.162848,-1.555464,-0.033896,0.020079,1.359907,0.220267,9.619902,-0.086202,-0.324588,-0.257542,-3.164062,22.222266,46.218750
44.875745,0.296673,-1.623379,-0.020307,0.012342,-0.014365,0.158017,10.137050,-0.110679,-0.142606,0.063853,-2.109375,17.989453,45.199219
44.977238,0.107805,-1.709160,-0.032964,-0.017605,-3.572149,5.137957,30.655358,0.263928,-0.148991,0.006385,-4.394531,17.107617,46.048828
45.078851,0.152906,-1.770972,-0.037664,-0.013202,0.320823,0.469264,9.830592,-0.037248,-0.068110,-0.040441,-4.394531,17.107617,46.048828
45.180314,0.132108,-1.871233,-0.010288,-0.014707,0.469264,0.277727,10.026917,-0.014899,-0.007450,0.001064,-5.625000,15.873047,44.859375
45.281724,0.551789,-1.961302,-0.031890,-0.015417,0.555455,0.459687,9.777920,0.225616,0.094716,-0.008514,-8.261719,14.991211,44.689453
45.383135,0.271777,-2.052360,-0.100992,-0.072030,1.010353,1.388637,10.065224,1.020591,0.137285,-0.114936,-8.261719,14.991211,44.689453
45.484874,0.064449,-2.178778,-0.154994,-0.091541,0.306458,2.025495,9.595960,0.886499,0.064918,-0.053211,-8.261719,14.991211,44.689453
45.586205,-0.124261,-2.327528,-0.165211,-0.077619,0.402226,2.748544,9.840169,0.641727,-0.042569,-0.116000,-22.324219,16.402148,39.931641
45.687323,0.276831,-2.531018,-0.171724,-0.105432,0.057461,2.930503,9.141062,0.542754,0.036184,-0.146863,-29.179688,14.814844,35.343750
45.788814,0.131350,-2.711590,-0.133432,-0.189928,0.057461,3.533842,9.528923,-0.075560,0.093652,0.120257,-34.453125,15.873047,32.625000
45.889900,0.144132,-2.845449,-0.075516,-0.294973,0.430956,3.715801,9.198523,-0.097909,-0.087266,0.030863,-33.574219,16.754883,32.115234
45.991517,0.324016,-2.997627,-0.036979,-0.329361,0.143652,3.423708,9.366117,0.040441,0.008514,-0.050019,-32.167969,15.343945,32.455078
