Time, Altitude, Yaw, Pitch, Roll, Ax, Ay, Az, Pitch_rate, Roll_rate,Yaw_rate, Magx, Magy, Magz0.761654,0.040512,-0.153543,0.052429,0.079268,0.033519,-0.464475,10.376470,0.015963,0.007450,0.015963,4.905469,17.111719,10.125000
0.861914,-0.021918,-0.329378,0.083285,0.165654,-0.033519,-0.555455,10.132261,0.012771,0.008514,0.012771,4.029492,18.683203,11.643750
0.962054,-0.178531,-0.510380,0.076520,0.219647,0.062249,-0.445322,10.041282,0.014899,0.008514,0.011706,4.730273,18.333984,9.618750
1.062353,-0.119774,-0.687351,0.053323,0.233664,0.095768,-0.416591,10.232818,0.017028,0.009578,0.012771,4.555078,19.207031,10.125000
1.164336,-0.214827,-0.855863,0.031059,0.210377,-0.057461,-0.411803,10.228029,0.013835,0.004257,0.015963,4.555078,19.207031,10.125000
1.265841,-0.577479,-1.015223,0.019971,0.165437,0.019154,-0.397437,10.256760,0.015963,0.006385,0.015963,3.854297,19.207031,9.450000
1.366917,-0.231445,-1.165681,0.021633,0.111382,0.014365,-0.407014,10.122685,0.014899,0.004257,0.015963,3.153516,17.460938,9.450000
1.468500,-0.223187,-1.279366,0.032467,0.008767,0.033519,-0.363919,10.117896,0.015963,0.006385,0.010642,4.905469,18.159375,10.800000
1.570233,-0.279260,-1.354425,0.038291,-0.000690,-0.019154,-0.392649,10.170569,0.015963,0.005321,0.011706,3.854297,17.810156,9.787500
1.672165,-0.546710,-1.340607,0.039129,-0.019070,0.043096,-0.493206,10.132261,0.017028,0.007450,0.012771,5.606250,18.508594,10.462500
1.773391,-0.159605,-1.265625,0.045078,-0.015294,-0.004788,-0.464475,10.275914,0.014899,0.007450,0.014899,5.781445,17.286328,11.981250
1.875213,-0.408774,-1.277836,0.040246,-0.009154,0.028730,-0.469264,10.113108,0.015963,0.006385,0.013835,5.606250,18.857812,8.437500
1.976650,-0.243649,-1.292904,0.045775,-0.011917,0.057461,-0.469264,10.036493,0.012771,0.007450,0.013835,5.606250,18.857812,8.437500
2.078094,-0.168843,-1.338108,0.043354,-0.019319,0.043096,-0.454898,10.208876,0.018092,0.004257,0.013835,4.379883,18.333984,9.281250
2.179083,-0.342666,-1.308587,0.028768,-0.010291,-0.009577,-0.363919,10.371682,0.014899,0.007450,0.015963,4.730273,17.286328,10.631250
2.280459,-0.259202,-1.292582,0.036946,0.000065,-0.067038,-0.407014,10.194511,0.018092,0.005321,0.014899,5.080664,17.286328,9.956250
2.381901,-0.302770,-1.318968,0.043515,-0.021324,0.062249,-0.454898,10.141838,0.015963,0.005321,0.012771,4.730273,17.984766,9.281250
2.483282,-0.319792,-1.272470,0.024875,-0.010162,0.067038,-0.349553,10.074801,0.017028,0.005321,0.011706,5.781445,17.984766,10.631250
2.586193,-0.450000,-1.270240,0.034986,0.001980,-0.023942,-0.363919,10.223241,0.013835,0.007450,0.011706,5.781445,17.984766,10.631250
2.687613,-0.426199,-1.329131,0.036935,-0.013704,-0.023942,-0.397437,10.098743,0.011706,0.006385,0.015963,4.555078,18.508594,11.475000
2.789501,-0.080243,-1.371329,0.050770,-0.008903,0.047884,-0.488417,10.213664,0.010642,0.006385,0.011706,3.854297,18.159375,10.462500
2.891113,-0.305863,-1.346191,0.047857,-0.006076,-0.004788,-0.488417,10.218453,0.015963,0.006385,0.013835,4.204688,17.460938,10.800000
2.992063,-0.497864,-1.341925,0.031067,-0.003962,-0.019154,-0.301669,10.108319,0.015963,0.006385,0.013835,4.204688,17.460938,9.787500
3.093941,-0.068058,-1.264666,0.033027,-0.027016,0.076614,-0.363919,10.175357,0.013835,0.008514,0.012771,5.956641,17.460938,9.787500
3.195340,-0.191869,-1.252613,0.049871,-0.018977,0.067038,-0.497994,10.228029,0.012771,0.006385,0.013835,5.956641,17.460938,9.787500
3.297240,-0.309915,-1.292069,0.044359,0.004491,0.057461,-0.464475,10.218453,0.014899,0.007450,0.012771,4.379883,18.333984,11.643750
3.398552,-0.359759,-1.359542,0.032007,-0.014168,0.028730,-0.407014,10.175357,0.017028,0.009578,0.012771,4.029492,17.635547,9.618750
3.500487,-0.326321,-1.330001,0.039396,-0.020274,0.090980,-0.430956,10.218453,0.015963,0.008514,0.010642,5.255859,18.857812,10.462500
3.601767,-0.159271,-1.316038,0.044035,-0.009820,0.057461,-0.430956,10.132261,0.013835,0.006385,0.015963,4.379883,18.333984,10.968750
3.703497,-0.206013,-1.337327,0.045974,-0.015501,-0.014365,-0.464475,10.266337,0.012771,0.004257,0.010642,4.379883,18.333984,10.968750
3.805536,-0.546276,-1.354664,0.040967,-0.010190,0.028730,-0.440533,10.113108,0.011706,0.005321,0.013835,4.029492,17.286328,9.618750
3.907328,-0.653751,-1.348606,0.038785,0.003201,-0.090980,-0.383072,10.160992,0.017028,0.006385,0.014899,4.029492,17.286328,9.618750
4.008959,-0.574699,-1.265318,0.043704,-0.009681,-0.009577,-0.454898,9.998186,0.015963,0.005321,0.015963,5.956641,18.159375,10.125000
4.110521,-0.536686,-1.349734,0.042996,-0.006359,0.004788,-0.450110,10.194511,0.024477,0.010642,0.012771,4.379883,18.683203,10.631250
4.211805,-0.084055,-1.280243,0.031769,-0.004576,-0.014365,-0.344765,10.204087,0.064918,0.011706,0.002128,5.255859,17.111719,9.450000
4.313579,-0.385105,-1.283638,0.036946,0.003042,-0.067038,-0.359130,10.184934,0.042569,0.007450,0.020220,5.431055,17.984766,11.306250
4.415349,-0.123409,-1.285906,0.031599,0.002266,-0.023942,-0.330400,10.180145,0.038312,0.012771,0.065982,5.431055,17.984766,11.306250
4.517244,-0.330834,-1.302786,0.035609,-0.006709,0.043096,-0.359130,10.390835,0.178790,0.008514,-0.005321,5.255859,18.508594,9.112500
4.618822,-0.499151,-1.344915,0.023012,0.022954,0.086191,-0.009577,10.146627,0.216038,0.009578,-0.019156,2.627930,19.730859,10.631250
4.720667,-0.542247,-1.399731,-0.022387,-0.001272,0.076614,0.268151,10.409989,0.280955,0.042569,-0.001064,3.328711,19.032422,8.268750
4.822019,-0.375269,-1.419695,-0.038664,0.047420,-0.205901,0.483629,10.266337,0.261799,0.013835,-0.044697,0.525586,21.476953,6.918750
4.923701,-0.434195,-1.526087,-0.076155,0.029560,-0.043096,0.861913,10.295067,0.226680,-0.009578,-0.013835,-1.576758,22.175391,4.556250
5.025241,-0.307162,-1.648192,-0.108128,0.003351,-0.028730,0.991199,10.122685,0.260735,0.001064,-0.042569,-1.576758,22.175391,4.556250
5.126714,-0.344969,-1.640029,-0.129922,-0.011923,-0.014365,1.340753,10.108319,0.308625,0.005321,-0.091523,-1.576758,22.175391,4.556250
5.228707,-0.400070,-1.768481,-0.159704,-0.011482,-0.028730,1.661576,9.974244,0.264992,0.027670,-0.043633,-5.255859,25.143750,4.050000
5.329981,-0.458215,-1.830814,-0.192579,-0.033771,-0.114922,1.915361,9.926360,0.254350,0.007450,0.001064,-6.131836,23.223047,1.181250
5.431703,-0.625472,-1.919547,-0.202966,-0.054520,-0.258574,2.111686,10.228029,0.279891,0.017028,0.044697,-8.409375,23.746875,0.000000
5.533084,-0.738520,-1.945332,-0.255814,-0.088875,-0.095768,2.729390,10.012551,0.292662,-0.020220,-0.032991,-9.285352,24.619922,-1.856250
5.634192,-0.299560,-1.975599,-0.263665,-0.120494,0.057461,2.911349,9.835380,0.383121,-0.038312,-0.121322,-10.336523,25.667578,-1.856250
5.735550,-0.555631,-2.022571,-0.307103,-0.100874,-0.272939,3.299210,9.873688,0.356515,0.039376,-0.113872,-12.438867,26.715234,-5.906250
5.837577,-0.502619,-2.020471,-0.341601,-0.103829,-0.445322,3.610456,9.519346,0.262863,-0.053211,-0.129835,-12.438867,26.715234,-5.906250
5.939662,-0.184483,-2.088659,-0.357016,-0.152626,-0.349553,3.830723,9.485827,0.240515,-0.044697,-0.110679,-14.716406,27.239062,-7.087500
6.041146,-0.406278,-2.069557,-0.385128,-0.156188,-0.373495,4.065354,9.255984,0.289469,0.010642,-0.044697,-15.066797,28.286719,-10.462500
6.142507,-0.282349,-2.140371,-0.407544,-0.197927,-0.363919,4.510676,9.064447,0.305432,-0.044697,-0.048954,-18.570703,27.588281,-11.475000
6.243490,-0.430287,-2.174391,-0.428543,-0.229493,-0.440533,4.721366,9.097966,0.290533,0.068110,0.001064,-20.322656,30.382031,-13.500000
6.345062,-0.379416,-2.218759,-0.457910,-0.260298,-0.531513,5.037400,8.753201,0.326717,0.041505,-0.067046,-20.848242,28.112109,-14.006250
6.446492,-0.419868,-2.221540,-0.495862,-0.283603,-0.526724,5.410896,8.599972,0.399084,0.085138,-0.006385,-21.899414,30.556641,-16.706250
6.548162,-0.309228,-2.228114,-0.534195,-0.308182,-0.526724,5.755661,8.236054,0.394827,0.053211,0.023413,-21.899414,30.556641,-16.706250
6.649518,-0.505774,-2.261831,-0.557077,-0.322296,-0.718260,5.951985,8.111555,0.313946,0.174533,0.147927,-23.125781,31.080469,-17.212500
6.751335,-0.321044,-2.262347,-0.558258,-0.363821,-0.416591,6.315904,8.250419,0.271377,0.143670,0.175597,-23.125781,31.080469,-17.212500
6.852735,-0.396170,-2.330212,-0.587208,-0.400897,-0.603339,6.742072,7.685387,0.337359,-0.011706,0.139413,-26.104102,30.207422,-20.081250
6.954338,-0.284329,-2.342335,-0.628082,-0.414125,-0.866701,6.665457,7.402872,0.151120,-0.091523,0.038312,-25.928906,30.731250,-21.262500
7.056071,-0.259955,-2.385131,-0.561992,-0.482446,-0.363919,6.722918,7.647080,0.153248,-0.095780,0.015963,-28.907227,29.508984,-22.106250
7.157635,-0.485734,-2.359274,-0.622353,-0.459707,-0.584185,6.919243,7.369353,0.305432,0.028734,0.038312,-27.330469,30.032812,-23.625000
7.258886,-0.447637,-2.421032,-0.620037,-0.508988,-0.627281,6.703765,6.818686,0.396956,-0.174533,0.048954,-30.308789,28.810547,-22.781250
7.360413,-0.516431,-2.456607,-0.651935,-0.617179,-0.047884,7.560889,6.268020,0.384185,-0.045762,0.105358,-30.308789,28.112109,-25.818750
7.461924,-0.445017,-2.394558,-0.704654,-0.599391,-0.062249,7.920019,6.162675,0.421433,-0.042569,0.018092,-27.680859,25.492969,-34.762500
7.563951,-0.645884,-2.399517,-0.756927,-0.624042,-0.114922,8.121132,5.884948,0.509763,-0.155377,0.044697,-27.680859,25.492969,-34.762500
7.665902,-0.432007,-2.368256,-0.760245,-0.650424,0.378284,8.255207,5.870582,0.490607,0.001064,0.092588,-30.133594,24.445312,-43.200000
7.767040,-0.469066,-2.433026,-0.845477,-0.728245,0.138864,8.485051,4.836287,0.503378,-0.119193,-0.041505,-31.184766,25.143750,-46.912500
7.868828,-0.164015,-2.461098,-0.884178,-0.773141,0.052672,9.097966,4.290409,0.429947,-0.052147,0.000000,-32.060742,24.969141,-50.118750
7.970269,-0.691156,-2.488969,-0.909729,-0.813412,0.316035,8.949526,4.261679,0.482094,-0.141542,-0.020220,-33.287109,24.445312,-54.675000
8.071473,-0.521571,-2.580642,-0.963689,-0.926954,0.090980,9.404424,3.433285,0.468259,-0.047890,0.000000,-33.287109,24.445312,-54.675000
8.172661,-0.261523,-2.616465,-1.010265,-0.995102,0.272939,9.624691,2.959233,0.380992,0.021284,-0.003193,-32.411133,20.080078,-59.231250
8.273538,-0.640207,-2.623464,-1.023694,-0.994076,0.134075,9.519346,2.662352,0.403341,0.011706,0.004257,-33.287109,18.159375,-62.437500
8.375187,-0.617332,-2.645932,-1.044541,-1.035377,0.153229,9.615114,2.384625,0.410791,0.030863,0.041505,-33.287109,22.000781,-63.112500
8.476134,-0.262463,-2.751053,-1.050226,-1.146962,0.191536,9.753978,1.991976,0.304368,0.014899,0.013835,-36.090234,19.556250,-66.825000
8.577624,-0.503040,-2.808557,-1.071583,-1.227262,0.373495,9.916783,1.608904,0.183047,0.084074,0.034055,-35.739844,20.254687,-67.837500
8.678943,-0.620497,-2.834653,-1.069077,-1.237976,0.205901,9.696517,2.001553,-0.041505,0.223487,0.009578,-36.090234,18.857812,-68.512500
8.780600,-0.438942,-2.857307,-1.064130,-1.238892,0.019154,9.763554,1.599327,0.110679,0.164955,0.087266,-36.090234,19.556250,-67.162500
8.882470,-0.410998,-2.871433,-1.060704,-1.285052,0.177171,9.888053,0.943315,0.139413,0.011706,0.003193,-38.017383,20.080078,-69.018750
8.983884,-0.484195,-2.852381,-1.079330,-1.274571,0.172383,9.763554,1.359907,0.130900,0.038312,0.015963,-36.440625,19.905469,-69.525000
9.085436,-0.660494,-2.864970,-1.081507,-1.272138,0.019154,9.878476,1.072602,0.124514,0.095780,0.014899,-36.090234,18.159375,-69.187500
9.186709,-0.493370,-2.916575,-1.066164,-1.330946,0.186748,9.911995,0.967257,0.137285,0.020220,0.017028,-36.791016,17.810156,-67.500000
9.288587,-0.430886,-2.974832,-1.070987,-1.410230,0.272939,9.950302,0.766145,0.017028,0.039376,0.036184,-36.791016,17.810156,-67.500000
9.390325,-0.461755,-2.918975,-1.063042,-1.345734,0.239420,9.897630,1.259350,-0.121322,0.009578,-0.003193,-35.389453,18.857812,-66.487500
9.492046,-0.461344,-2.931619,-1.064603,-1.342233,0.090980,9.940725,1.019930,-0.044697,0.014899,0.009578,-35.564648,18.683203,-63.956250
9.593500,-0.702330,-2.840239,-1.055453,-1.266974,0.320823,9.801862,1.465251,-0.048954,0.110679,-0.004257,-35.564648,18.333984,-64.968750
9.695016,-0.537689,-2.895706,-1.068161,-1.307820,0.119710,9.907206,1.292869,0.034055,0.002128,0.039376,-35.564648,18.333984,-64.968750
9.796454,-0.600188,-2.918002,-1.083982,-1.324775,0.043096,9.888053,1.154005,0.012771,0.010642,0.006385,-35.039062,18.508594,-66.487500
9.897842,-0.344587,-2.903581,-1.047176,-1.312198,0.138864,9.844957,1.235408,0.032991,0.010642,0.013835,-37.666992,19.381641,-66.318750
9.999243,-0.585674,-2.916257,-1.047157,-1.344502,0.162806,9.883264,1.192312,0.025541,0.002128,0.011706,-37.666992,19.381641,-66.318750
10.100614,-0.404669,-2.892416,-1.070326,-1.316362,0.114922,9.835380,1.197101,0.021284,0.005321,0.006385,-36.265430,17.984766,-66.656250
10.202042,-0.179942,-2.899466,-1.058070,-1.313633,0.177171,9.888053,1.230620,0.020220,0.008514,0.007450,-36.966211,19.381641,-66.993750
10.303311,-0.470253,-2.916292,-1.056155,-1.318357,0.095768,9.888053,1.149217,0.015963,0.007450,0.010642,-37.316602,18.333984,-66.993750
10.404929,-0.700507,-2.898885,-1.063071,-1.315040,0.186748,9.907206,1.249773,0.010642,0.003193,0.017028,-36.966211,17.984766,-67.668750
10.506447,-0.555589,-2.889587,-1.081235,-1.312213,0.153229,9.892841,1.173159,0.014899,0.003193,0.015963,-35.739844,18.508594,-68.175000
10.608066,-0.241767,-2.893986,-1.065276,-1.306531,0.124498,9.849746,1.206678,0.011706,0.004257,0.013835,-36.090234,19.556250,-66.150000
10.709267,-0.559219,-2.929459,-1.069339,-1.329842,0.057461,9.859322,1.187524,0.015963,0.007450,0.006385,-36.090234,19.556250,-66.150000
10.810740,-0.588949,-2.935905,-1.060588,-1.342940,0.076614,9.892841,1.010353,0.014899,0.010642,0.010642,-38.017383,19.381641,-67.668750
10.912018,-0.438367,-2.919307,-1.057603,-1.334877,0.134075,9.907206,1.173159,0.018092,0.008514,0.015963,-38.017383,19.730859,-67.668750
11.013092,-0.649990,-2.927447,-1.059959,-1.352716,0.119710,9.935937,1.101333,-0.005321,0.002128,0.013835,-38.017383,19.730859,-67.668750
11.114709,-0.725353,-2.887866,-1.064802,-1.300886,0.177171,9.864111,1.206678,0.040441,0.004257,0.015963,-36.265430,18.683203,-68.006250
11.216036,-0.483841,-2.949859,-1.072210,-1.364417,0.124498,9.892841,1.015142,0.012771,0.007450,0.023413,-37.141406,18.159375,-68.850000
11.317027,-0.345276,-2.883894,-1.067532,-1.311956,0.220267,9.911995,1.216254,0.031927,0.011706,0.020220,-36.615820,17.635547,-68.006250
11.418644,-0.707611,-2.883455,-1.063223,-1.301287,0.205901,9.835380,1.163582,0.069175,0.004257,0.010642,-36.791016,19.207031,-68.850000
11.520402,-0.551435,-2.917824,-1.056436,-1.349928,0.201113,9.921572,1.010353,0.096844,-0.001064,0.013835,-37.316602,19.381641,-67.668750
11.621891,-0.720813,-2.919483,-1.062333,-1.341036,0.186748,9.883264,1.077391,0.095780,0.000000,0.015963,-37.316602,19.381641,-67.668750
11.723230,-0.583382,-2.947139,-1.070362,-1.358265,0.129287,9.844957,0.976834,0.087266,0.000000,0.013835,-36.966211,18.333984,-68.343750
11.824871,-0.475791,-2.974100,-1.062157,-1.394525,0.043096,9.907206,0.837971,0.138349,-0.002128,0.024477,-37.141406,19.556250,-66.825000
11.926325,-0.566311,-3.010614,-1.057593,-1.440372,0.205901,10.060435,0.694318,0.166019,-0.003193,0.021284,-36.966211,19.032422,-65.306250
12.027350,-0.623082,-3.051897,-1.080490,-1.475787,0.076614,9.888053,0.416591,0.089395,0.004257,0.028734,-35.389453,17.460938,-66.487500
12.128650,-0.853248,-3.072273,-1.071317,-1.510027,0.196325,10.007763,0.344765,0.010642,0.006385,0.001064,-36.791016,18.159375,-67.500000
12.230155,-0.629919,-3.059884,-1.052268,-1.506295,0.210690,9.916783,0.339977,0.011706,0.004257,0.011706,-38.192578,18.857812,-66.825000
12.331490,-0.624639,-3.061840,-1.054161,-1.496035,0.134075,9.921572,0.325611,0.008514,0.007450,0.010642,-38.192578,18.857812,-66.825000
12.433255,-0.418298,-3.048107,-1.054050,-1.478894,0.191536,9.883264,0.488417,0.010642,0.007450,0.010642,-38.192578,17.460938,-68.175000
12.534780,-0.584446,-3.054110,-1.061335,-1.496022,0.134075,9.878476,0.311246,0.011706,0.003193,0.011706,-38.192578,17.460938,-68.175000
12.636795,-0.591131,-3.066242,-1.056348,-1.492097,0.119710,9.935937,0.435745,0.021284,0.007450,0.009578,-37.666992,17.635547,-66.656250
12.738341,-0.429187,-3.086201,-1.058511,-1.511141,0.153229,9.878476,0.287304,0.012771,0.005321,0.014899,-37.491797,17.810156,-67.162500
12.839661,-0.550894,-3.037060,-1.065814,-1.470675,0.201113,9.878476,0.435745,0.008514,0.001064,0.014899,-36.615820,19.730859,-66.993750
12.940324,-0.493806,-3.053827,-1.061316,-1.503168,0.153229,9.854534,0.359130,0.022349,0.003193,0.017028,-37.141406,18.159375,-66.825000
13.042173,-0.754887,-3.050689,-1.057132,-1.494259,0.215478,9.945514,0.373495,0.018092,0.005321,0.017028,-37.666992,17.635547,-66.656250
13.144094,-0.486061,-3.032583,-1.053259,-1.485990,0.186748,9.931148,0.411803,0.023413,0.007450,0.011706,-37.666992,17.635547,-66.656250
13.245452,-0.709801,-3.071290,-1.069084,-1.505232,0.100556,9.892841,0.268151,0.032991,0.007450,0.010642,-37.316602,17.286328,-68.006250
13.346813,-0.777309,-3.047543,-1.062502,-1.484515,0.225055,9.964667,0.464475,0.024477,0.008514,0.013835,-37.666992,19.381641,-67.668750
13.448409,-0.481461,-3.047896,-1.084038,-1.484304,0.162806,9.907206,0.392649,0.027670,0.008514,0.011706,-35.739844,18.159375,-67.837500
13.549582,-0.607512,-3.061966,-1.063733,-1.496562,0.148441,9.974244,0.359130,0.024477,0.005321,0.013835,-37.666992,18.333984,-68.006250
13.651275,-0.714784,-3.073860,-1.069936,-1.513461,0.153229,10.055647,0.277727,0.021284,0.005321,0.018092,-37.666992,18.333984,-67.331250
13.752750,-1.034617,-3.064654,-1.061348,-1.510463,0.272939,9.979033,0.263362,0.015963,0.005321,0.012771,-37.666992,18.333984,-67.331250
13.854676,-0.631211,-3.081089,-1.076790,-1.521791,0.201113,9.950302,0.215478,0.030863,0.007450,0.015963,-36.615820,19.032422,-68.343750
13.955561,-0.705323,-3.069536,-1.075446,-1.511026,0.153229,9.931148,0.248997,0.026606,0.010642,0.012771,-36.791016,17.111719,-68.512500
14.057214,-0.566143,-3.061343,-1.063843,-1.493130,0.162806,9.940725,0.306458,0.025541,0.006385,0.009578,-37.842188,17.810156,-66.487500
14.158604,-0.642557,-3.054293,-1.056116,-1.508036,0.220267,9.907206,0.292093,0.023413,0.007450,0.011706,-37.842188,17.810156,-66.487500
14.260592,-0.354352,-3.055229,-1.059762,-1.491935,0.134075,9.921572,0.450110,0.017028,0.006385,0.008514,-37.491797,16.413281,-67.162500
14.361703,-0.664678,-3.111732,-1.073084,-1.552350,0.172383,9.926360,0.138864,0.017028,0.008514,0.017028,-36.265430,17.984766,-66.993750
14.463366,-0.619224,-3.076904,-1.073038,-1.517688,0.162806,10.012551,0.225055,0.014899,0.010642,0.019156,-36.265430,17.984766,-66.993750
14.564751,-0.690188,-3.087522,-1.066205,-1.537586,0.201113,9.916783,0.215478,0.017028,0.007450,0.018092,-37.491797,17.810156,-67.837500
14.665893,-0.512248,-3.078551,-1.065861,-1.520378,0.201113,9.950302,0.167594,0.017028,0.009578,0.018092,-36.966211,17.984766,-66.993750
14.767466,-0.544764,-3.085950,-1.047948,-1.524158,0.148441,9.916783,0.215478,0.017028,0.011706,0.014899,-38.017383,19.032422,-66.318750
14.868947,-0.747782,-3.084763,-1.063917,-1.519447,0.124498,9.935937,0.239420,0.015963,0.011706,0.017028,-36.265430,17.635547,-65.643750
14.970669,-1.011470,-3.088806,-1.049321,-1.524009,0.205901,9.959879,0.258574,0.019156,0.007450,0.015963,-37.491797,17.111719,-66.150000
15.072211,-0.685812,-3.050675,-1.055383,-1.504749,0.272939,9.988609,0.292093,0.020220,0.006385,0.017028,-38.017383,17.984766,-67.331250
15.173300,-0.823726,-3.117929,-1.060206,-1.547895,0.129287,9.897630,0.148441,0.019156,0.004257,0.018092,-38.017383,17.984766,-67.331250
15.275033,-0.770729,-3.099229,-1.066460,-1.540310,0.186748,9.897630,0.210690,0.014899,0.007450,0.012771,-36.090234,18.159375,-65.475000
15.376382,-0.850492,-3.059835,-1.056599,-1.497289,0.186748,9.945514,0.335188,0.012771,0.006385,0.011706,-36.966211,18.333984,-65.981250
15.477734,-0.451617,-3.085465,-1.073908,-1.538964,0.244209,9.979033,0.162806,0.008514,0.006385,0.008514,-35.214258,16.587891,-66.318750
15.578735,-0.836437,-3.050684,-1.077669,-1.503212,0.282516,9.911995,0.253785,0.015963,0.009578,0.007450,-35.214258,16.587891,-66.318750
15.680268,-0.688686,-3.108993,-1.068553,-1.546438,0.105345,9.969456,0.105345,0.012771,0.004257,0.014899,-36.265430,17.286328,-66.318750
15.781702,-0.801664,-3.075721,-1.059033,-1.530834,0.301669,9.935937,0.239420,0.011706,0.006385,0.014899,-37.141406,16.762500,-66.487500
15.883181,-0.748021,-3.078633,-1.062582,-1.537480,0.296881,9.969456,0.253785,0.017028,0.007450,0.014899,-37.141406,16.762500,-66.487500
15.984980,-0.614109,-3.115004,-1.051068,-1.546643,0.134075,9.998186,0.181959,0.019156,0.006385,0.012771,-37.316602,17.984766,-65.306250
16.086617,-0.611795,-3.073242,-1.074974,-1.524179,0.268151,9.892841,0.220267,0.017028,0.009578,0.013835,-35.389453,18.159375,-65.475000
16.187553,-0.622431,-3.071194,-1.082627,-1.518408,0.234632,9.950302,0.387861,0.014899,0.007450,0.006385,-35.389453,17.810156,-67.162500
16.288836,-0.754787,-3.079202,-1.056972,-1.513404,0.172383,9.835380,0.253785,0.008514,-0.004257,0.024477,-36.615820,17.286328,-65.643750
16.390300,-0.731893,-3.089647,-1.047466,-1.535704,0.215478,9.945514,0.162806,0.019156,0.014899,0.011706,-38.192578,18.508594,-66.487500
16.492014,-0.357351,-3.076800,-1.047457,-1.526123,0.292093,9.892841,0.225055,0.009578,0.009578,0.006385,-37.316602,17.984766,-65.643750
16.593854,-0.563438,-3.066014,-1.071098,-1.508130,0.234632,9.911995,0.330400,0.020220,0.010642,0.013835,-35.739844,17.111719,-65.812500
16.695387,-0.743466,-3.070133,-1.056937,-1.514860,0.186748,9.888053,0.311246,0.014899,0.005321,0.018092,-36.265430,17.286328,-64.631250
16.796745,-0.816024,-3.045957,-1.046199,-1.489484,0.239420,9.916783,0.402226,0.022349,0.005321,0.015963,-38.017383,18.683203,-65.981250
16.898221,-0.679436,-3.070101,-1.073483,-1.517165,0.253785,9.907206,0.239420,0.020220,0.002128,0.013835,-35.564648,17.286328,-65.643750
16.999864,-0.799844,-3.105244,-1.059561,-1.539032,0.172383,9.988609,0.220267,0.020220,0.007450,0.013835,-36.265430,16.587891,-64.631250
17.101431,-0.689004,-3.088613,-1.064472,-1.534380,0.186748,9.897630,0.181959,0.007450,0.007450,0.010642,-36.440625,18.159375,-65.812500
17.202822,-0.986007,-3.065477,-1.061035,-1.513434,0.253785,9.945514,0.248997,0.015963,0.010642,0.015963,-36.440625,18.159375,-65.812500
17.304350,-1.008143,-3.067764,-1.060335,-1.514104,0.225055,9.935937,0.215478,0.007450,-0.001064,0.014899,-36.440625,18.159375,-65.812500
17.405362,-0.849908,-3.066390,-1.063496,-1.517799,0.210690,9.897630,0.215478,0.000000,0.002128,0.013835,-36.791016,17.810156,-66.150000
17.507705,-0.784078,-3.071564,-1.067514,-1.514929,0.177171,9.854534,0.277727,0.007450,0.012771,0.008514,-36.791016,17.460938,-67.500000
17.609886,-0.493431,-3.140923,-1.059379,-1.604498,0.287304,9.974244,-0.129287,-0.076624,-0.013835,0.024477,-36.440625,16.762500,-66.150000
17.711397,-0.744370,-2.966390,-1.057542,-1.391816,0.129287,9.864111,1.043872,-0.116000,0.011706,-0.019156,-36.265430,16.238672,-65.643750
17.812966,-0.813182,-3.000204,-1.065808,-1.437187,0.186748,9.883264,0.632069,0.141542,0.012771,0.019156,-36.090234,17.810156,-64.800000
17.915111,-0.917804,-3.065133,-1.069146,-1.495594,0.086191,9.907206,0.325611,0.286276,0.015963,0.002128,-36.440625,18.159375,-65.812500
18.016903,-0.538776,3.127513,-1.045542,-1.610877,0.234632,9.988609,-0.196325,0.303304,-0.018092,0.027670,-36.966211,18.333984,-64.968750
18.118787,-0.611308,3.068871,-1.047140,-1.683052,0.282516,9.935937,-0.603339,0.326717,-0.005321,0.020220,-36.966211,18.333984,-64.968750
18.220210,-0.681362,3.010864,-1.035057,-1.734596,0.076614,9.763554,-0.785298,0.303304,-0.008514,0.007450,-38.017383,17.286328,-66.993750
18.322048,-0.586148,2.968205,-1.033760,-1.805893,0.292093,9.777920,-1.192312,0.280955,0.004257,0.026606,-37.316602,14.492578,-66.656250
18.423387,-0.576214,2.933566,-1.018475,-1.815726,0.186748,9.825804,-1.264138,0.278827,-0.041505,0.036184,-38.017383,13.794141,-66.318750
18.525987,-0.679129,2.933413,-1.031888,-1.858393,0.383072,9.619902,-1.977611,0.389506,-0.091523,0.007450,-37.316602,14.143359,-66.656250
18.628032,-0.969330,2.891233,-1.008437,-1.930035,0.684742,9.581595,-1.752556,0.276698,0.017028,0.013835,-38.192578,10.476562,-67.500000
18.729799,-0.827075,2.772112,-0.971640,-2.033629,0.162806,9.567230,-2.523489,0.274570,-0.006385,0.004257,-38.192578,10.476562,-67.500000
18.831716,-0.677142,2.732683,-0.977119,-2.085108,0.306458,9.351752,-2.724601,0.230937,-0.002128,0.017028,-36.966211,10.301953,-69.018750
18.933391,-0.904652,2.641294,-0.933163,-2.168074,-0.076614,9.993398,-3.557784,0.185175,-0.059597,0.029798,-38.017383,9.254297,-70.031250
19.035370,-0.567005,2.715972,-0.935059,-2.120427,0.272939,9.418789,-3.126827,0.008514,0.015963,0.013835,-38.718164,7.857422,-67.331250
19.137608,-0.845174,2.702575,-0.949396,-2.131952,0.220267,9.361328,-3.007117,-0.093652,0.008514,0.020220,-37.141406,8.730469,-69.525000
19.239380,-0.946098,2.692407,-0.959412,-2.135494,0.263362,9.461885,-3.031059,-0.221359,0.024477,0.005321,-37.141406,8.730469,-69.525000
19.341538,-0.582278,2.715970,-0.952869,-2.092015,0.186748,9.691728,-2.643199,-0.471451,0.019156,0.019156,-37.141406,8.381250,-65.812500
19.443201,-0.487124,2.837381,-0.979570,-1.956189,0.172383,9.720459,-2.054225,-0.649177,0.013835,0.031927,-37.842188,8.381250,-65.475000
19.544755,-0.754771,2.979614,-0.997318,-1.792227,0.277727,9.782708,-0.876278,-0.765177,0.018092,0.018092,-37.842188,8.381250,-65.475000
19.646280,-0.745756,3.120868,-1.000719,-1.637167,0.354342,9.864111,0.014365,-0.891820,0.043633,0.000000,-35.564648,12.397266,-62.268750
19.748928,-0.608826,-3.040007,-0.988139,-1.490431,0.210690,9.696517,1.240196,-0.952481,0.025541,0.014899,-34.338281,15.016406,-62.437500
19.850298,-0.741978,-2.904561,-0.935747,-1.329463,0.325611,9.519346,2.485181,-0.979086,0.046826,0.022349,-35.039062,15.016406,-56.025000
19.951639,-0.847042,-2.801225,-0.888598,-1.200881,0.339977,9.303868,3.457227,-0.979086,0.057468,0.020220,-33.287109,16.762500,-54.337500
20.053414,-0.950441,-2.723380,-0.844529,-1.097347,0.215478,8.825027,3.251326,-0.673654,0.465066,-0.134092,-33.987891,20.254687,-47.925000
20.156226,-0.735239,-2.662596,-0.760411,-1.004479,-0.162806,8.216900,6.713341,-1.195124,0.253285,0.086202,-33.287109,23.746875,-42.862500
20.258594,-0.861203,-2.677423,-0.718507,-0.996921,0.450110,8.317457,6.205771,-1.174904,0.119193,0.073431,-33.287109,23.746875,-42.862500
20.360388,-0.868026,-2.595813,-0.629477,-0.889371,0.488417,6.473921,7.800309,-0.806682,-0.113872,-0.121322,-24.176953,22.000781,-28.350000
20.461894,-0.927891,-2.526515,-0.567587,-0.772847,0.186748,5.808333,8.188170,-0.736443,-0.072367,-0.103230,-21.373828,22.350000,-24.637500
20.563376,-0.876448,-2.458305,-0.511315,-0.666047,0.052672,5.224148,8.609549,-0.624700,0.022349,-0.036184,-19.797070,21.476953,-19.068750
20.665334,-0.949126,-2.386498,-0.441848,-0.561321,-0.162806,5.827487,9.160216,-0.682168,-0.039376,-0.050019,-17.694727,21.476953,-19.068750
20.767203,-1.009705,-2.321301,-0.397797,-0.449229,0.430956,3.169923,9.821015,-0.533176,0.031927,-0.012771,-17.694727,20.778516,-15.356250
20.869653,-1.073450,-2.244428,-0.342195,-0.359154,1.034295,1.058237,9.437943,-0.706645,0.039376,0.025541,-15.066797,19.556250,-13.162500
20.971658,-1.055525,-2.183572,-0.307463,-0.264052,-0.210690,2.868254,9.897630,-0.352258,0.026606,0.105358,-12.614063,19.556250,-10.125000
21.072932,-0.880997,-2.070663,-0.235239,-0.146401,0.110133,2.557007,9.897630,0.031927,0.014899,0.027670,-10.161328,19.207031,-6.075000
21.174108,-0.754203,-2.045835,-0.226680,-0.121206,0.009577,2.509123,9.806650,-0.018092,0.000000,0.004257,-9.986133,19.381641,-5.231250
21.276358,-1.024174,-2.029757,-0.238104,-0.122933,-0.047884,2.681506,10.184934,-0.021284,0.005321,0.009578,-8.759766,17.810156,-4.387500
21.378548,-1.132140,-1.970458,-0.226971,-0.086950,0.019154,2.408567,10.314221,0.166019,0.026606,0.055340,-8.584570,20.080078,-6.243750
21.480326,-1.017724,-2.022783,-0.280534,-0.102289,-0.545878,3.078943,8.781932,-0.001064,0.022349,-0.020220,-9.110156,18.857812,-5.737500
21.582277,-0.904910,-2.022884,-0.229986,-0.109293,-0.033519,2.039860,9.255984,-0.402277,0.008514,0.061725,-9.285352,18.683203,-5.906250
21.684328,-0.921570,-1.968335,-0.156080,-0.079539,0.148441,1.685518,10.409989,-0.433139,0.010642,0.078753,-6.832617,16.238672,-2.531250
21.785876,-1.059875,-1.954416,-0.072915,-0.050598,0.162806,1.000776,10.031705,-0.375671,-0.005321,0.063853,-6.307031,15.714844,-1.012500
21.887167,-0.736243,-1.857455,-0.092792,-0.087068,0.210690,1.201889,10.376470,-0.171340,0.015963,0.048954,-2.102344,14.667187,1.687500
21.988837,-0.757750,-1.717870,-0.084873,-0.074539,0.205901,0.814029,10.098743,0.051083,0.010642,0.027670,0.350391,14.667187,3.712500
22.090296,-0.977207,-1.610086,-0.083937,-0.018065,0.067038,0.924162,10.041282,0.074496,-0.006385,0.005321,-0.525586,14.841797,2.193750
22.191319,-0.995883,-1.559086,-0.101415,-0.020050,0.411803,1.259350,10.587160,0.048954,-0.009578,-0.001064,0.350391,14.667187,3.037500
22.292892,-0.871102,-1.620476,-0.088490,0.002994,0.038307,0.938527,10.160992,0.003193,0.008514,0.007450,-1.051172,13.270312,4.050000
22.394767,-1.008405,-1.686331,-0.083736,-0.026368,0.153229,0.885855,10.285490,-0.056404,0.003193,0.021284,-1.751953,15.365625,2.362500
22.496009,-1.049819,-1.651990,-0.069376,-0.025972,0.153229,0.723049,10.223241,0.028734,0.018092,-0.001064,-0.875977,12.397266,4.218750
22.597637,-0.958164,-1.663605,-0.080934,-0.011631,0.028730,0.857124,10.084377,0.039376,0.009578,0.035119,-1.226367,14.143359,3.543750
22.700107,-0.652549,-1.685630,-0.078407,-0.014265,0.076614,0.809240,10.160992,0.005321,0.006385,0.021284,-1.751953,15.016406,2.362500
22.801446,-0.802231,-1.706641,-0.080893,-0.014397,0.086191,0.837971,10.098743,-0.019156,0.002128,0.013835,-2.277539,16.587891,4.556250
22.902978,-1.035602,-1.708767,-0.088749,-0.023702,0.100556,0.809240,10.184934,0.002128,0.002128,0.013835,-2.277539,16.587891,4.556250
23.004790,-0.583761,-1.621474,-0.069959,-0.006170,0.014365,0.756568,10.275914,0.018092,0.006385,0.030863,-0.700781,13.270312,2.700000
23.106716,-1.217337,-1.631405,-0.087815,-0.014187,0.124498,0.790087,10.093954,-0.003193,0.006385,0.012771,-0.700781,13.270312,2.700000
23.208500,-0.972088,-1.673087,-0.074269,-0.022145,0.119710,0.718260,10.165780,-0.003193,0.003193,0.010642,-1.576758,15.191016,4.218750
23.309794,-1.009463,-1.619030,-0.074514,-0.008723,0.067038,0.766145,10.079589,-0.003193,0.005321,0.011706,-0.525586,13.444922,3.881250
23.411601,-0.963146,-1.721538,-0.078340,-0.024608,0.086191,0.723049,10.290279,-0.027670,0.007450,0.028734,-1.927148,13.444922,3.881250
23.512510,-1.063511,-1.671022,-0.083000,-0.024298,0.129287,0.847547,10.285490,-0.030863,0.011706,0.014899,-1.401563,14.317969,3.712500
23.614543,-0.960217,-1.562916,-0.063380,-0.030599,0.177171,0.603339,10.213664,-0.004257,0.002128,0.015963,0.525586,13.794141,3.543750
23.716687,-0.946888,-1.531470,-0.058311,-0.015094,0.124498,0.579397,10.261548,0.003193,0.010642,0.007450,0.525586,13.794141,3.543750
23.818356,-1.163660,-1.596052,-0.060818,-0.008640,0.153229,0.612916,10.065224,0.011706,0.002128,0.014899,-0.175195,13.095703,4.556250
23.920151,-1.005103,-1.609326,-0.052226,-0.002933,0.090980,0.536301,10.160992,-0.010642,0.002128,0.005321,-0.525586,12.746484,4.893750
24.022279,-0.962994,-1.585206,-0.051390,-0.025533,0.210690,0.531513,10.199299,-0.029798,0.001064,-0.002128,-0.175195,14.492578,3.881250
24.124142,-1.066141,-1.666303,-0.052346,-0.008194,0.071826,0.531513,10.141838,-0.009578,0.008514,0.008514,-1.226367,13.095703,4.218750
24.225978,-1.167100,-1.610680,-0.046901,-0.030110,0.129287,0.478840,10.256760,-0.006385,0.006385,0.019156,0.000000,14.317969,5.062500
24.328143,-0.911201,-1.604814,-0.041486,-0.010803,0.114922,0.430956,10.256760,0.009578,0.000000,0.010642,-0.350391,14.667187,5.737500
24.429718,-0.914742,-1.600984,-0.036771,-0.008035,0.052672,0.402226,10.180145,-0.015963,0.009578,0.014899,-0.350391,14.667187,5.737500
24.531280,-1.330353,-1.557404,-0.032590,-0.034038,0.124498,0.387861,10.199299,-0.010642,0.003193,0.020220,1.051172,12.921094,6.412500
24.632998,-1.180809,-1.510739,-0.034084,0.006430,0.028730,0.373495,10.175357,-0.009578,0.007450,0.008514,0.875977,13.444922,4.556250
24.734650,-0.955918,-1.487685,-0.026406,-0.024362,0.220267,0.158017,10.223241,-0.039376,0.002128,0.020220,1.576758,13.095703,5.568750
24.836269,-0.722041,-1.559989,-0.044421,-0.011297,0.110133,0.344765,10.117896,-0.001064,0.008514,-0.001064,0.175195,13.444922,4.218750
24.937575,-1.010751,-1.523803,-0.016335,-0.013862,0.177171,0.220267,10.199299,0.007450,0.006385,0.014899,0.700781,12.571875,6.412500
25.038966,-0.980204,-1.417654,-0.027716,-0.038183,0.177171,0.263362,10.232818,0.015963,0.008514,0.007450,2.803125,12.921094,6.412500
25.140695,-0.829767,-1.476733,-0.026654,0.012367,0.028730,0.316035,10.223241,0.022349,0.004257,0.011706,0.700781,12.571875,4.725000
25.242545,-0.779899,-1.518314,-0.021102,-0.013218,0.148441,0.248997,10.309432,0.028734,0.004257,0.013835,0.700781,12.571875,4.725000
25.344040,-0.561541,-1.502985,-0.030524,-0.025050,0.177171,0.311246,10.271125,0.039376,0.005321,0.027670,0.875977,12.746484,5.568750
25.445885,-1.127927,-1.525302,-0.033018,0.000717,0.129287,0.282516,10.280702,0.030863,0.006385,0.015963,0.350391,13.619531,5.737500
25.547525,-0.869099,-1.541846,-0.034656,-0.011918,0.181959,0.363919,10.194511,0.029798,0.002128,0.020220,1.226367,13.444922,6.581250
25.649045,-0.767300,-1.468230,-0.022975,-0.015725,0.191536,0.397437,10.280702,0.000000,0.007450,0.010642,2.627930,14.492578,6.581250
25.750699,-0.969295,-1.387629,-0.037509,-0.013453,0.114922,0.363919,10.170569,0.021284,0.008514,0.013835,2.627930,14.492578,6.581250
25.853095,-0.868237,-1.526654,-0.033149,0.013380,0.181959,0.277727,10.218453,0.020220,0.004257,0.011706,0.000000,13.619531,6.075000
25.953911,-0.920794,-1.573316,-0.036878,-0.021396,0.148441,0.359130,10.371682,0.013835,0.007450,0.014899,0.000000,13.619531,6.075000
26.056029,-1.025074,-1.446231,-0.036662,-0.001476,0.038307,0.354342,10.204087,-0.017028,0.004257,0.019156,1.576758,11.698828,6.581250
26.157602,-0.830802,-1.454073,-0.042727,-0.008451,0.129287,0.316035,10.304644,-0.004257,0.009578,0.000000,1.576758,13.095703,4.556250
26.259455,-0.951726,-1.477444,-0.031493,-0.010515,0.105345,0.349553,10.113108,0.064918,0.006385,0.019156,1.226367,13.444922,5.906250
26.361141,-0.947055,-1.507229,-0.019052,-0.009874,0.148441,0.239420,10.170569,0.006385,0.010642,0.036184,1.051172,14.317969,6.750000
26.462594,-1.112157,-1.452984,-0.025008,-0.007031,0.143652,0.325611,10.137050,0.019156,0.009578,0.003193,1.751953,13.619531,6.412500
26.564318,-1.224883,-1.455908,-0.044083,-0.009352,0.220267,0.383072,10.170569,0.020220,0.010642,0.017028,1.751953,13.619531,6.412500
26.665568,-0.920309,-1.462896,-0.043879,-0.019269,0.129287,0.387861,10.122685,-0.042569,0.008514,0.007450,1.401563,13.270312,5.400000
26.767315,-1.287814,-1.423244,-0.027659,-0.022874,0.272939,0.268151,9.414001,-0.292662,0.004257,0.078753,1.751953,11.524219,4.725000
26.868646,-0.972128,-1.358399,-0.004090,-0.059178,0.493206,-0.244209,9.911995,0.029798,0.120257,0.030863,4.379883,12.048047,8.268750
26.970624,-0.944807,-1.334410,0.010733,-0.011097,0.138864,-0.138864,10.548853,0.173469,-0.003193,0.063853,2.978320,12.397266,8.943750
27.072527,-0.911957,-1.409678,-0.018239,0.022825,0.114922,0.268151,10.319009,0.440589,0.007450,-0.025541,1.401563,12.571875,7.425000
27.173545,-1.306590,-1.452542,-0.070965,0.007850,0.124498,0.852336,9.844957,0.562975,0.018092,-0.031927,1.401563,12.571875,7.425000
27.275072,-1.266130,-1.493255,-0.153887,0.028563,0.689530,1.460463,9.481039,-0.145799,-0.006385,-0.025541,-2.452734,13.968750,2.362500
27.376990,-0.907195,-1.588820,-0.114555,-0.017144,-0.263362,1.163582,10.247183,-0.560846,-0.023413,0.013835,0.700781,13.270312,3.037500
27.478780,-0.797940,-1.509488,0.017278,-0.029080,0.124498,-0.268151,10.390835,-0.351194,-0.015963,0.025541,2.803125,11.873437,9.112500
27.579708,-1.169790,-1.391302,0.011168,-0.037798,0.162806,-0.153229,10.084377,0.019156,0.046826,0.010642,2.803125,11.873437,9.112500
27.681306,-1.186351,-1.351313,0.030859,-0.027567,0.129287,-0.311246,10.347740,0.030863,0.039376,0.030863,2.803125,12.222656,8.100000
27.782971,-1.037357,-1.408779,0.064531,-0.010358,0.694318,-0.857124,13.010092,2.323202,-0.042569,-0.249028,2.277539,12.397266,7.931250
27.884156,-1.233116,-1.569201,-0.019246,0.295959,-1.431733,1.723825,8.695740,3.881226,0.498057,-0.161762,-2.803125,13.968750,2.362500
27.985353,-0.938082,-1.458064,-0.211397,0.605102,-1.072602,6.804321,5.152322,2.971314,0.050019,0.192625,-2.803125,13.968750,2.362500
28.087417,-0.680787,-1.332788,-0.374456,0.834627,-0.517148,8.283938,2.370260,2.327458,0.482094,0.438460,-32.761523,21.127734,-37.968750
28.188850,-1.025879,-1.226092,-0.515899,1.012424,0.143652,9.974244,0.330400,1.106793,-0.050019,-0.256478,-36.615820,19.730859,-52.143750
28.290986,-0.486745,-1.161710,-0.687758,1.093801,-0.225055,10.180145,-0.316035,0.208588,0.087266,-0.059597,-40.820508,19.730859,-64.293750
28.392650,-0.726914,-1.146580,-0.893668,1.062544,-0.368707,10.175357,-0.086191,-0.442717,-0.010642,-0.141542,-38.367773,22.175391,-63.956250
28.493951,-0.375043,-1.336802,-1.105302,0.797973,-0.531513,9.768343,-1.005565,-2.160375,-0.212845,-0.057468,-39.944531,23.746875,-59.400000
28.595496,-0.646089,-2.235337,-1.088079,-0.264687,1.297657,6.895301,5.425261,-4.014254,-0.349066,0.122386,-39.944531,23.746875,-59.400000
28.697582,-0.911686,-2.515265,-0.664114,-0.639661,-0.148441,3.725378,11.477803,-3.018140,0.022349,-0.263928,-22.775391,22.699219,-16.200000
28.798594,-0.673768,-2.486488,-0.520988,-0.592223,-0.660800,3.078943,12.066776,0.204331,0.383121,-0.004257,-13.840430,24.270703,-1.181250
28.900158,-1.089457,-2.343012,-0.524232,-0.407522,-0.732626,3.035848,8.212112,0.409726,-0.227744,0.350130,-12.789258,28.112109,-2.193750
29.001816,-0.888918,-2.189030,-0.458179,-0.299691,-0.569820,4.386177,9.600749,-0.486350,-0.409726,0.123450,-13.139648,27.413672,-6.243750
29.103848,-0.920765,-2.050416,-0.307271,-0.222781,0.804452,3.313575,9.572018,-0.338423,-0.633213,0.293726,-7.533398,20.429297,-4.556250
29.205688,-0.859067,-1.917839,-0.304539,-0.185872,1.134852,2.887407,8.939949,0.405469,-0.758792,0.560846,-4.730273,14.841797,-10.293750
29.307661,-1.104172,-1.799609,-0.292820,-0.230172,1.833958,3.236961,10.041282,-0.372478,-0.336295,0.465066,-4.730273,14.841797,-10.293750
29.409510,-0.742728,-1.772349,-0.257271,-0.246532,1.877054,3.040636,10.189722,-0.252221,0.797104,-0.213909,-4.730273,14.841797,-10.293750
29.511029,-1.158757,-1.731494,-0.377071,-0.163795,0.617704,3.447650,10.888829,-0.229872,1.273876,-0.378864,0.350391,7.333594,-12.150000
29.612149,-0.826015,-1.741010,-0.263332,-0.072131,-0.129287,2.442086,9.165004,-0.467194,0.209652,-0.079817,-2.102344,15.016406,0.000000
29.714174,-0.634551,-1.630548,-0.214839,-0.083799,-0.430956,1.335965,9.610325,-0.913104,0.051083,0.191560,1.576758,16.587891,1.518750
29.815543,-0.879203,-1.512097,-0.138423,-0.167724,0.603339,-0.383072,10.793061,-0.703452,-0.159634,0.019156,5.781445,14.841797,6.581250
29.916997,-0.737863,-1.388708,-0.084019,-0.244650,1.024718,0.181959,5.975927,0.045762,-0.138349,0.174533,10.686914,11.000391,10.631250
30.018667,-0.598176,-1.251912,-0.048225,-0.227984,-0.435745,-0.239420,10.050859,-0.014899,0.050019,-0.011706,12.438867,11.000391,10.293750
30.119905,-0.866751,-1.113667,-0.019134,-0.198001,0.033519,-0.244209,10.065224,-0.009578,0.006385,0.001064,12.438867,11.000391,10.293750
30.221439,-0.996020,-0.973983,0.000141,-0.138907,0.004788,-0.301669,10.256760,0.003193,0.005321,0.006385,13.665234,12.222656,11.137500
30.323117,-0.920282,-0.853595,0.017977,-0.032063,-0.023942,-0.244209,10.213664,0.004257,0.006385,0.007450,12.088477,12.746484,11.306250
30.424371,-0.730839,-0.795267,0.010091,-0.001719,-0.028730,-0.119710,10.180145,0.008514,0.013835,0.007450,12.438867,12.397266,10.968750
30.526027,-0.737903,-0.727690,0.018877,-0.037986,0.028730,-0.359130,10.108319,0.007450,0.007450,0.009578,13.840430,12.048047,11.306250
30.627803,-0.293313,-0.737970,0.026842,-0.027977,-0.004788,-0.421379,10.007763,0.010642,0.001064,0.006385,13.490039,12.048047,10.631250
30.729584,-1.111089,-0.739056,0.029727,-0.031152,-0.033519,-0.411803,10.127473,0.008514,0.009578,0.007450,13.490039,12.048047,10.631250
30.831123,-0.584410,-0.769801,0.020946,-0.016365,-0.028730,-0.339977,10.113108,0.013835,0.007450,0.009578,12.438867,12.746484,10.968750
30.932363,-0.658438,-0.775881,0.025112,-0.039150,0.033519,-0.421379,10.093954,0.010642,0.004257,0.012771,12.964453,11.873437,10.800000
31.033866,-0.809634,-0.746066,0.030265,-0.040465,0.028730,-0.478840,10.084377,0.010642,0.010642,0.019156,13.490039,12.048047,11.643750
31.135548,-0.741016,-0.745522,0.019043,-0.028046,0.100556,-0.296881,10.189722,0.012771,0.004257,0.015963,13.490039,12.048047,11.643750
31.236748,-0.540497,-0.771610,0.015440,-0.013959,0.014365,-0.239420,10.137050,0.009578,0.010642,0.010642,13.665234,12.921094,10.125000
31.337832,-0.767367,-0.746361,0.025342,-0.025531,-0.047884,-0.306458,10.093954,0.010642,0.006385,0.015963,12.789258,11.698828,10.293750
31.439317,-0.537974,-0.725906,0.018180,-0.000256,-0.081403,-0.177171,10.156203,0.014899,0.003193,0.011706,14.015625,12.222656,10.125000
31.540608,-0.665291,-0.725815,0.023239,-0.031797,0.134075,-1.584961,9.208100,-0.078753,-0.067046,0.046826,14.015625,12.222656,10.125000
31.642128,-0.966837,-0.678785,0.043879,-0.028048,-0.143652,-0.450110,10.117896,0.014899,0.020220,-0.001064,14.716406,11.524219,11.137500
31.744238,-0.746270,-0.679436,0.014949,-0.033536,0.158017,-0.368707,10.319009,0.012771,0.011706,0.011706,15.066797,11.873437,10.462500
31.845472,-0.580416,-0.756560,0.013215,-0.030183,0.052672,-0.349553,10.146627,0.015963,0.014899,0.009578,13.314844,12.222656,11.137500
31.946445,-1.046179,-0.740611,0.038698,0.002521,-0.258574,-0.306458,10.165780,0.012771,0.081945,0.076624,14.366016,12.921094,10.125000
32.048139,-0.648172,-0.809338,0.032650,0.007867,-0.244209,-0.325611,11.477803,0.201138,-0.042569,-0.093652,12.789258,14.143359,8.943750
32.149236,-0.832559,-0.871542,0.081731,0.084304,-0.320823,0.450110,10.218453,1.348372,0.060661,0.204331,11.212500,17.460938,6.750000
32.250903,-0.962614,-0.901840,-0.004241,0.192696,-0.196325,2.164358,10.127473,1.591015,0.013835,0.296919,11.212500,17.460938,6.750000
32.352333,-0.627621,-0.888896,-0.067582,0.303895,-0.033519,4.955997,9.021352,1.915604,0.058532,0.163891,-5.431055,22.175391,-5.906250
32.453700,-0.520868,-0.965035,-0.091154,0.454291,-0.052672,5.726930,7.675811,1.777255,0.179854,0.334166,-12.614063,19.905469,-14.512500
32.555049,-0.956091,-1.018889,-0.168806,0.564181,0.268151,7.436390,6.330269,1.468629,-0.013835,0.128771,-12.614063,19.905469,-14.512500
32.656542,-0.502548,-1.067589,-0.276415,0.649271,0.177171,8.461109,5.037400,1.086573,-0.020220,-0.076624,-19.271484,20.254687,-19.575000
32.757709,-0.616196,-1.123522,-0.405453,0.689100,-0.387861,8.839393,4.055778,0.636406,-0.118129,-0.147927,-24.527344,20.953125,-25.650000
32.859335,-0.731836,-1.174184,-0.541795,0.688749,0.100556,8.920795,4.343082,0.610865,0.036184,0.038312,-26.454492,22.873828,-30.543750
32.960782,-0.826556,-1.198731,-0.685662,0.696421,0.062249,9.447520,3.418920,0.665140,0.110679,0.121322,-26.454492,22.873828,-30.543750
33.062476,-0.437242,-1.217548,-0.825261,0.702361,0.043096,9.591172,2.628833,0.639599,0.009578,0.036184,-26.454492,22.873828,-30.543750
33.163857,-0.514709,-1.249732,-0.956407,0.676411,0.090980,9.768343,1.862689,0.528919,0.034055,0.071303,-31.535156,19.905469,-40.500000
33.265083,-1.037242,-1.310456,-1.092060,0.596044,-0.009577,9.888053,1.345541,0.373543,0.126643,0.070239,-32.235937,19.207031,-45.900000
33.366923,-0.843055,-1.465657,-1.211799,0.408314,0.201113,9.816227,1.268927,0.271377,0.003193,0.000000,-32.586328,16.762500,-49.612500
33.468549,-0.751566,-1.762885,-1.295334,0.072509,0.244209,9.868899,0.857124,0.240515,0.009578,0.017028,-33.637500,12.571875,-51.975000
33.569797,-0.479288,-2.245285,-1.327324,-0.456707,0.210690,9.763554,0.818817,0.137285,-0.002128,0.006385,-34.338281,12.921094,-52.312500
33.671356,-0.764564,-2.669842,-1.287165,-0.935271,0.229843,9.969456,0.435745,0.177725,0.028734,0.035119,-32.936719,11.524219,-55.012500
33.772837,-0.890709,-2.938208,-1.216121,-1.268123,0.244209,9.998186,0.043096,0.121322,0.018092,0.039376,-32.936719,11.524219,-55.012500
33.874130,-0.612623,-3.053675,-1.112090,-1.452941,0.354342,10.012551,0.239420,0.000000,0.034055,-0.008514,-32.411133,9.254297,-53.831250
33.975609,-0.513190,-3.072270,-1.049478,-1.514887,0.210690,9.921572,0.301669,0.000000,0.001064,-0.009578,-32.060742,7.857422,-55.856250
34.077157,-0.696467,-3.085619,-1.035529,-1.523762,0.162806,9.950302,0.191536,0.011706,0.006385,0.010642,-33.287109,9.079687,-55.012500
34.177968,-0.639722,-3.091824,-1.032744,-1.515929,0.143652,9.959879,0.335188,-0.009578,0.002128,-0.001064,-33.287109,9.079687,-55.012500
34.279647,-0.654186,-3.057058,-1.010237,-1.486853,0.162806,9.931148,0.459687,0.007450,0.078753,0.007450,-33.637500,9.778125,-54.000000
34.380948,-0.603941,-3.139426,-1.030820,-1.570668,0.119710,10.170569,0.033519,-0.189432,0.002128,0.012771,-33.111914,8.555859,-55.518750
34.482250,-0.605544,-3.101341,-0.993443,-1.559994,0.330400,10.160992,0.153229,-0.866279,-0.058532,-0.088331,-33.462305,8.555859,-53.156250
34.583403,-0.560861,-2.986886,-0.919041,-1.387466,0.004788,9.275137,1.867477,-1.671896,-0.170276,-0.127707,-32.235937,10.476562,-49.275000
34.684856,-0.714010,-2.906307,-0.774365,-1.276927,-0.028730,8.480262,4.050989,-2.171017,-0.036184,-0.035119,-32.235937,10.476562,-49.275000
34.786656,-1.093599,-2.850325,-0.568842,-1.187234,0.119710,6.382942,6.588843,-2.443459,-0.382057,-0.302240,-24.352148,20.429297,-25.818750
34.888766,-0.310226,-2.818516,-0.377085,-1.117214,0.253785,4.869806,9.323021,-1.880484,-0.041505,-0.142606,-15.592383,20.778516,-10.968750
34.990110,-0.666187,-2.791320,-0.247942,-1.062509,-0.004788,2.944868,9.830592,-1.479272,-0.065982,-0.217102,-6.832617,18.683203,-3.881250
35.091369,-0.861089,-2.745414,-0.163008,-1.000886,0.004788,2.001553,10.170569,-0.921618,0.026606,0.038312,0.700781,17.111719,1.687500
35.193601,-1.047516,-2.693919,-0.093005,-0.919889,-0.158017,0.995988,10.477026,-0.700260,-0.055340,-0.050019,5.255859,16.064062,6.750000
35.295592,-0.636629,-2.639497,-0.021383,-0.826910,-0.014365,0.545878,10.529699,-0.387378,0.034055,-0.024477,8.584570,14.841797,8.606250
35.396720,-0.891647,-2.575781,0.017004,-0.718940,-0.181959,-0.521936,13.532028,0.611929,-0.004257,0.004257,9.810937,15.016406,10.800000
35.498605,-0.992791,-2.459210,-0.177537,-0.467074,-0.047884,0.095768,10.711658,4.794330,0.043633,0.011706,9.810937,15.016406,10.800000
35.599675,-0.780379,-2.223520,-0.538828,-0.093840,-0.426168,5.027823,2.944868,5.458406,0.315010,0.434203,-25.403320,24.270703,-29.193750
35.701022,-0.505173,-1.964385,-0.856537,0.172504,0.919373,10.802638,-1.900996,1.681474,-0.147927,-0.072367,-25.403320,24.270703,-29.193750
35.802632,-0.787095,-1.992812,-1.038834,0.103550,1.422156,10.558429,-0.248997,-0.100037,-0.241579,0.065982,-33.462305,10.301953,-35.268750
35.903965,-0.590084,-2.318365,-1.075468,-0.306511,0.392649,10.251972,0.526724,-0.743893,-0.001064,-0.233065,-34.163086,-0.873047,-42.356250
36.005533,-0.424732,-2.588775,-1.047820,-0.673655,0.440533,10.218453,0.105345,-0.767306,-0.073431,-0.196881,-31.184766,-1.396875,-51.637500
36.106877,-0.624338,-2.821996,-0.916283,-1.015536,0.019154,9.686940,0.876278,-2.149733,-0.004257,-0.046826,-33.812695,6.111328,-50.118750
36.207886,-0.604063,-2.837346,-0.641124,-1.115475,0.114922,6.622362,5.104438,-3.587500,-0.090459,-0.107487,-30.659180,8.206641,-37.293750
36.309710,-0.767064,-2.830603,-0.303433,-1.090819,0.426168,3.754108,9.074024,-3.559830,-0.260735,-0.241579,-18.395508,11.000391,-19.068750
36.411771,-0.776209,-2.820415,-0.101291,-1.066754,0.043096,0.545878,10.692505,-1.921989,0.217102,-0.140478,-18.395508,11.000391,-19.068750
36.513369,-0.752568,-2.794902,0.007950,-1.033004,-0.201113,-1.527501,10.635044,-0.742829,0.021284,-0.146863,9.110156,3.841406,2.700000
36.614559,-0.939067,-2.754471,0.040512,-0.989520,0.330400,-0.905008,11.477803,0.059597,0.039376,-0.110679,11.738086,4.016016,4.218750
36.715856,-1.197182,-2.712850,0.073443,-0.933103,0.368707,0.009577,9.878476,0.114936,0.035119,-0.129835,11.037305,5.762109,5.906250
36.817775,-1.089844,-2.654144,0.121462,-0.866187,-0.363919,0.076614,10.438719,-0.042569,0.030863,-0.070239,10.862109,5.936719,5.062500
36.918548,-1.050361,-2.585787,0.165721,-0.802717,-0.277727,-0.201113,10.237606,0.024477,-0.003193,0.026606,10.336523,6.460547,3.881250
37.020509,-0.918566,-2.502164,0.204476,-0.754826,-0.277727,-0.124498,8.456320,0.043633,0.057468,0.003193,10.336523,6.460547,3.881250
37.122439,-0.947243,-2.418942,0.230328,-0.708034,-0.110133,0.047884,10.175357,0.077688,0.010642,-0.012771,10.686914,7.508203,4.556250
37.223218,-1.049791,-2.334911,0.239562,-0.672733,-0.019154,0.138864,10.194511,0.119193,0.006385,-0.043633,10.686914,7.508203,4.556250
37.324501,-0.529909,-2.250270,0.218836,-0.652082,-0.205901,0.100556,10.084377,0.116000,0.006385,-0.053211,9.460547,8.032031,3.712500
37.426366,-1.187854,-2.177885,0.190285,-0.647238,0.210690,-1.398214,8.609549,0.094716,0.092588,-0.219230,9.635742,7.857422,1.518750
37.527885,-0.956583,-2.090898,0.160775,-0.638882,-0.311246,0.426168,10.366893,-0.054275,0.005321,0.029798,7.708594,7.333594,2.362500
37.629007,-0.895374,-1.996447,0.125711,-0.628992,-0.215478,0.354342,10.491392,-0.039376,-0.010642,0.012771,7.708594,6.984375,2.362500
37.730557,-0.753853,-1.906260,0.087559,-0.610467,-0.033519,-0.004788,10.074801,-0.086202,0.004257,-0.015963,8.759766,10.127344,1.687500
37.832140,-1.054704,-1.808698,0.051455,-0.590515,-1.096544,-0.258574,10.055647,0.087266,0.142606,0.062789,8.409375,7.682812,2.700000
37.933685,-0.993430,-1.703431,0.019972,-0.551802,-0.100556,-0.210690,10.290279,0.022349,-0.002128,-0.012771,8.409375,7.682812,2.700000
38.035274,-0.816539,-1.596282,-0.008239,-0.496744,-0.134075,0.047884,10.280702,0.104294,0.000000,0.028734,8.934961,8.905078,1.856250
38.136383,-0.917654,-1.481688,-0.032521,-0.414516,-0.191536,0.019154,10.797849,0.461873,0.004257,0.092588,8.234180,9.254297,1.518750
38.237830,-1.111788,-1.366287,-0.051589,-0.271909,-0.057461,0.828394,10.309432,0.788590,-0.042569,0.043633,4.730273,9.254297,-0.168750
38.339567,-1.094215,-1.304013,-0.069430,-0.071069,-0.071826,1.723825,10.520122,1.198317,-0.015963,0.120257,-0.175195,11.349609,-2.868750
38.441460,-0.751495,-1.410964,-0.123473,0.067895,-0.100556,3.122039,9.921572,1.691052,-0.018092,0.086202,-6.131836,13.444922,-10.968750
38.542867,-0.924738,-1.487179,-0.209909,0.161598,-0.052672,5.200206,8.274361,1.893255,-0.018092,0.046826,-6.131836,13.444922,-10.968750
38.644531,-1.027791,-1.536453,-0.326508,0.225029,-0.129287,6.876147,7.038953,1.568667,-0.088331,-0.025541,-15.592383,15.889453,-23.118750
38.746574,-0.888522,-1.554682,-0.455688,0.276132,-0.114922,7.987057,5.477933,1.626135,0.048954,0.159634,-21.198633,15.889453,-30.543750
38.847798,-0.926033,-1.537956,-0.591244,0.335484,0.229843,8.997410,3.763685,1.547382,0.019156,0.104294,-21.198633,15.889453,-30.543750
38.949665,-0.733492,-1.515355,-0.728000,0.374206,0.138864,9.744401,1.766921,1.007820,-0.048954,0.007450,-33.462305,14.841797,-49.443750
39.052103,-0.971141,-1.528640,-0.861000,0.346265,0.368707,10.074801,0.660800,0.456552,-0.039376,-0.054275,-34.513477,13.794141,-56.193750
39.153549,-1.057887,-1.623249,-0.984899,0.213945,0.445322,9.959879,0.919373,0.044697,0.001064,-0.017028,-34.513477,15.191016,-60.243750
39.255275,-0.676377,-1.856312,-1.074791,-0.063740,-0.004788,9.935937,1.077391,-0.529984,-0.019156,-0.042569,-34.513477,13.794141,-60.243750
39.358020,-0.680620,-2.253411,-1.072087,-0.518058,0.043096,9.648633,2.135628,-1.229179,0.000000,-0.041505,-34.688672,16.064062,-56.362500
39.460278,-0.754137,-2.582068,-0.862032,-0.885727,-0.076614,8.485051,4.070143,-2.052889,-0.097909,-0.122386,-32.411133,18.333984,-47.081250
39.562465,-0.788138,-2.584301,-0.638629,-0.877046,-0.095768,6.119579,6.885724,-2.626505,-0.026606,-0.053211,-32.411133,18.333984,-47.081250
39.665276,-0.811305,-2.584026,-0.412147,-0.892682,-0.172383,2.930503,10.668563,-2.389183,0.068110,0.106422,-18.045117,16.587891,-18.731250
39.767105,-0.903416,-2.537564,-0.264763,-0.879360,-0.143652,0.842759,10.821792,-1.645291,-0.031927,0.071303,-8.234180,14.492578,-5.906250
39.868946,-0.984222,-2.481438,-0.179062,-0.876137,-14.949395,1.656788,-6.962338,-0.387378,0.829031,0.301175,2.102344,10.825781,1.350000
39.970325,-1.077612,-2.384340,-0.139632,-0.772233,0.258574,-1.053449,12.770672,0.393763,-0.260735,-0.040441,9.986133,12.048047,6.581250
40.071866,-0.976523,-2.247843,-0.246558,-0.531784,0.028730,1.096544,9.485827,3.138397,-0.035119,0.000000,7.533398,12.397266,5.231250
40.173462,-0.901223,-2.070800,-0.452236,-0.157901,-0.110133,4.194641,7.498640,3.516197,0.042569,0.108551,-9.986133,16.937109,-9.956250
40.275111,-0.764908,-1.968979,-0.680476,0.013751,0.086191,7.766790,4.132392,2.761662,-0.014899,0.105358,-24.001758,18.683203,-30.543750
40.376349,-0.593756,-1.867523,-0.861232,0.128723,-0.038307,9.356540,2.097321,1.886870,0.014899,0.101101,-30.308789,17.635547,-46.406250
40.478303,-0.715307,-1.818360,-1.012607,0.140351,0.373495,10.017340,0.636858,0.852444,0.003193,0.034055,-35.564648,19.730859,-56.531250
40.579797,-0.997237,-1.949809,-1.125626,-0.042751,0.220267,10.299856,-0.474052,-0.243707,-0.032991,-0.110679,-35.389453,12.921094,-63.112500
40.682055,-0.787283,-2.379473,-1.112692,-0.543972,-0.402226,9.615114,1.843535,-1.656997,-0.153248,-0.159634,-34.163086,17.635547,-56.531250
40.784263,-0.930186,-2.605237,-0.851079,-0.884390,-0.043096,8.418013,4.204218,-2.328523,0.038312,0.003193,-32.411133,22.524609,-40.331250
40.886222,-0.726848,-2.604533,-0.618664,-0.894332,-0.248997,6.493075,6.766014,-2.543496,0.131964,0.074496,-25.052930,22.524609,-40.331250
40.987833,-0.686321,-2.604718,-0.401455,-0.899925,-0.363919,3.576937,10.716447,-2.411532,-0.054275,-0.012771,-25.052930,20.429297,-26.156250
41.089431,-0.915139,-2.572608,-0.273965,-0.868078,-0.411803,2.188300,10.692505,-1.379235,0.061725,0.189432,-25.052930,20.429297,-26.156250
41.191932,-0.992682,-2.504442,-0.201926,-0.789762,-0.210690,1.522712,10.180145,-0.791783,-0.029798,0.127707,-7.183008,17.286328,-0.843750
41.293586,-1.309104,-2.421778,-0.140373,-0.705425,0.158017,0.545878,10.342951,-0.637470,-0.057468,0.144734,0.700781,14.667187,4.725000
41.395120,-1.012004,-2.352959,-0.089116,-0.596151,0.272939,0.335188,10.127473,-0.229872,0.068110,0.054275,3.679102,12.397266,8.943750
41.497068,-0.847308,-2.261565,0.011795,-0.510947,2.197877,-11.123461,30.482976,-0.633213,-0.386313,0.157505,7.007812,11.175000,10.462500
41.598214,-0.896936,-2.139549,0.037382,-0.481649,-0.095768,1.484405,10.917560,0.088331,0.034055,0.186239,10.336523,12.048047,10.631250
41.699970,-1.118040,-2.043448,0.045578,-0.413996,0.100556,-0.215478,11.013328,-0.014899,-0.092588,0.024477,9.110156,10.476562,14.175000
41.801148,-1.090650,-1.934613,0.057849,-0.358368,-0.311246,-0.253785,10.127473,0.001064,0.017028,0.014899,9.110156,10.476562,14.175000
41.903358,-1.151537,-1.814872,0.056440,-0.333774,0.028730,-0.258574,10.122685,0.005321,0.017028,0.014899,9.110156,11.873437,12.825000
42.004354,-1.093030,-1.692514,0.048233,-0.314130,-0.038307,-0.253785,10.175357,0.007450,0.005321,0.015963,10.511719,11.175000,13.837500
42.106033,-1.073660,-1.568787,0.037861,-0.287377,0.052672,-0.210690,10.108319,0.008514,0.006385,0.012771,9.460547,12.571875,12.150000
42.208202,-1.066993,-1.444750,0.024982,-0.243151,-0.043096,-0.177171,10.261548,0.012771,0.006385,0.014899,10.686914,11.349609,14.343750
42.309796,-1.119267,-1.315053,0.022499,-0.201292,-0.067038,-0.220267,10.170569,0.010642,0.009578,0.013835,9.460547,12.222656,13.162500
42.411744,-1.004344,-1.186221,0.019505,-0.132153,0.019154,-0.263362,10.218453,0.012771,0.005321,0.015963,9.460547,12.222656,13.162500
42.513388,-1.107885,-1.048129,0.023221,-0.070186,-0.028730,-0.320823,10.213664,0.014899,0.004257,0.017028,9.460547,12.222656,13.162500
42.615370,-0.936351,-0.907596,0.015717,-0.023946,0.004788,-0.215478,10.065224,0.012771,0.005321,0.012771,9.285352,11.349609,13.331250
42.717451,-0.874375,-0.979726,0.018876,-0.014886,0.033519,-0.201113,10.314221,0.013835,0.008514,0.015963,8.934961,13.095703,11.643750
42.819502,-0.903552,-0.902404,0.025480,-0.003209,-0.114922,-0.220267,10.141838,0.011706,0.007450,0.010642,9.110156,11.175000,14.512500
42.921587,-1.111953,-0.939256,0.029703,-0.008632,-0.028730,-0.339977,10.031705,0.012771,0.003193,0.014899,8.759766,11.524219,13.837500
43.023229,-0.904293,-0.881545,0.017870,-0.017053,-0.009577,-0.229843,10.165780,0.012771,0.013835,0.010642,9.986133,12.048047,12.993750
43.124915,-0.945884,-0.849345,0.024326,-0.003556,-0.148441,-0.201113,9.950302,0.009578,0.015963,0.019156,10.511719,11.873437,13.837500
43.226392,-1.046669,-0.787057,0.029502,-0.027400,-0.043096,-0.349553,10.223241,0.012771,0.003193,0.012771,10.336523,9.603516,13.331250
43.328623,-1.030884,-0.769065,0.029937,-0.029258,-0.009577,-0.469264,10.122685,0.009578,0.006385,0.015963,10.336523,9.603516,13.331250
43.430042,-0.986571,-0.814708,0.022831,0.012235,-0.052672,-0.330400,10.113108,0.014899,0.009578,0.011706,10.511719,12.921094,12.825000
43.532614,-0.926345,-0.885789,0.031123,-0.022089,-0.100556,-0.301669,10.160992,0.013835,0.005321,0.014899,9.810937,11.524219,14.512500
43.634058,-1.042916,-0.868639,0.024590,-0.010716,0.038307,-0.316035,10.160992,0.012771,0.008514,0.011706,9.986133,11.349609,12.993750
43.736204,-1.110376,-0.869299,0.026073,-0.011959,0.023942,-0.349553,10.218453,0.012771,0.005321,0.013835,10.686914,12.048047,14.006250
43.838358,-1.211428,-0.862264,0.027745,-0.006254,-0.062249,-0.306458,10.146627,0.013835,0.007450,0.015963,10.686914,12.048047,14.006250
43.939963,-1.323656,-0.901822,0.016357,-0.015690,-0.081403,-0.215478,10.108319,0.014899,0.006385,0.014899,9.635742,12.048047,14.343750
44.041274,-1.068588,-0.937015,0.022319,-0.004180,-0.129287,-0.205901,10.386047,0.012771,0.005321,0.015963,8.759766,11.524219,13.162500
44.143291,-0.930396,-0.932848,0.039414,-0.012898,-0.090980,-0.387861,10.218453,0.011706,0.006385,0.012771,8.759766,11.524219,13.162500
44.244561,-1.078440,-0.898494,0.020432,-0.016606,0.086191,-0.349553,10.366893,0.015963,0.005321,0.014899,10.336523,12.397266,13.331250
44.346990,-1.227744,-0.892458,0.022225,-0.008639,-0.009577,-0.292093,10.256760,0.010642,0.005321,0.013835,9.285352,11.000391,15.018750
44.448240,-1.610925,-0.892109,0.020089,-0.010032,0.033519,-0.320823,10.280702,0.015963,0.005321,0.012771,9.285352,11.000391,14.343750
44.550220,-0.795715,-0.890103,0.022483,-0.008807,0.004788,-0.306458,10.213664,0.014899,0.009578,0.014899,9.635742,11.349609,14.343750
44.651582,-1.002191,-0.810463,0.021508,-0.038374,0.047884,-0.330400,10.223241,0.017028,0.006385,0.014899,10.336523,9.952734,14.006250
44.753560,-0.920491,-0.816013,0.014156,-0.022979,0.028730,-0.306458,10.199299,0.014899,0.007450,0.017028,10.511719,10.825781,13.500000
44.855607,-1.113769,-0.873543,0.013110,-0.010354,-0.038307,-0.234632,10.156203,0.009578,0.003193,0.017028,9.460547,11.175000,14.175000
44.956778,-0.887720,-0.892745,0.028201,-0.006988,-0.043096,-0.325611,10.098743,0.014899,0.007450,0.014899,10.336523,12.397266,14.681250
45.058624,-0.840580,-0.836485,0.024155,-0.029562,0.090980,-0.368707,10.113108,0.013835,0.005321,0.009578,10.336523,11.000391,13.668750
45.160237,-0.758631,-0.877674,0.024154,-0.005602,-0.047884,-0.292093,10.175357,0.012771,0.004257,0.017028,10.336523,12.048047,13.331250
45.262420,-0.533283,-0.865893,0.019568,-0.007555,-0.038307,-0.239420,10.285490,0.013835,0.004257,0.012771,10.161328,11.524219,12.825000
45.363977,-0.916394,-0.880016,0.022277,-0.021198,0.090980,-0.383072,10.170569,0.013835,0.003193,0.013835,9.460547,11.175000,13.162500
45.466384,-1.088626,-0.815078,0.021635,-0.029904,-0.009577,-0.296881,10.184934,0.014899,0.008514,0.015963,11.212500,11.175000,13.500000
45.567962,-1.104162,-0.881934,0.025897,-0.003636,-0.057461,-0.301669,10.275914,0.017028,0.007450,0.010642,10.161328,12.571875,13.500000
