Time, Altitude, Yaw, Pitch, Roll, Ax, Ay, Az, Pitch_rate, Roll_rate,Yaw_rate, Magx, Magy, Magz0.834241,-0.162453,-0.068549,-0.034349,0.157532,0.632069,-0.387861,10.409989,-0.038312,0.081945,0.126643,23.125781,8.381250,27.675000
0.934467,-0.116387,-0.020029,-0.110068,0.351327,0.153229,-0.713472,10.103531,-0.238386,-0.028734,0.148991,28.206445,11.000391,28.856250
1.034432,-0.316353,0.044646,-0.174634,0.521246,0.426168,-0.847547,10.553641,-0.071303,-0.123450,0.100037,28.206445,11.000391,28.856250
1.136676,-0.238804,0.183581,-0.236178,0.703574,0.708684,-1.513135,9.974244,-0.103230,-0.113872,0.543819,28.206445,11.000391,28.856250
1.237353,-0.450082,0.314080,-0.273963,0.892162,0.186748,-0.751779,10.113108,0.006385,0.027670,0.097909,31.184766,10.476562,26.662500
1.339505,-0.281409,0.432836,-0.288492,1.084306,0.426168,-0.651223,9.979033,0.137285,-0.202203,0.147927,32.761523,12.048047,25.481250
1.440968,-0.487542,0.504401,-0.259813,1.262935,0.718260,-0.531513,9.768343,0.293726,0.073431,-0.056404,32.936719,12.921094,23.625000
1.542438,-0.230990,0.547989,-0.184986,1.442068,0.411803,-0.737414,10.137050,0.002128,0.044697,0.064918,33.287109,12.571875,23.287500
1.644280,-0.737211,0.561703,-0.086101,1.591099,0.076614,-0.928950,10.184934,0.009578,0.110679,0.047890,32.761523,11.000391,22.106250
1.746227,-0.389034,0.527293,0.018828,1.744356,0.430956,-0.469264,10.946290,0.036184,0.181982,0.065982,31.710352,12.397266,22.781250
1.848679,-0.435977,0.459929,0.142050,1.901514,-0.239420,-0.502782,9.777920,0.059597,-0.047890,-0.126643,31.710352,12.397266,22.781250
1.950860,-0.386819,0.360944,0.240835,2.045571,0.172383,-0.541090,10.098743,-0.304368,-0.096844,0.146863,31.359961,14.492578,22.781250
2.052557,-0.452429,0.263355,0.304599,2.224226,-0.258574,-0.675165,10.223241,0.194753,-0.081945,0.030863,33.111914,12.746484,22.443750
2.153528,-0.472752,0.104605,0.332183,2.402264,0.301669,-0.392649,10.587160,0.202203,-0.032991,-0.220294,33.287109,13.270312,21.937500
2.255071,-0.451374,-0.047774,0.335615,2.596191,0.134075,-0.497994,10.026917,0.101101,-0.012771,-0.072367,32.060742,12.746484,22.106250
2.357003,-0.426949,-0.184721,0.298426,2.781404,0.272939,-0.411803,9.878476,-0.020220,-0.030863,0.002128,31.535156,12.921094,21.262500
2.458883,-0.510576,-0.289849,0.218117,2.957778,0.229843,-0.684742,10.271125,0.012771,0.123450,-0.011706,30.834375,9.428906,20.250000
2.560268,-0.523127,-0.363718,0.103655,3.115208,0.129287,-0.497994,9.955091,0.012771,-0.040441,-0.007450,32.060742,12.746484,22.443750
2.661833,-0.389870,-0.367089,0.057369,-3.138305,0.210690,-0.526724,10.180145,-0.022349,-0.043633,-0.014899,30.308789,11.349609,21.093750
2.764730,-0.332617,-0.325140,0.071658,3.130298,0.344765,-0.632069,10.098743,0.012771,-0.021284,-0.003193,31.710352,10.651172,21.431250
2.867006,-0.467239,-0.344382,0.077288,3.131090,0.349553,-0.632069,10.170569,-0.022349,0.003193,-0.004257,30.834375,10.825781,21.262500
2.968591,-0.425780,-0.337012,0.074643,3.117617,0.416591,-0.660800,10.170569,-0.032991,-0.034055,-0.006385,29.958398,10.301953,21.431250
3.069757,-0.508570,-0.322127,0.076383,3.128020,0.301669,-0.775721,10.026917,-0.045762,-0.054275,0.002128,29.783203,10.127344,22.275000
3.170664,-0.151969,-0.351660,0.062699,3.122606,0.430956,-0.536301,10.113108,0.105358,-0.059597,-0.127707,29.783203,10.127344,22.275000
3.273077,-0.359094,-0.347035,0.074697,3.100858,0.483629,-0.632069,10.050859,0.055340,-0.086202,-0.110679,28.031250,8.730469,20.587500
3.375051,-0.105642,-0.336796,0.037738,3.095605,0.512359,-0.248997,9.993398,-0.004257,0.012771,0.010642,28.031250,8.730469,20.587500
3.476178,-0.321269,-0.267867,0.052300,3.094042,0.675165,-0.421379,10.208876,0.004257,0.017028,0.042569,30.483984,7.333594,19.912500
3.578676,-0.321891,-0.335235,0.056447,3.096711,0.636858,-0.450110,9.993398,0.011706,0.028734,0.044697,28.732031,9.079687,20.250000
3.680155,-0.267855,-0.341430,0.075649,3.106905,0.598550,-0.593762,10.070012,0.012771,0.030863,0.023413,29.082422,9.428906,20.587500
3.781641,-0.296719,-0.330541,0.073217,3.107819,0.579397,-0.588974,10.089166,0.009578,0.011706,0.001064,30.659180,9.603516,20.418750
3.883461,-0.304781,-0.362896,0.071270,3.100019,0.560243,-0.526724,10.199299,-0.023413,-0.004257,-0.023413,29.783203,10.825781,19.912500
3.985007,-0.285170,-0.363356,0.085164,3.118896,0.488417,-0.742203,10.204087,-0.019156,0.244772,0.050019,29.608008,11.000391,20.081250
4.086763,-0.480134,-0.352222,0.059014,-3.129939,0.143652,-0.651223,10.390835,-0.008514,0.766241,0.041505,29.608008,11.000391,20.081250
4.188102,-0.182014,-0.366174,-0.010347,-2.947622,-1.503559,-0.454898,9.303868,0.076624,1.600593,0.110679,30.308789,16.937109,24.131250
4.289865,-0.450545,-0.367572,-0.055436,-2.786442,-2.916138,-0.454898,9.433155,-0.063853,0.916297,0.120257,31.710352,27.762891,27.506250
4.391676,-0.442813,-0.435344,-0.144372,-2.679366,-4.189853,-0.459687,8.714894,0.038312,1.069545,0.207524,30.483984,34.921875,27.675000
4.493009,-0.191847,-0.443537,-0.239430,-2.595422,-5.248090,-0.311246,8.178593,0.107487,0.672590,0.108551,30.834375,39.461719,27.337500
4.594721,-0.403655,-0.456892,-0.266360,-2.632401,-5.875371,0.943315,9.198523,0.308625,0.680039,-0.014899,29.608008,46.620703,29.531250
4.696906,-0.292993,-0.497222,-0.344061,-2.572463,-6.019023,-0.038307,8.188170,0.094716,0.372478,0.003193,27.856055,48.716016,28.518750
4.798071,-0.031218,-0.520668,-0.388195,-2.567437,-6.382942,-0.043096,7.872135,-0.039376,0.717287,0.039376,27.856055,48.716016,28.518750
4.900316,-0.458996,-0.443899,-0.394707,-2.500671,-6.454768,-0.153229,7.838616,0.039376,0.386313,0.008514,27.856055,48.716016,28.518750
5.002331,-0.571017,-0.385144,-0.426760,-2.380777,-7.948750,0.435745,5.884948,0.051083,0.723672,0.154313,31.009570,54.652734,27.506250
5.104068,-0.254795,-0.334114,-0.430627,-2.315204,-7.781155,0.229843,6.062119,0.032991,0.382057,0.067046,29.257617,57.097266,25.481250
5.205880,-0.193943,-0.291440,-0.463530,-2.264518,-7.924807,0.483629,5.410896,0.017028,0.466130,0.057468,28.907227,60.938672,26.156250
5.307535,-0.186237,-0.264894,-0.428481,-2.203247,-8.566454,0.124498,5.195418,-0.004257,0.586388,-0.047890,30.133594,63.208594,24.300000
5.409911,-0.543368,-0.170203,-0.441703,-2.079632,-9.174581,0.430956,3.854665,-0.021284,0.470387,0.101101,30.133594,68.097656,22.612500
5.510922,-0.326286,-0.217642,-0.421998,-2.086342,-8.930372,0.153229,4.568137,-0.027670,-0.130900,0.041505,29.958398,70.367578,19.406250
5.613327,-0.513487,-0.222879,-0.438275,-2.116464,-8.829816,0.287304,4.644751,-0.032991,-0.502314,-0.001064,28.206445,70.018359,21.768750
5.714798,-0.453243,-0.364276,-0.450524,-2.260124,-8.240842,0.033519,5.951985,0.104294,-1.437767,-0.257542,28.206445,70.018359,21.768750
5.817016,-0.358264,-0.507431,-0.411685,-2.486370,-7.077260,-0.105345,6.368576,0.124514,-1.761291,-0.220294,29.432813,56.922656,25.650000
5.919618,-0.226200,-0.663714,-0.307538,-2.734670,-5.070919,-0.210690,8.777143,0.120257,-1.667639,-0.295854,27.856055,44.874609,28.181250
6.020750,-0.511321,-0.739843,-0.220669,-2.911022,-3.586514,-0.158017,9.284714,-0.022349,-1.313253,-0.156441,25.403320,32.302734,28.518750
6.122413,-0.090239,-0.759270,-0.117540,-3.024871,-2.643199,-0.052672,10.773907,0.118129,-0.787526,-0.273506,25.928906,24.096094,26.325000
6.224040,-0.447988,-0.663390,-0.094766,-3.057560,-1.771709,-0.167594,10.907983,0.060661,-0.587452,-0.064918,24.176953,19.556250,27.000000
6.326303,-0.170316,-0.635267,-0.030030,-3.098462,-0.775721,-0.244209,10.630255,-0.207524,-0.469323,-0.013835,24.176953,19.556250,27.000000
6.428046,-0.350226,-0.660591,-0.016472,-3.106801,-0.603339,-0.043096,10.409989,0.081945,-0.390570,-0.117065,24.176953,19.556250,27.000000
6.529433,-0.190361,-0.516840,-0.004407,3.107855,0.148441,0.172383,10.352528,0.143670,-0.067046,0.053211,25.753711,13.444922,21.768750
6.631498,-0.301763,-0.452965,0.034955,3.124161,0.110133,-0.387861,10.577583,-0.216038,-0.018092,0.068110,23.826563,10.476562,21.262500
6.733440,-0.257716,-0.404774,0.018297,3.128170,0.201113,-0.143652,9.868899,-0.067046,0.022349,0.104294,23.826563,9.778125,20.587500
6.835598,-0.119651,-0.482226,0.025200,3.121140,0.416591,-0.158017,10.194511,0.029798,0.006385,0.025541,24.176953,11.873437,20.587500
6.937175,-0.071915,-0.418607,0.023679,3.106612,0.464475,-0.023942,10.180145,0.004257,-0.054275,0.042569,23.300977,9.603516,21.768750
7.038973,-0.321136,-0.479082,0.046388,3.099495,0.679953,-0.167594,10.117896,-0.030863,0.042569,0.157505,25.228125,11.873437,21.262500
7.140633,-0.123259,-0.394929,0.021112,3.089708,0.560243,-0.119710,10.223241,0.035119,0.008514,-0.045762,26.104102,9.952734,20.756250
7.241534,-0.496244,-0.379391,0.009848,3.113447,0.383072,-0.023942,10.127473,0.020220,0.005321,-0.036184,25.052930,9.254297,22.106250
7.343420,-0.459031,-0.381692,0.023670,3.117982,0.229843,-0.148441,10.189722,-0.006385,-0.008514,-0.010642,25.052930,9.254297,22.106250
7.445234,0.000494,-0.403780,0.033625,3.109514,0.354342,-0.129287,10.232818,-0.053211,-0.013835,-0.012771,26.104102,10.651172,21.093750
7.547292,-0.185144,-0.405880,0.024272,3.126343,0.229843,-0.205901,10.146627,-0.012771,0.000000,-0.001064,25.928906,10.825781,21.262500
7.649214,-0.441979,-0.436676,0.048013,3.124972,0.517148,-0.440533,10.352528,0.000000,-0.004257,0.017028,26.104102,12.746484,21.093750
7.750351,0.055453,-0.466585,0.021781,3.106582,0.387861,-0.071826,10.031705,0.047890,0.022349,-0.008514,24.176953,11.524219,21.600000
7.852051,-0.486443,-0.452328,0.016906,3.117556,0.263362,-0.143652,10.443508,0.020220,0.005321,-0.011706,25.928906,9.778125,22.275000
7.954161,-0.155151,-0.382097,0.029003,3.097204,0.478840,-0.129287,10.122685,0.029798,0.003193,-0.004257,25.928906,9.778125,22.275000
8.055204,-0.506563,-0.474490,0.033738,3.115300,0.497994,-0.129287,10.194511,0.006385,-0.001064,-0.048954,24.527344,11.524219,20.925000
8.157443,-0.384744,-0.458434,0.049236,3.109830,0.430956,-0.220267,10.103531,-0.023413,0.007450,-0.050019,24.527344,11.524219,20.925000
8.259618,-0.345175,-0.412454,0.026042,3.141532,0.105345,-0.225055,10.208876,-0.015963,0.060661,0.112808,25.753711,11.000391,21.431250
8.361316,-0.225271,-0.418333,0.029913,3.122529,0.234632,-0.220267,10.160992,0.004257,0.015963,0.166019,25.578516,11.175000,22.612500
8.463137,-0.352017,-0.434698,0.031014,3.123763,0.397437,-0.301669,10.175357,0.032991,-0.002128,0.031927,25.753711,11.349609,21.768750
8.563757,-0.187189,-0.411238,0.025138,3.132028,0.277727,-0.220267,10.309432,0.008514,0.005321,0.018092,25.928906,10.825781,21.937500
8.665558,-0.353209,-0.459490,0.037618,3.122632,0.454898,-0.282516,10.180145,-0.004257,-0.051083,-0.026606,25.403320,11.698828,20.418750
8.767646,-0.046096,-0.480435,0.049693,3.091659,0.656011,-0.215478,10.050859,0.030863,-0.015963,-0.045762,24.527344,11.873437,22.275000
8.868867,-0.273426,-0.428206,0.052045,3.113572,0.383072,-0.387861,10.156203,-0.084074,-0.017028,0.031927,24.176953,9.778125,22.612500
8.970730,-0.303341,-0.414392,0.059715,3.084629,0.732626,-0.368707,10.390835,-0.064918,0.001064,0.050019,24.176953,9.778125,22.612500
9.071900,-0.288481,-0.381335,0.028608,3.123035,0.234632,-0.268151,10.304644,-0.025541,0.050019,0.019156,26.454492,10.301953,20.418750
9.173363,-0.358858,-0.391560,0.070028,3.133922,0.392649,-0.550666,10.089166,-0.036184,-0.031927,0.263928,26.454492,11.698828,20.756250
9.275162,-0.371513,-0.428768,0.084480,3.096841,0.770933,-0.612916,10.328586,0.015963,-0.074496,0.266056,26.454492,11.698828,20.756250
9.376988,-0.302445,-0.363233,0.045621,3.112868,0.493206,-0.311246,10.137050,0.023413,0.034055,0.105358,28.556836,9.952734,21.093750
9.478395,-0.432630,-0.377315,0.073480,3.123683,0.387861,-0.593762,10.070012,-0.008514,0.011706,0.060661,27.505664,10.651172,21.093750
9.580680,-0.313500,-0.340769,0.072014,3.122606,0.392649,-0.665588,10.467450,0.042569,0.029798,-0.014899,29.257617,10.301953,20.418750
9.682438,-0.538256,-0.389579,0.057325,3.121655,0.469264,-0.392649,10.041282,0.077688,0.035119,0.006385,28.381641,10.825781,22.275000
9.783575,-0.246975,-0.363760,0.052854,3.127629,0.268151,-0.411803,10.256760,-0.021284,0.028734,0.003193,28.381641,10.825781,22.275000
9.884662,-0.327509,-0.355529,0.065251,3.126784,0.459687,-0.521936,10.290279,0.019156,-0.018092,0.003193,26.980078,9.428906,20.250000
9.986202,-0.540991,-0.394331,0.063191,3.112739,0.478840,-0.416591,10.050859,0.052147,-0.034055,-0.053211,28.031250,11.175000,20.587500
10.087673,-0.511663,-0.413067,0.028138,3.099127,0.464475,-0.148441,10.175357,0.021284,0.019156,-0.009578,26.279297,10.825781,21.600000
10.189431,-0.372529,-0.437404,0.061888,3.134849,0.387861,-0.512359,10.180145,-0.004257,0.030863,0.030863,26.980078,12.222656,21.600000
10.290929,-0.028908,-0.373766,0.034745,3.125211,0.354342,-0.263362,10.319009,0.045762,-0.031927,-0.019156,28.381641,10.825781,22.275000
10.392486,-0.156623,-0.400127,0.023001,3.095935,0.536301,-0.047884,9.844957,0.003193,-0.052147,-0.011706,28.381641,10.825781,22.275000
10.494180,-0.292034,-0.376109,0.052777,3.115646,0.464475,-0.464475,10.333374,0.013835,0.153248,0.259671,28.381641,10.825781,22.275000
10.595734,-0.600386,-0.379429,-0.004513,3.131472,0.134075,0.129287,10.275914,0.207524,0.145799,0.166019,28.907227,11.698828,22.106250
10.697829,-0.796971,-0.415314,-0.012617,3.131975,0.004788,0.124498,10.060435,0.110679,-0.008514,-0.047890,27.856055,12.397266,21.431250
10.798822,-0.337479,-0.445497,0.005772,-3.139324,0.129287,-0.033519,10.060435,-0.024477,-0.010642,-0.003193,26.454492,13.095703,23.118750
10.901057,-0.463114,-0.463469,0.047259,3.123418,0.354342,-0.335188,10.285490,-0.079817,-0.044697,-0.190496,27.330469,12.222656,21.937500
11.002603,-0.364803,-0.441404,0.062472,3.118534,0.435745,-0.459687,10.184934,-0.024477,-0.012771,-0.081945,27.330469,12.222656,21.937500
11.104617,-0.522474,-0.431180,0.028562,3.125913,0.268151,-0.181959,10.290279,0.017028,0.054275,-0.053211,27.330469,11.873437,22.950000
11.206767,-0.542951,-0.426763,0.027541,-3.139059,0.177171,-0.215478,10.093954,0.063853,-0.002128,-0.007450,26.980078,11.873437,21.262500
11.308968,-0.267356,-0.470496,0.028158,3.127218,0.196325,-0.186748,10.055647,0.005321,0.013835,0.015963,24.176953,11.873437,20.587500
11.409956,-0.504389,-0.458518,0.023907,3.127391,0.177171,-0.220267,10.117896,0.014899,0.001064,0.035119,24.176953,11.873437,20.587500
11.511509,-0.588645,-0.425593,0.023686,3.119191,0.229843,-0.201113,10.170569,-0.004257,0.009578,0.027670,26.629687,11.873437,21.937500
11.612449,-0.364632,-0.389103,0.047068,3.118763,0.445322,-0.287304,10.376470,0.012771,-0.025541,0.021284,25.403320,9.603516,21.093750
11.713479,-0.386265,-0.394503,0.031257,3.110291,0.411803,-0.181959,10.089166,0.000000,0.001064,0.028734,27.856055,11.000391,22.443750
11.814564,-0.418182,-0.396906,0.049570,3.110268,0.512359,-0.339977,10.108319,0.065982,0.026606,0.096844,26.104102,10.651172,21.431250
11.916617,-0.294803,-0.444516,0.029710,3.108435,0.488417,0.301669,9.662998,0.029798,0.093652,0.057468,25.928906,12.222656,21.262500
12.018536,-0.242870,-0.391173,0.047701,3.133763,0.191536,-0.454898,10.405200,0.086202,0.090459,0.031927,27.330469,10.825781,22.950000
12.119531,-0.185737,-0.404203,0.012363,-3.139130,0.057461,-0.095768,10.261548,0.077688,0.027670,-0.030863,27.505664,11.698828,22.443750
12.221457,-0.324695,-0.423147,0.014700,3.106888,0.316035,-0.057461,10.022128,0.063853,-0.004257,-0.052147,27.505664,11.698828,22.443750
12.323273,-0.680111,-0.427996,-0.001931,-3.127469,-0.028730,0.014365,10.103531,-0.019156,0.035119,-0.009578,24.877734,11.524219,21.262500
12.425102,-0.542863,-0.426836,0.012610,3.139942,0.086191,-0.114922,10.213664,0.013835,-0.009578,0.002128,24.877734,11.524219,21.262500
12.527124,-0.295737,-0.457592,0.007412,-3.133562,0.086191,-0.119710,10.184934,0.039376,0.004257,0.008514,25.403320,12.397266,22.106250
12.629584,-0.106247,-0.447210,0.013325,3.121989,0.153229,-0.090980,10.237606,0.004257,0.023413,0.025541,25.928906,12.222656,23.287500
12.731283,-0.687149,-0.482465,0.028017,3.140026,0.215478,-0.239420,10.017340,0.018092,0.002128,0.012771,26.454492,13.444922,20.756250
12.833353,-0.268702,-0.432819,0.011197,3.140076,0.086191,-0.148441,10.204087,0.005321,0.015963,0.008514,25.753711,11.698828,21.431250
12.935740,-0.741826,-0.476206,0.002762,3.133472,0.124498,-0.033519,10.280702,0.004257,-0.003193,0.029798,24.352148,12.397266,21.768750
13.036930,-0.673153,-0.471555,0.013021,3.133856,0.119710,-0.090980,10.184934,-0.027670,0.013835,0.039376,24.352148,12.397266,21.768750
13.138625,-0.240574,-0.467326,0.027074,3.132138,0.148441,-0.244209,10.342951,0.017028,0.005321,0.013835,24.352148,12.397266,21.768750
13.239824,-0.376057,-0.426079,0.011397,3.119673,0.201113,-0.052672,10.113108,0.021284,0.000000,0.004257,25.928906,11.524219,21.937500
13.341475,-0.406449,-0.445509,0.021546,-3.141574,0.196325,-0.148441,10.218453,0.026606,0.043633,0.002128,26.104102,12.048047,22.443750
13.444222,-0.321624,-0.478478,0.015951,-3.122415,-0.023942,-0.201113,10.486603,0.003193,-0.003193,0.022349,24.527344,12.921094,22.612500
13.545875,-0.611666,-0.454760,0.034020,3.134120,0.282516,-0.239420,10.022128,0.050019,-0.013835,0.015963,26.454492,12.397266,23.456250
13.646962,-0.583562,-0.475154,-0.006261,3.136159,0.019154,0.000000,10.199299,0.001064,0.020220,-0.004257,26.804883,13.794141,21.768750
13.749030,-0.759879,-0.412964,0.020981,-3.130357,-0.014365,-0.105345,10.405200,-0.006385,-0.010642,0.010642,27.856055,12.397266,23.456250
13.850722,-0.480330,-0.448685,0.030184,3.132899,0.282516,-0.172383,10.199299,0.007450,-0.034055,0.017028,25.403320,12.048047,22.443750
13.952312,-0.226347,-0.456610,0.001570,-3.136878,-0.143652,-0.071826,10.232818,-0.050019,-0.011706,0.025541,25.403320,12.048047,22.443750
14.053663,-0.584493,-0.476509,0.017345,3.125507,0.311246,-0.062249,9.907206,-0.127707,-0.048954,0.088331,26.629687,13.619531,21.262500
14.155505,-0.319695,-0.463507,0.062364,-3.136558,0.172383,-0.751779,10.812215,-0.100037,-0.055340,-0.036184,26.980078,11.873437,22.612500
14.256840,-0.591668,-0.414307,0.029854,-3.128250,0.105345,-0.359130,10.400412,0.134092,-0.067046,0.059597,26.980078,11.873437,22.612500
14.359296,-0.418056,-0.406421,0.045767,3.075023,0.885855,-0.162806,9.844957,0.163891,0.011706,0.085138,26.454492,9.603516,22.106250
14.460657,-0.336316,-0.414928,-0.006696,3.095011,0.574608,0.766145,10.127473,0.143670,0.095780,-0.008514,26.454492,10.651172,22.443750
14.562248,-0.461195,-0.448275,-0.003985,3.119459,0.134075,0.138864,9.955091,-0.053211,0.030863,-0.040441,25.928906,11.873437,21.937500
14.664387,-0.393452,-0.376741,0.027789,3.131832,0.201113,-0.248997,10.654197,0.024477,0.074496,-0.025541,26.629687,10.476562,22.612500
14.765466,-0.224982,-0.392598,0.014374,3.106575,0.277727,-0.019154,10.156203,0.079817,0.018092,-0.018092,26.629687,10.476562,22.612500
14.867435,-0.142822,-0.388379,-0.011305,3.131169,-0.014365,0.110133,9.988609,-0.018092,0.025541,0.019156,26.279297,10.825781,22.275000
14.970147,-0.442789,-0.415216,0.032334,3.140684,0.110133,-0.335188,10.271125,-0.034055,0.035119,0.018092,25.228125,11.175000,22.275000
15.071152,-0.467837,-0.438047,0.012628,3.131709,0.172383,-0.138864,10.189722,0.018092,0.032991,0.001064,25.928906,11.873437,23.962500
15.173753,-0.474552,-0.368892,0.001870,-3.135376,-0.047884,-0.047884,10.156203,0.027670,0.028734,0.005321,26.279297,10.476562,22.612500
15.275431,-0.249385,-0.436004,0.011322,-3.139370,0.129287,-0.090980,10.170569,-0.005321,-0.027670,0.003193,25.052930,11.349609,22.781250
15.377640,-0.670448,-0.438744,0.005260,3.137042,0.038307,-0.124498,10.089166,0.019156,0.004257,0.005321,25.403320,12.048047,22.443750
15.478864,-0.528710,-0.447357,0.003101,-3.138353,0.028730,-0.019154,10.146627,0.017028,0.007450,0.026606,25.403320,12.048047,22.443750
15.580136,-0.488303,-0.463074,0.002913,3.134473,0.095768,-0.090980,10.127473,0.005321,0.000000,0.023413,26.804883,13.095703,23.118750
15.682287,-0.905850,-0.425151,0.023750,3.134964,0.067038,-0.186748,10.199299,0.003193,0.003193,-0.014899,26.629687,12.222656,24.300000
15.784075,-0.330359,-0.472729,0.011222,-3.130216,0.067038,-0.100556,10.141838,0.022349,-0.004257,0.021284,26.104102,14.143359,22.106250
15.885415,-0.646932,-0.459181,0.006333,3.126104,0.062249,-0.019154,9.974244,-0.014899,0.004257,0.021284,25.928906,12.222656,23.962500
15.986201,-0.497426,-0.435143,-0.004243,-3.117897,-0.134075,-0.023942,10.266337,0.011706,0.022349,-0.015963,25.753711,12.048047,22.443750
16.087781,-0.360506,-0.423204,0.007262,3.140252,0.052672,-0.100556,10.261548,0.003193,0.001064,-0.007450,25.403320,11.349609,23.456250
16.188775,-0.431625,-0.409841,-0.001672,-3.139805,0.004788,0.014365,10.137050,0.036184,0.026606,0.001064,25.403320,11.349609,23.456250
16.291765,-0.667716,-0.420029,-0.010773,-3.105502,-0.301669,-0.019154,10.390835,0.020220,-0.004257,0.017028,24.001758,11.349609,23.793750
16.393399,-0.660814,-0.459597,-0.010642,-3.133044,-0.105345,0.057461,10.098743,0.014899,0.000000,0.011706,25.052930,12.397266,23.793750
16.495451,-0.324996,-0.459704,0.012751,-3.132051,-0.014365,-0.153229,10.232818,-0.015963,0.007450,0.012771,25.052930,12.397266,23.793750
16.597169,-0.793679,-0.455907,-0.004508,-3.126069,-0.081403,0.014365,10.237606,0.025541,0.026606,0.007450,23.125781,11.524219,24.637500
16.700577,-0.339184,-0.488143,-0.009186,-3.126144,-0.062249,0.023942,10.132261,0.002128,-0.003193,0.015963,24.001758,12.746484,23.793750
16.802159,-0.471443,-0.442750,0.009075,-3.130909,-0.090980,-0.138864,10.333374,0.019156,0.002128,0.022349,26.454492,13.095703,23.456250
16.904275,-0.474065,-0.477717,0.013169,-3.136730,0.086191,-0.095768,10.232818,0.019156,0.006385,0.021284,25.578516,13.270312,22.275000
17.006174,-0.512638,-0.480655,-0.014844,-3.129177,-0.105345,0.071826,10.213664,0.014899,0.010642,0.030863,24.352148,12.746484,22.781250
17.108014,-0.659859,-0.419673,-0.006224,-3.141509,0.047884,0.009577,10.055647,0.038312,0.018092,0.014899,25.578516,11.175000,22.950000
17.209624,-0.271791,-0.442205,0.014687,-3.130128,-0.119710,-0.153229,10.036493,-0.038312,0.014899,0.032991,24.527344,12.222656,24.300000
17.311218,-0.331072,-0.441233,0.016126,-3.133222,-0.105345,-0.229843,10.371682,-0.001064,0.005321,0.006385,24.527344,12.222656,24.300000
17.413632,-0.338350,-0.450513,-0.005302,-3.139308,-0.014365,0.004788,10.156203,0.019156,-0.013835,0.017028,24.527344,12.222656,24.300000
17.515095,-0.281833,-0.440213,0.001326,3.132865,-0.033519,-0.038307,10.213664,0.006385,0.005321,0.011706,24.176953,10.825781,22.950000
17.616400,-0.800399,-0.408651,-0.010422,3.139103,-0.090980,0.062249,10.218453,0.024477,0.002128,0.009578,24.176953,10.825781,22.950000
17.718176,-0.423560,-0.433166,0.001109,-3.129447,-0.076614,-0.038307,10.113108,0.002128,-0.010642,0.011706,25.578516,11.873437,22.612500
17.819314,-0.733371,-0.440054,-0.006847,-3.127129,-0.105345,0.023942,10.156203,0.025541,-0.003193,0.020220,24.702539,11.698828,23.118750
17.921637,-0.098078,-0.438695,0.015220,-3.113104,-0.196325,-0.205901,10.141838,-0.003193,0.010642,0.012771,24.176953,11.873437,23.625000
18.023888,-0.402400,-0.431186,0.016206,-3.117936,-0.100556,-0.186748,10.237606,0.013835,-0.009578,0.009578,26.454492,12.397266,21.768750
18.125629,-0.405552,-0.466870,0.017746,3.138309,0.100556,-0.047884,10.036493,0.024477,-0.002128,0.020220,25.228125,12.571875,23.962500
18.226402,-0.420558,-0.447755,0.010336,-3.119050,-0.158017,-0.134075,10.280702,0.012771,-0.005321,0.012771,25.228125,12.571875,23.962500
18.328483,-0.633269,-0.424403,0.006365,3.139933,-0.028730,-0.086191,10.026917,-0.013835,0.005321,0.002128,26.104102,12.048047,21.768750
18.429701,-0.408615,-0.453302,0.005097,-3.129516,-0.071826,-0.158017,10.137050,0.027670,0.005321,0.014899,25.753711,12.746484,22.106250
18.531760,-0.363082,-0.426303,-0.007362,3.137815,-0.043096,0.033519,10.089166,0.014899,-0.006385,0.008514,25.753711,11.698828,22.781250
18.634006,-0.562020,-0.384638,0.005608,3.132731,0.028730,-0.047884,10.242395,0.010642,-0.004257,0.019156,26.104102,10.651172,23.118750
18.735840,-0.312912,-0.465065,0.006655,-3.140295,0.057461,-0.023942,10.079589,0.007450,0.009578,0.005321,26.279297,13.619531,23.625000
18.837271,-0.225109,-0.485573,0.008434,-3.129739,0.057461,-0.090980,10.089166,0.013835,0.006385,0.015963,26.279297,13.619531,23.625000
18.940139,-0.457984,-0.436053,0.004175,-3.133530,-0.038307,-0.076614,10.237606,0.004257,0.012771,0.012771,25.403320,11.698828,22.781250
19.041339,-0.245720,-0.421653,-0.008429,-3.129404,-0.033519,-0.004788,10.261548,-0.002128,-0.002128,0.015963,26.104102,11.698828,23.456250
19.143025,-0.380906,-0.407645,0.012953,3.136334,0.023942,-0.134075,10.184934,-0.017028,0.001064,0.034055,26.629687,11.524219,23.625000
19.245005,-0.564780,-0.432139,0.003821,-3.128880,0.004788,-0.062249,10.275914,0.026606,0.020220,0.014899,25.753711,12.048047,23.793750
19.346091,-0.326670,-0.391757,-0.001794,3.134520,0.043096,0.047884,10.113108,-0.014899,0.007450,0.041505,26.629687,11.175000,22.612500
19.447093,-0.416862,-0.413230,0.025040,-3.125187,0.023942,-0.229843,10.175357,-0.003193,-0.012771,0.009578,24.877734,11.175000,23.287500
19.548794,-0.398713,-0.429363,0.010797,-3.131422,-0.043096,-0.201113,10.266337,0.018092,-0.005321,0.004257,25.753711,13.794141,23.456250
19.650713,-0.438254,-0.492702,0.006059,-3.130025,-0.004788,-0.062249,10.165780,0.019156,0.008514,0.014899,25.753711,13.794141,23.456250
19.753717,-0.820621,-0.487762,0.012695,-3.124128,-0.062249,-0.186748,10.165780,0.015963,0.013835,0.011706,25.753711,13.794141,23.456250
19.856065,-0.640791,-0.387248,0.007632,-3.141393,-0.095768,-0.105345,10.213664,0.020220,0.002128,0.005321,26.279297,11.175000,22.612500
19.957448,-0.417882,-0.467356,0.019827,3.141292,0.057461,-0.100556,10.266337,0.007450,0.001064,0.024477,26.104102,13.095703,24.131250
20.059844,-0.404572,-0.407385,0.000685,-3.129257,-0.081403,-0.043096,10.002975,0.017028,0.004257,0.018092,26.454492,11.349609,22.781250
20.161610,-0.513758,-0.432025,0.004288,-3.134637,0.067038,-0.038307,10.108319,-0.004257,-0.026606,0.012771,25.753711,11.698828,23.793750
20.262665,-0.463012,-0.431831,0.033074,3.131965,0.239420,-0.186748,10.261548,0.009578,-0.010642,0.018092,26.804883,12.048047,22.781250
20.364997,-0.175356,-0.457371,-0.002401,3.141091,-0.033519,0.033519,10.070012,0.025541,0.070239,0.007450,25.052930,12.048047,22.781250
20.466873,-0.465475,-0.446438,0.025320,3.139605,0.100556,-0.205901,10.218453,-0.006385,-0.002128,-0.006385,24.702539,11.698828,23.793750
20.568752,-0.654267,-0.435848,-0.017149,-3.117381,-0.134075,0.004788,10.242395,-0.009578,0.027670,-0.004257,24.702539,11.698828,23.793750
20.670423,-0.475013,-0.425261,0.007099,-3.115235,-0.148441,-0.167594,10.165780,-0.007450,0.008514,0.026606,24.702539,11.698828,23.793750
20.772177,-0.175589,-0.449884,-0.009086,3.138388,0.023942,0.067038,10.175357,0.021284,-0.046826,0.045762,26.279297,12.571875,22.275000
20.873574,0.064687,-0.431970,0.024583,-3.119218,0.019154,-0.277727,10.237606,-0.042569,-0.021284,0.028734,25.578516,11.873437,23.625000
20.975986,-0.328991,-0.443746,-0.003524,3.132309,0.038307,-0.019154,10.213664,0.027670,-0.018092,0.017028,26.279297,12.571875,23.287500
21.077943,-0.064479,-0.429979,-0.003580,-3.138108,-0.162806,0.004788,10.290279,-0.040441,-0.012771,0.015963,26.980078,12.222656,23.287500
21.179584,-0.348422,-0.426860,0.055044,3.121702,0.349553,-0.416591,10.098743,-0.013835,-0.097909,0.008514,26.980078,12.222656,22.612500
21.282370,-0.103767,-0.457871,0.049296,3.109743,0.541090,-0.201113,9.801862,0.022349,0.012771,-0.024477,25.578516,11.524219,22.612500
21.382693,-0.431210,-0.370734,0.006846,3.123291,0.603339,0.186748,9.892841,0.086202,0.061725,-0.025541,25.578516,10.127344,21.937500
21.483888,-0.298493,-0.402121,0.007896,-3.132909,0.272939,-0.378284,10.074801,0.030863,0.005321,0.001064,26.804883,11.698828,22.443750
21.585744,-0.434495,-0.424844,0.032528,-3.127082,-0.004788,-0.416591,10.491392,0.045762,-0.042569,0.013835,26.804883,12.397266,22.443750
21.686967,-0.192650,-0.450823,0.027291,3.128649,0.306458,-0.124498,9.926360,0.029798,-0.039376,0.009578,26.804883,12.397266,22.443750
21.788475,-0.648001,-0.454324,0.029444,-3.135048,0.047884,-0.277727,10.256760,0.013835,-0.007450,-0.002128,24.527344,11.873437,23.625000
21.890738,-0.386479,-0.451791,0.011670,3.137188,0.067038,-0.114922,10.146627,0.043633,0.019156,0.022349,25.403320,12.048047,22.781250
21.992981,-0.231396,-0.417478,0.006627,3.120517,0.162806,0.000000,10.093954,0.011706,-0.019156,0.023413,26.804883,11.698828,23.118750
22.094777,-0.367399,-0.414423,0.021744,-3.140930,0.162806,-0.148441,10.170569,0.001064,0.006385,0.017028,24.877734,10.476562,23.287500
22.196349,-0.417834,-0.446768,0.030398,3.136528,0.330400,-0.205901,10.132261,0.017028,-0.010642,-0.002128,25.228125,12.571875,22.275000
22.298117,-0.508917,-0.424538,0.020448,3.108804,0.181959,-0.143652,10.160992,-0.004257,-0.003193,0.018092,24.702539,9.254297,22.106250
22.400279,-0.183679,-0.367650,0.011731,3.124964,0.205901,-0.086191,10.141838,0.009578,-0.014899,0.010642,24.702539,9.254297,22.106250
22.502802,-0.112536,-0.359759,0.024866,3.122431,0.253785,-0.181959,10.127473,0.014899,-0.017028,0.010642,24.702539,9.254297,22.106250
22.604335,-0.340774,-0.429719,0.031128,3.132516,0.158017,-0.215478,10.113108,0.000000,-0.018092,0.006385,25.753711,11.698828,22.781250
22.706469,-0.442730,-0.465505,0.032026,3.131067,0.292093,-0.215478,10.242395,0.007450,-0.017028,0.027670,24.527344,11.873437,22.612500
22.808007,-0.128963,-0.420886,0.037684,3.116827,0.349553,-0.258574,10.184934,0.000000,-0.009578,0.001064,26.454492,11.349609,22.443750
22.909384,-0.309726,-0.413468,0.029064,-3.141267,0.162806,-0.253785,10.280702,-0.020220,-0.037248,0.001064,25.228125,10.825781,22.612500
23.010994,-0.403973,-0.483655,0.032773,3.099808,0.464475,-0.067038,9.873688,0.051083,-0.004257,0.069175,24.877734,12.222656,21.262500
23.112340,-0.170292,-0.479427,0.040427,3.116525,0.435745,-0.277727,9.969456,0.006385,0.094716,0.051083,24.877734,12.222656,21.262500
23.213878,-0.434753,-0.408144,0.028227,-3.138645,0.205901,-0.258574,10.702081,0.024477,0.025541,-0.041505,25.578516,10.825781,22.612500
23.315179,-0.032063,-0.455045,0.014899,3.118309,0.177171,-0.043096,10.007763,0.065982,-0.028734,-0.014899,25.228125,12.222656,21.937500
23.417657,0.016175,-0.423488,-0.009593,3.120251,0.038307,0.148441,10.060435,-0.024477,-0.015963,0.046826,25.928906,11.524219,22.275000
23.519710,-0.147311,-0.419799,0.033023,3.139026,0.181959,-0.239420,10.007763,-0.079817,-0.042569,0.060661,25.403320,11.000391,20.756250
23.621370,-0.347206,-0.455393,0.048063,3.102408,0.555455,-0.248997,9.911995,-0.020220,0.053211,0.002128,26.980078,12.571875,22.612500
23.723095,-0.043803,-0.429891,0.028087,3.136047,0.124498,-0.268151,10.467450,0.026606,0.080881,0.014899,26.980078,12.571875,22.612500
23.824996,-0.487992,-0.410497,0.030895,3.120711,0.225055,-0.253785,10.093954,0.019156,0.089395,0.003193,26.980078,11.175000,22.275000
23.926506,-0.128559,-0.392551,0.021521,-3.117978,-0.052672,-0.225055,10.534487,0.021284,0.023413,-0.029798,26.104102,11.698828,22.781250
24.028395,-0.109140,-0.429767,0.011814,-3.140529,0.076614,-0.105345,10.108319,0.056404,-0.038312,-0.021284,26.980078,12.921094,22.275000
24.129747,-0.358887,-0.437625,-0.011204,3.136084,-0.009577,0.071826,10.022128,0.014899,0.020220,0.009578,26.104102,11.349609,23.118750
24.231489,-0.267357,-0.399635,-0.004649,-3.126475,-0.114922,0.014365,10.084377,0.010642,-0.025541,0.046826,26.104102,11.349609,23.118750
24.332698,-0.256700,-0.424892,0.014432,3.139873,0.014365,-0.119710,10.228029,0.013835,0.003193,0.035119,25.753711,11.349609,22.781250
24.434371,-0.253192,-0.417309,-0.014017,3.127804,-0.019154,0.124498,10.156203,0.021284,-0.028734,0.006385,25.753711,11.349609,22.781250
24.536580,-0.032786,-0.439102,0.011058,3.133085,0.177171,-0.038307,10.280702,-0.024477,-0.045762,0.020220,25.928906,12.571875,22.612500
24.638690,-0.345106,-0.440364,0.030280,3.115146,0.258574,-0.296881,10.074801,0.004257,-0.029798,0.021284,27.155273,11.000391,22.106250
24.740217,0.009858,-0.406182,0.021309,3.123073,0.172383,-0.081403,10.232818,0.012771,0.005321,0.027670,26.629687,11.873437,22.950000
24.841329,-0.366893,-0.423061,0.010126,3.128293,0.191536,-0.038307,10.117896,0.024477,-0.001064,0.028734,26.629687,11.873437,22.950000
24.942918,-0.233070,-0.449775,0.008794,3.131290,0.172383,-0.023942,10.208876,0.040441,0.036184,0.028734,26.104102,12.048047,22.443750
25.044728,-0.155195,-0.381451,0.010122,-3.138534,0.047884,-0.057461,10.098743,0.009578,0.014899,0.003193,25.928906,10.127344,22.612500
25.146927,-0.348285,-0.375933,0.018619,3.140632,0.143652,-0.100556,10.194511,0.013835,0.024477,0.006385,26.804883,10.301953,22.781250
25.247728,0.027133,-0.370422,0.012103,3.127151,0.186748,-0.043096,10.319009,0.019156,0.013835,0.015963,26.804883,10.301953,22.781250
25.348780,-0.242636,-0.436507,0.013471,3.140771,0.181959,-0.167594,10.213664,0.012771,-0.008514,0.045762,25.578516,11.524219,22.612500
25.450412,-0.158258,-0.445289,0.002616,-3.120428,-0.052672,-0.057461,10.180145,-0.005321,0.002128,0.005321,25.052930,12.746484,21.768750
25.552504,-0.136953,-0.457653,0.018000,3.114253,0.282516,-0.114922,10.079589,0.039376,-0.001064,0.019156,26.104102,12.048047,22.443750
25.654013,-0.268389,-0.443722,0.004319,-3.134645,0.047884,-0.067038,10.189722,-0.006385,0.012771,0.002128,26.104102,12.746484,22.781250
25.755832,-0.134603,-0.496689,0.001679,3.125497,0.215478,0.043096,10.093954,0.012771,0.021284,-0.014899,25.753711,13.444922,23.793750
25.857707,0.016619,-0.477831,0.000950,3.127864,0.028730,0.047884,10.271125,0.011706,-0.005321,-0.003193,24.877734,12.921094,21.600000
25.959898,-0.185310,-0.426082,0.009979,3.118799,0.162806,-0.076614,10.261548,0.005321,0.001064,0.038312,24.176953,10.825781,21.600000
26.061647,-0.220205,-0.441662,0.003222,3.120114,0.205901,0.014365,10.180145,0.046826,0.026606,0.008514,25.578516,11.524219,23.625000
26.163093,-0.143983,-0.405791,-0.002311,-3.140295,0.014365,0.028730,10.122685,0.022349,0.037248,0.035119,25.928906,10.825781,22.612500
26.264557,0.023507,-0.449939,-0.002071,-3.124208,-0.062249,0.019154,10.232818,0.028734,0.030863,0.017028,24.702539,12.746484,22.781250
26.366013,-0.078054,-0.469547,0.019485,3.110419,0.325611,-0.067038,10.275914,0.047890,-0.003193,0.017028,24.877734,12.222656,22.275000
26.467633,-0.103986,-0.452227,-0.007425,3.140416,-0.095768,0.043096,10.232818,-0.007450,0.020220,-0.010642,24.877734,12.222656,22.950000
26.569576,-0.338021,-0.468890,-0.005961,3.141371,0.057461,0.138864,10.175357,0.055340,-0.019156,0.034055,24.877734,12.222656,22.950000
26.671289,-0.272417,-0.445013,-0.013227,-3.141378,-0.153229,0.062249,10.026917,-0.057468,0.011706,0.148991,24.702539,12.048047,22.781250
26.772970,-0.121846,-0.468255,0.022900,3.128449,0.287304,-0.071826,10.232818,0.037248,-0.061725,0.110679,24.702539,12.048047,22.781250
26.874406,0.000898,-0.438955,0.023896,3.114201,0.349553,-0.196325,10.199299,-0.026606,-0.013835,0.015963,25.578516,11.175000,23.287500
26.976297,-0.220196,-0.429864,-0.010496,-3.138591,-0.090980,0.090980,10.299856,0.014899,0.024477,0.017028,26.454492,12.048047,23.793750
27.077665,-0.425161,-0.425112,0.016291,-3.133035,0.014365,-0.138864,10.122685,-0.012771,-0.052147,0.027670,26.454492,12.048047,22.443750
27.180073,-0.204230,-0.460226,0.009784,3.120960,0.306458,-0.033519,9.998186,0.043633,-0.036184,0.018092,27.856055,13.095703,24.468750
27.281425,-0.195760,-0.454765,0.016154,3.128468,0.205901,-0.148441,10.146627,0.030863,0.004257,-0.025541,27.856055,13.095703,24.468750
27.382931,-0.184105,-0.457763,0.009765,3.137269,0.158017,-0.052672,10.285490,0.060661,0.017028,-0.048954,27.856055,13.095703,24.468750
27.484440,-0.344169,-0.410364,-0.003083,-3.139833,0.009577,0.057461,10.338163,0.041505,0.032991,-0.028734,26.804883,11.349609,22.106250
27.586528,-0.282384,-0.437779,-0.001071,3.120843,0.105345,0.076614,10.256760,0.025541,-0.022349,0.007450,26.279297,12.222656,22.950000
27.687931,-0.310882,-0.437173,-0.000608,3.116395,0.196325,0.100556,10.060435,0.011706,0.008514,0.006385,27.155273,12.397266,22.443750
27.789695,-0.376347,-0.423608,-0.015171,3.134437,-0.047884,0.153229,10.271125,0.029798,-0.005321,0.019156,26.980078,12.222656,22.950000
27.890639,-0.331286,-0.468718,-0.000687,3.129708,0.296881,0.177171,10.089166,-0.004257,-0.031927,0.015963,25.578516,13.619531,23.287500
27.992465,-0.423365,-0.502795,0.006947,3.133049,0.134075,0.009577,10.180145,0.013835,0.008514,0.007450,25.578516,13.619531,23.287500
28.094427,-0.295551,-0.502330,0.005170,3.117175,0.153229,0.138864,10.065224,0.030863,0.011706,-0.005321,25.578516,13.619531,23.287500
28.195848,-0.354995,-0.460358,0.000065,3.108141,0.172383,0.023942,10.285490,0.014899,0.018092,0.013835,25.928906,10.825781,22.275000
28.297158,-0.567526,-0.410149,-0.002136,-3.141327,0.071826,0.071826,10.342951,0.006385,-0.005321,0.006385,25.928906,10.825781,22.275000
28.399398,-0.373585,-0.407876,0.016391,3.115512,0.330400,-0.014365,10.285490,0.007450,0.002128,0.020220,27.680859,11.524219,22.950000
28.501092,-0.551409,-0.460856,0.006218,3.115908,0.215478,0.028730,10.280702,0.034055,0.020220,0.017028,25.928906,12.571875,22.950000
28.603365,-0.486415,-0.450399,0.000525,3.131475,0.158017,0.105345,10.117896,0.010642,0.000000,0.012771,25.578516,11.873437,22.612500
28.705007,-0.435370,-0.440799,0.000343,3.125553,0.205901,0.100556,10.338163,0.015963,-0.001064,0.014899,27.505664,12.397266,23.456250
28.806516,-0.490698,-0.460399,0.000155,3.135081,0.158017,-0.009577,10.366893,0.007450,0.024477,0.002128,25.578516,12.222656,22.275000
28.908869,-0.598299,-0.458177,-0.007136,3.111370,0.220267,0.186748,10.256760,0.011706,-0.009578,0.018092,25.578516,12.222656,22.275000
29.010320,-0.112309,-0.404922,-0.001018,3.112337,0.201113,0.086191,10.237606,0.002128,-0.012771,0.021284,26.980078,11.175000,22.275000
29.112033,-0.670850,-0.447896,-0.011981,3.129376,0.158017,0.129287,10.189722,0.014899,0.004257,0.005321,25.228125,11.524219,22.612500
29.214230,-0.370311,-0.455818,0.001120,3.129281,0.205901,0.081403,10.160992,0.004257,0.006385,0.021284,26.279297,12.222656,23.962500
29.315524,-0.316621,-0.454980,0.003162,3.136480,0.196325,0.057461,10.189722,0.020220,-0.005321,0.004257,25.403320,11.698828,23.456250
29.417633,-0.489029,-0.450733,-0.003156,3.110892,0.287304,0.191536,10.237606,0.003193,0.012771,0.017028,25.578516,11.873437,22.950000
29.519276,-0.360770,-0.444063,-0.016468,3.133817,0.033519,0.090980,10.232818,0.019156,0.018092,0.012771,25.052930,11.698828,22.443750
29.621151,-0.407564,-0.451601,-0.019770,3.126171,0.114922,0.205901,10.199299,0.007450,0.010642,0.010642,25.052930,11.698828,22.443750
29.722255,-0.185682,-0.448567,-0.001475,3.132763,0.076614,-0.052672,10.275914,-0.008514,-0.011706,-0.007450,25.052930,11.698828,22.443750
29.823620,-0.218622,-0.456097,0.004733,3.125765,0.201113,0.023942,10.041282,0.011706,0.022349,0.017028,25.052930,11.698828,22.443750
29.925420,-0.167162,-0.474393,0.016051,3.101804,0.301669,0.009577,10.366893,0.027670,0.004257,0.005321,24.352148,12.048047,22.443750
30.026641,-0.449316,-0.433641,-0.007660,3.115765,0.124498,0.124498,10.098743,0.037248,0.019156,-0.003193,25.578516,11.524219,22.612500
30.128016,-0.266515,-0.431000,0.006248,3.126193,0.014365,0.076614,10.165780,0.011706,-0.004257,0.018092,25.578516,11.873437,22.612500
30.229859,-0.256872,-0.474255,0.003172,3.129161,0.220267,0.057461,10.093954,-0.012771,-0.006385,0.004257,25.228125,12.222656,23.625000
30.331206,-0.824393,-0.423004,0.004619,3.116081,0.220267,0.033519,10.419566,0.028734,0.026606,0.006385,26.104102,11.349609,20.418750
30.432757,-0.461710,-0.442232,-0.010607,3.131924,0.071826,0.167594,10.290279,0.004257,0.004257,0.028734,25.228125,11.524219,21.937500
30.534049,-0.513670,-0.447978,0.012895,3.097796,0.316035,0.090980,10.022128,0.015963,-0.002128,0.023413,25.228125,11.524219,21.937500
30.635654,-0.018653,-0.380116,-0.008393,3.119027,0.095768,0.110133,10.232818,0.018092,0.030863,0.002128,25.753711,9.952734,23.118750
30.736252,-0.250323,-0.441590,-0.015578,3.136099,0.134075,0.244209,10.031705,0.028734,0.032991,0.019156,25.753711,12.746484,21.093750
30.838306,-0.598039,-0.449982,-0.004320,3.124807,0.076614,0.090980,10.285490,0.011706,0.026606,0.019156,24.702539,11.698828,23.456250
30.940004,-0.893897,-0.424188,-0.011648,3.111606,0.110133,0.177171,10.146627,0.020220,0.001064,0.021284,26.279297,11.175000,23.962500
31.042025,-0.264971,-0.434449,0.003847,3.139548,0.114922,0.038307,10.213664,0.014899,-0.002128,0.017028,25.052930,11.349609,22.781250
31.143630,-0.447503,-0.448373,-0.005837,3.131598,0.114922,0.124498,10.165780,0.008514,-0.002128,0.019156,24.352148,11.698828,21.431250
31.245024,-0.206646,-0.466483,0.011428,3.132711,0.258574,-0.105345,10.247183,0.020220,0.010642,0.001064,24.352148,11.698828,21.431250
31.346683,-0.824781,-0.455508,-0.021556,3.133655,-0.043096,0.186748,10.122685,0.041505,0.014899,-0.012771,24.352148,11.698828,21.431250
31.448398,-0.339499,-0.451171,-0.016271,3.131864,-0.009577,0.153229,10.228029,0.002128,0.005321,0.009578,24.352148,11.698828,21.431250
31.550091,-0.198664,-0.456053,0.011637,3.118513,0.292093,0.081403,10.156203,0.007450,0.001064,0.030863,24.176953,11.175000,23.287500
31.651947,-0.306763,-0.439178,-0.006896,3.123661,0.071826,0.081403,10.280702,0.034055,0.018092,0.007450,25.578516,11.873437,24.300000
31.753744,-0.793841,-0.477408,-0.026805,3.127232,0.033519,0.229843,10.074801,0.010642,0.010642,0.022349,24.176953,12.222656,23.287500
31.855613,-0.330160,-0.425770,0.012322,3.123445,0.124498,-0.052672,10.127473,0.005321,-0.006385,0.020220,26.804883,12.048047,22.106250
31.956613,-0.075974,-0.457265,0.005959,3.128709,0.186748,0.086191,10.036493,0.008514,0.005321,-0.002128,25.403320,11.698828,23.456250
32.058282,-0.446737,-0.482418,0.000849,3.130312,0.067038,0.153229,10.223241,0.021284,0.007450,0.009578,25.052930,12.746484,23.118750
32.159816,-0.466019,-0.484674,-0.011379,3.131711,0.114922,0.196325,10.180145,0.010642,-0.008514,0.017028,25.052930,12.746484,23.118750
32.262119,-0.191947,-0.432234,-0.003070,3.113304,0.148441,0.114922,10.228029,0.036184,0.010642,0.005321,24.877734,11.175000,22.612500
32.363595,-0.156551,-0.454215,-0.011116,-3.137985,0.062249,0.129287,10.127473,-0.002128,0.011706,0.015963,25.753711,13.095703,23.118750
32.465023,-0.359613,-0.473246,-0.012208,3.118612,0.028730,0.158017,10.050859,-0.001064,-0.002128,-0.007450,25.052930,12.048047,23.456250
32.567155,-0.035953,-0.439297,0.000189,3.110771,0.196325,0.110133,10.323798,0.015963,0.025541,0.010642,25.228125,10.825781,23.625000
32.669320,-0.493473,-0.412169,-0.022365,-3.131208,-0.114922,0.234632,10.266337,-0.011706,0.011706,0.010642,25.228125,10.825781,23.625000
32.771011,-0.394910,-0.511261,-0.017237,3.132383,0.095768,0.177171,9.926360,-0.034055,-0.013835,-0.034055,25.052930,14.143359,23.118750
32.874142,-0.116916,-0.452736,0.021392,3.132179,0.110133,-0.186748,10.371682,-0.030863,-0.006385,0.008514,26.279297,12.921094,23.287500
32.974446,-0.245193,-0.448019,0.012106,3.139127,0.129287,-0.100556,10.414777,0.003193,-0.054275,0.017028,26.279297,12.921094,23.287500
33.076466,-0.225509,-0.431689,0.037231,3.109643,0.517148,-0.086191,9.940725,0.009578,0.028734,0.058532,27.505664,11.698828,23.456250
33.178090,-0.360065,-0.377621,0.011124,-3.137316,-0.110133,-0.167594,10.319009,-0.014899,0.048954,0.005321,27.680859,11.524219,23.625000
33.280590,-0.369702,-0.399699,-0.005410,3.133853,-0.004788,0.057461,10.084377,0.040441,-0.044697,-0.003193,25.928906,11.175000,25.312500
33.381990,-0.307014,-0.426568,0.018122,3.128160,0.205901,-0.100556,10.098743,-0.036184,-0.025541,-0.009578,25.928906,11.524219,22.950000
33.484128,-0.746527,-0.452326,0.017750,3.113840,0.234632,-0.071826,10.328586,0.051083,-0.042569,-0.002128,24.877734,11.873437,24.300000
33.586575,-0.122179,-0.439246,0.002673,3.127919,0.225055,0.076614,9.974244,-0.006385,-0.003193,0.006385,26.279297,11.524219,22.612500
33.687340,-0.252491,-0.412538,-0.002274,3.127664,0.124498,0.033519,10.204087,-0.001064,-0.008514,0.029798,26.279297,11.524219,22.612500
33.789412,0.076663,-0.472144,0.031335,3.131555,0.311246,-0.196325,10.319009,0.000000,-0.019156,0.022349,25.578516,12.571875,23.625000
33.891459,-0.083612,-0.431775,0.029923,3.120683,0.287304,-0.282516,10.271125,-0.008514,0.029798,-0.003193,24.877734,11.175000,24.300000
33.993450,-0.342381,-0.393555,0.009915,3.138846,-0.043096,-0.119710,10.184934,0.006385,-0.008514,-0.004257,26.629687,10.476562,23.962500
34.095945,-0.437762,-0.418474,0.034060,3.123254,0.330400,-0.205901,9.854534,0.101101,-0.021284,0.013835,26.279297,11.524219,21.937500
34.196805,-0.199075,-0.439140,0.022404,3.093876,0.411803,0.038307,9.921572,-0.032991,0.039376,0.020220,25.578516,11.175000,22.950000
34.299047,-0.295974,-0.409006,0.010069,3.140304,0.033519,-0.162806,10.467450,-0.005321,0.041505,0.046826,25.578516,11.175000,22.950000
34.400776,-0.417476,-0.381553,0.020036,3.140670,0.191536,-0.143652,10.194511,0.012771,-0.028734,0.061725,26.454492,10.301953,22.781250
34.502667,-0.036263,-0.446008,0.039120,-3.137906,0.177171,-0.306458,10.319009,-0.025541,-0.044697,0.018092,25.228125,11.873437,21.600000
34.604776,-0.000723,-0.453251,0.014913,3.109646,0.301669,-0.019154,10.184934,0.011706,-0.080881,-0.003193,25.228125,11.873437,21.600000
34.706521,-0.440736,-0.428221,0.027920,3.099125,0.593762,-0.134075,10.050859,0.047890,-0.034055,0.028734,24.176953,9.778125,22.275000
34.808056,-0.028226,-0.408248,0.019376,3.089104,0.545878,-0.019154,10.098743,-0.091523,0.051083,0.078753,26.454492,10.301953,22.781250
34.909685,-0.391927,-0.389379,0.052231,3.104629,0.560243,-0.378284,10.591948,0.065982,0.032991,0.010642,25.578516,10.127344,21.937500
35.011759,-0.046954,-0.420682,0.004891,3.103423,0.407014,0.129287,10.031705,0.046826,0.027670,0.001064,26.804883,11.000391,23.793750
35.113387,-0.307977,-0.451253,0.034359,3.125396,0.392649,-0.167594,10.443508,-0.024477,0.041505,-0.030863,26.279297,11.873437,23.287500
35.214470,-0.218680,-0.427822,-0.002414,3.118710,0.119710,0.086191,10.280702,0.031927,-0.039376,0.072367,25.052930,11.349609,23.118750
35.315991,-0.730324,-0.442838,0.021170,3.092920,0.440533,-0.076614,9.988609,0.001064,-0.009578,0.032991,25.403320,11.349609,22.781250
35.418348,-0.129485,-0.439536,0.024409,3.136135,0.253785,-0.177171,10.208876,0.017028,0.004257,-0.029798,25.403320,11.349609,22.781250
35.519952,-0.161170,-0.450085,-0.031246,3.112253,0.210690,0.392649,10.256760,0.102166,0.046826,-0.024477,25.403320,11.349609,22.781250
35.622216,0.007210,-0.488605,-0.015181,3.129360,0.110133,0.138864,10.362105,-0.024477,-0.060661,0.019156,25.052930,13.095703,23.118750
35.723695,-0.719946,-0.451443,0.049923,3.103613,0.493206,-0.301669,10.299856,0.026606,-0.032991,0.028734,24.877734,11.175000,22.275000
35.825371,-0.205009,-0.425250,0.009317,3.122193,0.162806,-0.014365,10.314221,-0.013835,0.011706,-0.054275,26.104102,11.349609,24.131250
35.927901,-0.208600,-0.454035,-0.021804,3.121353,0.052672,0.191536,10.065224,0.050019,-0.005321,0.021284,25.052930,12.048047,23.118750
36.029494,-0.264075,-0.480447,-0.030314,3.119229,0.359130,0.517148,10.271125,0.046826,0.022349,0.071303,24.176953,13.270312,22.275000
36.131050,-0.223097,-0.504196,0.000059,3.103167,0.459687,0.038307,10.022128,-0.028734,-0.009578,0.078753,25.753711,12.048047,23.118750
36.233049,-0.248282,-0.459571,0.045800,3.118779,0.445322,-0.282516,10.481815,-0.035119,0.010642,0.014899,25.753711,12.048047,23.118750
36.334354,-0.015653,-0.507221,-0.011142,3.124557,0.177171,0.153229,10.084377,0.101101,0.013835,-0.048954,24.527344,12.921094,23.287500
36.435427,-0.241967,-0.502937,-0.024295,3.132746,0.023942,0.292093,10.208876,0.039376,0.010642,-0.022349,24.527344,12.921094,23.287500
36.537395,-0.433779,-0.442168,-0.010567,3.098556,0.268151,0.263362,10.026917,0.019156,-0.061725,0.019156,25.928906,11.524219,23.287500
36.639143,-0.612237,-0.508997,0.028295,3.102929,0.550666,-0.043096,10.199299,0.002128,0.012771,0.010642,24.527344,12.571875,23.962500
36.740295,-0.540901,-0.436843,-0.025192,3.108754,0.119710,0.268151,10.333374,0.055340,0.041505,-0.004257,24.877734,11.175000,23.962500
36.842535,-0.425445,-0.474605,-0.008422,3.114240,0.191536,0.167594,10.017340,0.002128,-0.013835,0.037248,24.352148,12.048047,23.456250
36.944443,-0.451293,-0.509948,0.021060,3.108240,0.296881,-0.023942,10.405200,-0.035119,0.014899,0.036184,23.651367,12.746484,22.781250
37.045640,-0.026567,-0.509117,0.024028,3.130256,0.244209,-0.167594,10.500968,0.027670,-0.011706,-0.010642,25.052930,13.444922,23.456250
37.147823,-0.193234,-0.486135,-0.022375,3.134810,-0.004788,0.244209,9.993398,0.043633,0.006385,0.018092,24.702539,12.397266,24.131250
37.248723,-0.079324,-0.489713,0.013991,3.114883,0.354342,0.038307,10.319009,-0.001064,-0.067046,0.019156,24.702539,12.397266,24.131250
37.350759,-0.178094,-0.486688,0.018373,3.109856,0.430956,0.033519,10.074801,-0.005321,-0.022349,0.025541,25.052930,12.048047,23.456250
37.452978,-0.205813,-0.460308,0.014085,3.106208,0.445322,0.009577,10.079589,0.006385,0.054275,0.071303,25.578516,11.524219,23.625000
37.554448,-0.293302,-0.433606,0.016054,3.134193,0.201113,-0.086191,10.237606,-0.019156,0.038312,-0.002128,24.877734,10.825781,23.287500
37.656509,-0.113079,-0.441195,-0.016716,3.133990,0.038307,0.248997,9.897630,0.071303,-0.005321,-0.037248,25.052930,12.048047,23.456250
37.759266,-0.491335,-0.470210,0.013567,3.090818,0.426168,0.081403,10.247183,-0.010642,-0.017028,-0.020220,25.052930,11.349609,22.781250
37.860840,-0.270259,-0.448823,0.008658,3.102324,0.383072,0.081403,10.213664,0.051083,0.035119,-0.014899,25.052930,11.349609,22.781250
37.962211,-0.072186,-0.439152,-0.020645,3.120700,0.067038,0.268151,10.271125,0.025541,0.017028,-0.007450,24.001758,11.000391,22.106250
38.064214,-0.338284,-0.459975,0.008307,3.122422,0.339977,0.014365,10.314221,0.007450,-0.023413,0.020220,24.001758,11.000391,22.106250
38.166443,-0.361956,-0.455826,0.009917,3.091322,0.459687,0.057461,10.146627,0.004257,0.010642,0.003193,24.877734,11.175000,23.287500
38.268354,-0.473498,-0.450766,-0.011420,3.120864,0.263362,0.148441,10.338163,0.029798,0.007450,0.008514,25.403320,11.349609,24.806250
38.370206,-0.358873,-0.497999,0.001447,3.092335,0.363919,0.119710,10.041282,-0.002128,-0.007450,0.026606,24.352148,12.397266,24.131250
38.472480,-0.193851,-0.475447,0.024370,3.126258,0.349553,-0.090980,10.304644,0.035119,0.035119,0.019156,24.352148,11.698828,24.131250
38.573939,-0.135013,-0.440221,-0.020077,3.110274,0.234632,0.325611,10.132261,0.038312,0.030863,-0.001064,25.228125,11.175000,23.625000
38.675613,-0.300331,-0.526433,0.006041,3.113675,0.344765,0.000000,10.405200,0.013835,0.010642,0.020220,24.001758,13.095703,23.793750
38.777669,-0.178698,-0.458463,-0.014022,3.085529,0.383072,0.316035,10.065224,0.027670,0.022349,0.003193,25.052930,11.349609,23.118750
38.879569,-0.374179,-0.445850,-0.016011,3.129619,0.148441,0.172383,10.304644,0.037248,0.018092,0.013835,25.052930,11.349609,23.118750
38.981368,-0.439959,-0.400367,0.000313,3.119968,0.282516,0.143652,10.448296,0.025541,0.004257,0.014899,25.753711,9.952734,23.456250
39.083142,-0.725919,-0.405506,-0.008270,3.128776,0.201113,0.158017,10.323798,0.038312,-0.032991,0.004257,25.578516,10.476562,22.612500
39.184395,-0.257875,-0.454908,-0.000011,3.114259,0.363919,0.162806,10.089166,0.003193,-0.037248,0.025541,23.125781,10.476562,23.287500
39.285775,-0.147664,-0.461947,0.009120,3.107277,0.339977,0.090980,10.237606,0.013835,-0.005321,0.029798,25.052930,11.698828,23.118750
39.387972,-0.463735,-0.468117,-0.009896,3.115035,0.268151,0.225055,10.242395,0.021284,0.006385,0.007450,25.052930,11.698828,23.118750
39.489358,-0.490409,-0.541711,0.000746,3.103025,0.416591,0.167594,10.156203,0.008514,-0.024477,0.018092,24.176953,13.270312,23.287500
39.590639,-0.662255,-0.457374,0.020262,3.077337,0.608127,0.071826,10.079589,0.025541,0.007450,0.000000,22.249805,9.603516,24.806250
39.692373,-0.093330,-0.451879,-0.012304,3.108230,0.378284,0.301669,10.141838,0.042569,0.029798,0.002128,22.249805,9.603516,24.806250
39.794345,-0.201404,-0.492633,-0.000375,3.105164,0.392649,0.272939,10.319009,-0.019156,-0.009578,-0.005321,23.826563,11.524219,22.950000
39.895691,-0.479795,-0.479236,0.013799,3.068144,0.646434,0.181959,10.275914,0.039376,-0.057468,0.020220,24.352148,11.349609,22.106250
39.997808,-0.663065,-0.454885,0.001049,3.088235,0.569820,0.225055,10.022128,0.027670,0.008514,0.009578,23.125781,9.778125,22.612500
40.099827,-0.218657,-0.491033,-0.001339,3.111858,0.378284,0.205901,10.074801,0.006385,0.032991,0.027670,23.651367,11.698828,24.131250
40.201075,-0.229459,-0.504855,0.019118,3.095123,0.469264,0.153229,10.070012,0.043633,0.021284,0.001064,23.300977,11.698828,22.106250
40.303502,-0.308298,-0.501511,0.002953,3.095729,0.344765,0.191536,10.036493,-0.003193,-0.005321,0.012771,23.300977,11.698828,22.106250
40.404697,-0.708987,-0.468888,0.011419,3.087204,0.497994,0.124498,10.309432,0.011706,0.018092,0.014899,24.001758,11.000391,22.781250
40.506581,-0.601649,-0.490188,-0.010135,3.103076,0.416591,0.349553,10.074801,-0.005321,-0.017028,-0.010642,23.300977,11.698828,25.143750
40.607322,-0.367769,-0.493903,0.007570,3.097205,0.320823,0.100556,10.443508,-0.006385,-0.044697,-0.012771,22.775391,11.175000,23.962500
40.710168,-0.093248,-0.520861,0.003950,3.085361,0.550666,0.282516,9.873688,-0.009578,-0.015963,0.012771,22.775391,11.175000,23.962500
40.811046,-0.382493,-0.558945,0.006509,3.088325,0.435745,0.186748,10.050859,-0.035119,0.118129,0.040441,23.300977,13.444922,21.768750
40.912835,-0.354130,-0.469015,-0.014392,3.126831,0.186748,0.258574,10.280702,0.027670,0.095780,0.077688,24.001758,11.349609,24.131250
41.014598,-0.450486,-0.468482,-0.015938,3.093143,0.339977,0.373495,10.093954,0.005321,0.067046,0.064918,24.001758,11.349609,24.131250
41.116474,-0.282990,-0.469978,0.016093,3.100112,0.818817,0.162806,10.587160,-0.042569,0.047890,0.010642,24.176953,11.524219,23.625000
41.218721,-0.400053,-0.564553,0.016958,3.118861,0.344765,-0.095768,10.184934,0.024477,0.116000,-0.029798,23.125781,13.968750,23.287500
41.320323,-0.489065,-0.465267,-0.012080,-3.129521,-0.110133,0.110133,10.601525,-0.006385,0.081945,-0.028734,24.001758,12.048047,23.793750
41.422949,-0.385956,-0.450575,-0.062561,-3.106570,-0.507571,0.359130,10.228029,0.123450,0.038312,0.041505,25.578516,13.270312,23.287500
41.524610,-0.670410,-0.504333,-0.002456,3.118982,0.134075,0.143652,9.998186,-0.014899,-0.034055,0.001064,23.300977,12.397266,24.806250
41.626865,-0.502390,-0.511294,-0.004823,3.107887,0.368707,0.253785,10.213664,-0.003193,0.034055,-0.062789,23.300977,12.397266,24.806250
41.728819,-0.075480,-0.477644,-0.030639,-3.130693,-0.277727,0.335188,10.319009,0.038312,0.013835,0.023413,24.176953,12.921094,23.625000
41.830808,-0.239550,-0.476155,-0.011802,3.129223,-0.019154,0.124498,10.247183,0.005321,-0.071303,0.037248,24.176953,12.571875,23.625000
41.932336,-0.437292,-0.512279,0.001879,3.118411,0.196325,0.158017,10.084377,0.013835,-0.027670,0.013835,24.702539,13.444922,24.131250
42.034059,-0.479329,-0.526030,0.006415,3.123982,0.268151,0.095768,10.022128,-0.023413,-0.013835,0.023413,23.826563,14.667187,23.287500
42.136592,-0.517207,-0.529637,0.003652,3.118775,0.057461,-0.009577,10.376470,0.030863,0.004257,0.008514,23.125781,12.222656,24.975000
42.238217,-0.585499,-0.494046,-0.012101,3.109847,0.105345,0.172383,10.295067,0.009578,-0.009578,0.026606,23.826563,12.571875,23.962500
42.339637,-0.317712,-0.491025,-0.005857,3.126901,-0.009577,0.100556,10.180145,0.004257,0.019156,0.017028,23.826563,12.571875,23.962500
42.441241,-0.651751,-0.441070,0.005753,-3.137655,0.033519,0.033519,10.520122,0.045762,-0.032991,-0.001064,24.352148,11.349609,24.131250
42.542682,-0.499198,-0.513692,-0.017338,3.089461,0.311246,0.368707,9.730036,-0.005321,0.011706,0.043633,23.476172,12.222656,23.962500
42.644822,0.073028,-0.479457,-0.007276,3.138211,-0.043096,-0.057461,10.467450,-0.003193,-0.001064,0.034055,22.600195,12.048047,23.118750
42.745563,-0.497067,-0.467508,0.009025,3.107335,0.397437,0.062249,10.002975,0.125578,-0.010642,0.005321,24.001758,11.000391,24.468750
42.847812,0.023398,-0.481711,0.018043,3.128958,0.177171,-0.004788,10.295067,-0.035119,0.008514,-0.018092,24.702539,12.397266,24.131250
42.949439,-0.649146,-0.510110,-0.029555,3.102124,0.181959,0.387861,10.022128,0.098973,0.056404,0.015963,23.300977,12.397266,23.118750
43.050511,-0.402880,-0.513476,-0.014532,3.129234,0.134075,0.186748,10.347740,0.014899,0.097909,-0.014899,23.300977,12.397266,23.118750
43.152371,-0.395838,-0.467976,-0.054121,-3.116699,-0.450110,0.330400,10.122685,0.073431,0.051083,0.023413,23.300977,12.048047,25.143750
43.254524,-0.219004,-0.509955,-0.003873,3.131300,0.148441,0.153229,10.127473,-0.036184,0.018092,0.047890,23.651367,12.746484,25.481250
43.356276,-0.661029,-0.475814,-0.013950,-3.139772,-0.076614,0.095768,10.218453,0.032991,0.032991,0.041505,23.826563,12.571875,24.637500
43.458211,-0.832854,-0.457700,-0.020758,-3.120190,-0.244209,0.181959,10.491392,0.051083,0.029798,0.015963,23.826563,11.873437,24.637500
43.560297,-0.441192,-0.470965,-0.051053,-3.139156,-0.234632,0.507571,10.036493,0.036184,-0.047890,0.038312,23.125781,11.873437,26.325000
43.661239,-0.116462,-0.485027,-0.027651,-3.140142,-0.090980,0.330400,10.050859,0.003193,-0.065982,0.043633,23.300977,12.746484,24.468750
43.763296,-0.433283,-0.530392,0.010530,3.117513,0.292093,0.047884,10.242395,-0.071303,-0.088331,0.057468,23.300977,12.746484,24.468750
43.864676,-0.441669,-0.524276,0.029829,3.111061,0.454898,-0.105345,10.165780,0.015963,-0.019156,0.009578,23.300977,12.746484,24.468750
43.966977,-0.249895,-0.459329,-0.010681,3.104192,0.239420,0.239420,10.041282,-0.021284,-0.020220,0.047890,24.527344,11.524219,23.962500
44.068475,-0.409023,-0.403779,0.025184,3.123634,0.220267,-0.095768,10.213664,-0.004257,-0.018092,0.029798,24.176953,9.778125,24.300000
44.170474,-0.296019,-0.526856,0.026187,3.120545,0.339977,-0.071826,9.950302,0.030863,0.007450,-0.002128,24.001758,13.444922,23.456250
44.271905,-0.478766,-0.509063,0.013508,3.112535,0.205901,0.009577,10.137050,0.017028,0.009578,0.019156,23.125781,12.571875,24.637500
44.373405,-0.744065,-0.462294,0.017734,3.106617,0.416591,0.014365,10.070012,0.000000,-0.014899,0.038312,24.176953,11.175000,24.637500
44.475403,-0.343563,-0.441349,0.023166,3.116533,0.368707,-0.047884,10.050859,0.024477,0.011706,0.020220,24.352148,10.651172,22.781250
44.577061,-0.422891,-0.439635,0.007429,3.118810,0.268151,0.119710,10.180145,0.025541,0.027670,0.008514,24.352148,10.651172,22.781250
44.678761,-0.395153,-0.470959,0.002150,3.111600,0.263362,0.090980,10.132261,-0.006385,-0.010642,0.031927,25.403320,12.397266,23.118750
44.779778,-0.456432,-0.479884,-0.004666,3.115211,0.268151,0.191536,10.218453,0.005321,-0.018092,0.019156,24.527344,11.873437,24.300000
44.881637,-0.398617,-0.514728,0.019633,3.129472,0.363919,-0.043096,10.160992,0.046826,-0.014899,-0.009578,23.826563,13.968750,22.950000
44.983376,-0.432191,-0.543343,-0.003636,3.084245,0.258574,0.186748,9.950302,-0.011706,0.039376,0.021284,23.826563,11.524219,23.962500
45.085713,-0.154721,-0.473250,0.040886,3.126119,0.397437,-0.301669,10.395624,0.040441,0.041505,-0.015963,23.826563,11.524219,23.962500
45.186816,-0.562650,-0.518238,-0.025114,3.136988,-0.067038,0.253785,10.180145,0.041505,0.024477,-0.006385,24.001758,13.095703,24.468750
45.288258,-0.353101,-0.483071,0.017783,3.126025,0.253785,-0.043096,10.223241,-0.023413,-0.001064,0.038312,25.403320,12.746484,24.806250
45.389542,-0.534999,-0.488683,0.001715,3.110585,0.311246,0.028730,10.160992,0.004257,0.000000,0.017028,23.826563,11.873437,23.962500
45.491065,-0.064674,-0.450468,-0.016539,3.128437,0.181959,0.205901,10.156203,0.012771,0.005321,0.001064,25.578516,11.524219,24.300000
45.592955,0.016690,-0.443666,-0.005751,3.126510,0.129287,0.105345,10.146627,-0.001064,-0.039376,0.025541,25.578516,11.524219,24.300000
45.694801,-0.236636,-0.528264,0.036849,3.100906,0.464475,-0.043096,10.117896,-0.008514,0.012771,0.015963,24.877734,13.619531,23.625000
45.796301,-0.464493,-0.465197,0.002132,3.133044,0.143652,0.043096,10.347740,0.038312,0.012771,0.003193,25.052930,12.048047,23.118750
45.898415,-0.562171,-0.516313,0.009389,3.105291,0.306458,0.090980,10.113108,-0.011706,-0.013835,0.030863,24.176953,13.270312,23.287500
