Time, Altitude, Yaw, Pitch, Roll, Ax, Ay, Az, Pitch_rate, Roll_rate,Yaw_rate, Magx, Magy, Magz0.851729,0.181754,0.049879,0.001799,-0.050601,-0.057461,-0.574608,10.146627,0.014899,0.005321,0.012771,21.899414,-4.016016,42.018750
0.951889,0.000754,0.039205,0.002608,-0.046925,-0.057461,-0.521936,10.117896,0.013835,0.007450,0.010642,23.651367,-3.317578,43.368750
1.051933,0.187025,0.020701,0.008065,-0.050932,-0.100556,-0.627281,10.093954,0.013835,0.006385,0.011706,22.775391,-2.793750,42.862500
1.152038,0.000274,0.036492,0.002143,-0.048379,-0.057461,-0.545878,10.122685,0.015963,0.003193,0.017028,20.147461,-3.666797,42.693750
1.252734,0.230488,0.046964,0.009128,-0.048409,-0.110133,-0.656011,10.036493,0.019156,0.008514,0.011706,21.549023,-3.666797,43.368750
1.354294,-0.197937,0.046836,0.009683,-0.046738,-0.100556,-0.560243,10.333374,0.013835,0.007450,0.018092,23.125781,-3.142969,42.187500
1.455961,-0.032429,0.043398,-0.004923,-0.054785,-0.038307,-0.593762,10.256760,0.015963,0.009578,0.014899,20.673047,-3.841406,42.525000
1.557705,-0.436845,0.066993,0.003143,-0.048647,-0.081403,-0.584185,10.165780,0.014899,0.007450,0.011706,21.373828,-4.190625,42.862500
1.659517,-0.296777,0.073792,0.000252,-0.048612,-0.052672,-0.608127,10.146627,0.012771,0.007450,0.011706,21.373828,-4.190625,42.862500
1.761567,-0.486872,0.078361,0.002573,-0.046665,-0.062249,-0.497994,10.295067,0.019156,0.008514,0.011706,21.373828,-4.190625,42.862500
1.862275,-0.124129,0.082174,0.007149,-0.043765,-0.124498,-0.612916,10.213664,0.017028,0.007450,0.013835,21.373828,-4.190625,42.862500
1.964866,-0.330466,0.114443,-0.008191,-0.053152,-0.043096,-0.603339,10.184934,0.015963,0.006385,0.014899,21.549023,-5.063672,42.356250
2.066481,-0.312067,0.086843,-0.006834,-0.067058,-0.023942,-0.608127,10.160992,0.015963,0.005321,0.014899,22.775391,-4.190625,41.512500
2.168855,0.091856,0.091402,0.005410,-0.065831,-0.105345,-0.550666,10.165780,0.014899,0.008514,0.012771,20.322656,-4.190625,41.850000
2.270949,-0.096413,0.099132,-0.000191,-0.066435,-0.071826,-0.617704,10.184934,0.017028,0.007450,0.013835,20.673047,-4.539844,42.187500
2.372473,-0.347326,0.130472,-0.003733,-0.068540,-0.033519,-0.574608,10.247183,0.015963,0.006385,0.017028,22.074609,-5.587500,42.862500
2.474411,-0.298309,0.084221,-0.000419,-0.041326,-0.076614,-0.603339,10.204087,0.013835,0.005321,0.011706,20.848242,-3.666797,43.368750
2.576159,-0.234157,0.098737,-0.012953,-0.054582,0.014365,-0.603339,10.141838,0.013835,0.006385,0.012771,22.775391,-4.889062,42.187500
2.677342,-0.069751,0.100824,0.012033,-0.069176,-0.124498,-0.545878,10.242395,0.012771,0.005321,0.013835,21.549023,-4.365234,41.343750
2.779041,-0.354247,0.044467,0.000283,-0.041984,-0.023942,-0.574608,10.117896,0.012771,0.005321,0.013835,20.673047,-2.793750,41.850000
2.880726,-0.233640,0.036804,-0.010434,-0.050259,-0.014365,-0.593762,10.165780,0.011706,0.004257,0.014899,22.950586,-3.317578,42.693750
2.982148,-0.024730,0.073736,0.008013,-0.071720,-0.129287,-0.608127,10.204087,0.012771,0.008514,0.019156,22.074609,-4.539844,43.200000
3.084130,-0.253619,0.083576,-0.005047,-0.065385,-0.009577,-0.569820,10.247183,0.018092,0.005321,0.014899,22.425000,-4.190625,42.187500
3.186177,-0.211659,0.052516,-0.010681,-0.055675,-0.004788,-0.660800,10.170569,0.012771,0.005321,0.010642,22.425000,-3.142969,44.550000
3.287387,-0.304594,0.047778,0.003901,-0.063725,-0.047884,-0.560243,10.194511,0.013835,0.007450,0.014899,20.673047,-3.492187,41.512500
3.387979,0.004056,0.056266,0.001222,-0.060970,-0.043096,-0.555455,10.184934,0.018092,0.007450,0.013835,20.673047,-3.492187,41.512500
3.489913,-0.079789,0.049503,0.014794,-0.062705,-0.215478,-0.588974,10.093954,0.012771,0.008514,0.012771,20.673047,-3.492187,41.512500
3.591118,0.060426,0.051840,0.011225,-0.074702,-0.057461,-0.641646,10.108319,0.009578,0.004257,0.012771,20.673047,-3.492187,41.512500
3.692915,-0.184983,0.057638,0.000062,-0.046509,-0.057461,-0.608127,10.079589,0.014899,0.005321,0.012771,20.673047,-3.492187,41.512500
3.794791,-0.067202,0.093161,0.009952,-0.048129,-0.148441,-0.497994,10.156203,0.013835,0.008514,0.015963,22.249805,-4.714453,42.356250
3.896563,-0.122461,0.096052,-0.003581,-0.047199,-0.043096,-0.608127,10.314221,0.015963,0.007450,0.014899,22.950586,-4.714453,42.018750
3.998404,-0.127143,0.079098,0.002871,-0.046213,-0.067038,-0.636858,10.132261,0.017028,0.007450,0.014899,20.147461,-4.016016,42.693750
4.099948,-0.114810,0.091393,0.004844,-0.059973,-0.114922,-0.560243,10.266337,0.013835,0.007450,0.011706,20.673047,-4.190625,43.200000
4.202148,-0.079948,0.061310,0.010093,-0.061549,-0.124498,-0.541090,10.060435,0.014899,0.007450,0.014899,22.775391,-3.492187,42.525000
4.303662,-0.076738,0.073212,0.007484,-0.066710,-0.100556,-0.641646,10.242395,0.013835,0.007450,0.011706,22.074609,-4.190625,43.200000
4.405524,-0.111425,0.038794,0.005876,-0.043707,-0.095768,-0.612916,10.275914,0.015963,0.006385,0.014899,23.125781,-3.142969,41.850000
4.506591,0.133758,0.055391,0.018940,-0.056982,-0.162806,-0.541090,10.180145,0.015963,0.009578,0.018092,22.950586,-3.666797,41.006250
4.608319,0.034106,0.099175,0.009264,-0.069482,-0.134075,-0.550666,10.280702,0.017028,0.003193,0.015963,21.373828,-4.889062,42.187500
4.709982,-0.220312,0.107691,0.000440,-0.064763,-0.052672,-0.603339,10.180145,0.014899,0.004257,0.011706,21.023438,-4.539844,39.825000
4.811809,-0.171967,0.115490,-0.002594,-0.065942,-0.023942,-0.641646,10.266337,0.012771,0.005321,0.013835,21.549023,-5.063672,43.031250
4.913579,-0.132083,0.076040,0.002219,-0.043509,-0.076614,-0.584185,10.295067,0.013835,0.008514,0.011706,22.074609,-3.492187,42.862500
5.015084,-0.120740,0.051567,-0.006635,-0.048686,-0.014365,-0.656011,10.026917,0.014899,0.007450,0.019156,21.198633,-3.666797,43.368750
5.116800,0.120578,0.070778,-0.003317,-0.054415,-0.023942,-0.603339,10.165780,0.014899,0.007450,0.013835,22.074609,-4.539844,42.525000
5.218563,-0.007179,0.096127,-0.004878,-0.043371,-0.023942,-0.521936,10.232818,0.013835,0.007450,0.012771,22.074609,-4.539844,42.525000
5.320424,0.215515,0.096395,0.005703,-0.042787,-0.134075,-0.555455,10.160992,0.015963,0.008514,0.015963,22.074609,-4.539844,42.525000
5.422142,-0.029742,0.076746,-0.004562,-0.063150,0.019154,-0.574608,10.074801,0.014899,0.003193,0.015963,21.724219,-3.492187,43.200000
5.523432,0.087291,0.056034,0.022421,-0.052109,-0.095768,-0.502782,10.280702,0.015963,0.006385,0.015963,21.549023,-3.317578,42.693750
5.625701,-0.162611,0.048360,0.003100,-0.069537,-0.067038,-0.560243,10.228029,0.011706,0.006385,0.014899,21.899414,-3.666797,42.356250
5.726994,-0.111937,0.058722,0.004652,-0.066749,-0.076614,-0.569820,10.146627,0.014899,0.008514,0.012771,21.899414,-3.666797,42.356250
5.829001,0.079451,0.107105,0.003973,-0.064022,-0.114922,-0.646434,10.175357,0.015963,0.007450,0.014899,21.023438,-4.539844,41.512500
5.930042,0.251870,0.107365,-0.005075,-0.065630,-0.019154,-0.512359,10.256760,0.013835,0.007450,0.015963,22.950586,-5.063672,43.031250
6.031191,0.158112,0.070808,0.020146,-0.048618,-0.148441,-0.550666,10.079589,0.019156,0.011706,0.013835,21.373828,-3.841406,42.862500
6.132461,-0.208295,0.061020,0.003983,-0.038542,-0.067038,-0.536301,10.189722,0.015963,0.002128,0.020220,22.775391,-3.841406,42.187500
6.234299,0.154207,0.016315,0.006278,-0.071409,-0.071826,-0.550666,10.223241,0.017028,0.007450,0.014899,22.600195,-2.619141,42.356250
6.336214,0.217403,0.017655,-0.000521,-0.070257,0.023942,-0.656011,10.160992,0.011706,0.002128,0.013835,22.425000,-3.142969,42.525000
6.437870,-0.123218,0.034905,0.011805,-0.062361,-0.201113,-0.612916,10.089166,0.017028,0.011706,0.012771,22.425000,-3.492187,42.187500
6.539438,0.471715,0.029680,0.018079,-0.058287,-0.124498,-0.497994,10.184934,0.014899,0.006385,0.014899,20.848242,-2.619141,42.693750
6.641012,-0.411730,0.047566,0.011792,-0.064665,-0.196325,-0.574608,10.213664,0.014899,0.010642,0.013835,22.775391,-3.841406,42.525000
6.742960,0.234574,0.020818,0.001081,-0.052008,-0.095768,-0.665588,10.065224,0.017028,0.007450,0.014899,23.476172,-2.793750,42.187500
6.844241,0.127677,0.049584,0.002719,-0.076790,-0.095768,-0.588974,10.098743,0.015963,0.003193,0.014899,21.724219,-4.190625,42.525000
6.945828,0.179250,0.074919,0.008116,-0.069061,-0.119710,-0.588974,10.237606,0.013835,0.007450,0.008514,21.724219,-4.190625,42.525000
7.047687,-0.209688,0.100781,0.003954,-0.062005,-0.100556,-0.579397,10.247183,0.014899,0.006385,0.012771,20.848242,-5.762109,42.693750
7.148994,0.314570,0.123101,0.000415,-0.057074,-0.043096,-0.569820,10.170569,0.013835,0.006385,0.008514,22.249805,-4.714453,42.018750
7.250643,-0.060519,0.096839,-0.011081,-0.051649,-0.067038,-0.507571,10.299856,0.012771,0.008514,0.013835,22.074609,-4.190625,43.875000
7.352288,0.249639,0.086215,0.006281,-0.047554,-0.119710,-0.569820,10.218453,0.013835,0.008514,0.018092,22.074609,-4.190625,43.875000
7.454259,-0.096934,0.131185,0.007147,-0.071345,-0.148441,-0.588974,10.247183,0.011706,0.006385,0.014899,22.074609,-5.587500,41.175000
7.555808,0.458014,0.125090,0.008163,-0.066530,-0.158017,-0.608127,10.199299,0.014899,0.006385,0.013835,21.899414,-5.063672,43.706250
7.657597,0.064454,0.117643,-0.002839,-0.052175,-0.052672,-0.646434,10.093954,0.015963,0.004257,0.010642,21.899414,-5.063672,42.356250
7.759479,0.097522,0.083992,0.005661,-0.047850,-0.110133,-0.536301,10.165780,0.014899,0.004257,0.013835,22.600195,-4.365234,43.368750
7.861107,0.098513,0.097260,0.004351,-0.064205,-0.062249,-0.641646,10.084377,0.009578,0.007450,0.014899,20.147461,-4.365234,42.356250
7.962529,0.057044,0.041641,0.003800,-0.042487,-0.090980,-0.507571,10.180145,0.019156,0.008514,0.015963,20.848242,-2.968359,42.356250
8.064401,0.173268,0.100923,0.002083,-0.072057,-0.076614,-0.550666,10.309432,0.015963,0.004257,0.011706,21.023438,-5.238281,44.212500
8.166273,0.093710,0.075482,-0.001817,-0.065970,-0.023942,-0.579397,10.026917,0.011706,0.004257,0.018092,21.023438,-3.841406,41.850000
8.267722,0.134683,0.073517,0.009985,-0.066487,-0.129287,-0.579397,10.194511,0.015963,0.007450,0.012771,21.023438,-3.841406,41.850000
8.369533,0.090992,0.071541,-0.006858,-0.055137,-0.004788,-0.474052,10.156203,0.013835,0.007450,0.012771,21.023438,-3.841406,41.850000
8.471279,0.019239,0.088868,0.004122,-0.068681,-0.110133,-0.641646,10.309432,0.011706,0.009578,0.008514,21.023438,-4.889062,41.512500
8.572836,0.223854,0.089226,0.012904,-0.034053,-0.134075,-0.521936,10.285490,0.013835,0.007450,0.010642,22.775391,-3.841406,42.862500
8.674495,0.280136,0.073326,0.003855,-0.068430,-0.028730,-0.670376,10.175357,0.014899,0.006385,0.014899,21.899414,-4.365234,43.368750
8.776657,0.357032,0.081521,0.012681,-0.066464,-0.215478,-0.641646,9.988609,0.011706,0.005321,0.018092,21.724219,-4.190625,42.187500
8.881297,0.106763,0.078879,0.000435,-0.059884,-0.019154,-0.627281,10.304644,0.017028,0.006385,0.017028,23.125781,-3.841406,41.512500
8.981673,0.270377,0.070669,-0.000644,-0.065054,-0.014365,-0.565032,10.141838,0.015963,0.003193,0.013835,21.198633,-4.016016,41.006250
9.082770,-0.251024,0.077867,0.003288,-0.062999,-0.095768,-0.593762,10.386047,0.014899,0.004257,0.011706,21.198633,-4.016016,43.031250
9.184963,0.215606,0.076541,0.003580,-0.063129,-0.081403,-0.536301,10.137050,0.015963,0.006385,0.011706,22.425000,-4.190625,43.875000
9.286697,-0.046138,0.078966,0.004122,-0.066702,-0.100556,-0.555455,10.098743,0.017028,0.003193,0.012771,22.425000,-4.190625,43.875000
9.388969,0.081061,0.061426,0.005226,-0.071596,-0.100556,-0.622492,10.400412,0.014899,0.004257,0.015963,21.549023,-3.666797,42.693750
9.490645,0.258906,0.058876,-0.001981,-0.067009,-0.004788,-0.632069,10.084377,0.017028,0.005321,0.014899,21.549023,-3.666797,42.693750
9.592614,-0.005287,0.057343,0.008048,-0.064518,-0.110133,-0.545878,10.117896,0.014899,0.008514,0.017028,21.549023,-3.666797,42.693750
9.694789,0.222710,0.055655,0.006440,-0.048986,-0.124498,-0.656011,10.295067,0.013835,0.005321,0.014899,21.549023,-3.666797,42.356250
9.796814,-0.025248,0.067796,-0.002054,-0.050663,-0.067038,-0.603339,10.184934,0.011706,0.003193,0.012771,21.198633,-4.016016,43.706250
9.899139,-0.126317,0.062872,0.002464,-0.065529,-0.043096,-0.694318,10.031705,0.015963,0.007450,0.013835,22.249805,-4.365234,42.018750
10.000513,-0.106104,0.098466,0.010497,-0.048945,-0.148441,-0.574608,10.041282,0.013835,0.007450,0.015963,21.373828,-4.889062,41.850000
10.102173,-0.083289,0.088730,0.016891,-0.050538,-0.263362,-0.588974,10.213664,0.017028,0.006385,0.010642,22.249805,-4.016016,42.018750
10.203364,-0.193967,0.095163,0.005998,-0.056164,-0.114922,-0.555455,10.223241,0.019156,0.004257,0.010642,21.549023,-5.063672,42.018750
10.305184,-0.066238,0.100481,0.002179,-0.054682,-0.067038,-0.665588,10.199299,0.014899,0.006385,0.013835,22.950586,-4.714453,42.356250
10.407134,0.080222,0.076516,0.001149,-0.055287,-0.062249,-0.703895,10.165780,0.013835,0.006385,0.017028,20.848242,-2.619141,42.018750
10.508969,-0.262342,0.023678,0.001326,-0.069331,-0.047884,-0.555455,10.218453,0.014899,0.007450,0.013835,22.249805,-2.968359,42.693750
10.611019,-0.234849,0.034023,-0.006033,-0.059030,-0.004788,-0.426168,10.132261,0.015963,0.004257,0.015963,22.249805,-2.968359,42.693750
10.712524,-0.035631,0.022765,0.009818,-0.046058,-0.105345,-0.584185,10.113108,0.014899,0.003193,0.012771,22.249805,-2.968359,42.693750
10.815014,-0.141853,0.018048,0.011667,-0.048769,-0.090980,-0.636858,10.117896,0.015963,0.005321,0.015963,22.249805,-2.968359,42.693750
10.917315,0.016688,0.096430,0.008291,-0.076290,-0.134075,-0.579397,10.089166,0.015963,-0.014899,0.013835,21.724219,-4.889062,41.850000
11.019175,0.102489,0.075292,0.016077,-0.053363,-0.095768,-0.574608,10.127473,0.013835,0.012771,0.013835,22.249805,-4.016016,42.693750
11.121495,-0.096623,0.067193,-0.006927,-0.058605,0.019154,-0.536301,10.472238,0.023413,0.015963,0.022349,22.950586,-4.714453,44.043750
11.222804,0.154613,0.031765,0.005513,-0.042421,-0.067038,-0.483629,10.194511,0.020220,-0.002128,0.012771,23.125781,-2.444531,43.537500
11.325228,0.035092,0.044875,0.004654,-0.071271,-0.100556,-0.541090,10.189722,0.052147,0.032991,0.024477,21.198633,-3.666797,43.031250
11.427012,0.182468,0.041527,-0.000335,-0.037915,0.177171,-0.440533,10.031705,0.020220,0.044697,0.051083,21.549023,-2.269922,43.368750
11.529116,-0.191671,0.016716,0.007804,-0.042740,-0.244209,-0.550666,10.706870,0.026606,0.522534,0.044697,21.899414,-2.619141,43.031250
11.630759,-0.335292,0.000123,0.078871,-0.003945,-0.483629,-0.416591,10.386047,0.017028,0.161762,0.057468,23.300977,2.968359,44.381250
11.733707,0.078047,-0.086353,0.156522,0.004903,-1.915361,-0.493206,9.844957,-0.010642,0.527855,0.249028,22.600195,3.666797,46.406250
11.834846,-0.193720,-0.137484,0.193764,0.032984,-1.867477,0.028730,9.926360,0.085138,0.561910,-0.108551,22.600195,3.666797,46.406250
11.936383,0.237008,-0.143626,0.258384,0.003033,-3.098097,-0.526724,9.835380,-0.015963,0.322460,0.146863,22.600195,3.666797,46.406250
12.037265,-0.326316,-0.149539,0.279674,0.000848,-2.777274,-0.359130,9.753978,0.025541,0.311818,0.037248,22.600195,3.666797,46.406250
12.138958,-0.014569,-0.153727,0.324000,-0.006789,-3.122039,-0.727837,9.323021,-0.011706,0.487415,0.104294,22.600195,3.666797,46.406250
12.240868,-0.124335,-0.341437,0.343757,0.165698,-3.667917,-0.234632,9.332598,0.044697,0.174533,-0.002128,24.001758,23.223047,51.468750
12.342374,-0.124383,-0.504224,0.392811,0.173605,-3.873818,-0.799663,8.667010,-0.029798,0.096844,0.057468,24.352148,24.619922,51.131250
12.443969,-0.275311,-0.579114,0.370435,0.206143,-3.983952,-0.148441,9.418789,0.288405,0.138349,-0.014899,24.352148,24.619922,51.131250
12.546249,-0.000911,-0.577005,0.364896,0.260624,-3.897760,0.943315,9.682152,0.655562,0.246900,-0.054275,22.950586,25.667578,52.818750
12.648942,-0.454961,-0.670181,0.351527,0.301343,-4.199430,0.225055,8.820239,-0.073431,0.470387,-0.145799,17.519531,27.937500,50.287500
12.750964,-0.168300,-0.760620,0.361271,0.364979,-4.802769,-0.038307,8.255207,-0.451231,0.626828,0.120257,16.293164,33.001172,48.093750
12.852652,-0.052733,-0.818223,0.389513,0.351501,-4.912902,-0.627281,8.815451,0.105358,0.371414,0.120257,21.549023,39.287109,49.106250
12.954837,-0.346600,-0.838688,0.410572,0.485016,-6.129156,0.488417,8.494627,0.194753,0.451231,0.083009,21.373828,43.303125,48.262500
13.056797,-0.532692,-0.911537,0.413806,0.532811,-6.157887,0.335188,7.896077,0.335231,0.527855,0.056404,20.497852,47.319141,45.731250
13.159265,-0.332165,-0.988429,0.415154,0.618343,-6.698976,0.416591,7.316680,-0.048954,0.424625,0.027670,17.519531,52.033594,46.237500
13.261543,-0.173070,-1.045031,0.459239,0.662156,-6.837840,0.129287,7.053318,0.202203,0.213909,-0.024477,19.621875,54.128906,43.200000
13.363737,0.000190,-1.059112,0.429706,0.719710,-7.216124,0.497994,6.770802,-0.077688,0.343744,0.107487,18.745898,56.049609,41.006250
13.465246,-0.233146,-1.075094,0.453957,0.730495,-7.460332,0.272939,6.698976,0.147927,0.261799,0.030863,18.745898,56.049609,41.006250
13.567441,-0.093928,-1.080250,0.470221,0.786117,-7.699753,0.359130,6.071695,0.056404,0.156441,0.138349,18.745898,56.049609,41.006250
13.669189,-0.320687,-1.085132,0.472254,0.804167,-7.671022,0.646434,6.019023,0.080881,0.250093,-0.008514,18.745898,56.049609,41.006250
13.770557,-0.074220,-1.098644,0.496096,0.839230,-7.905654,0.560243,5.683835,-0.075560,0.019156,0.035119,18.745898,56.049609,41.006250
13.872133,-0.182586,-1.123411,0.468325,0.838423,-7.829039,0.411803,5.784391,-0.093652,0.138349,-0.007450,22.074609,59.716406,35.775000
13.973808,-0.246162,-1.154956,0.456149,0.858650,-8.169016,0.407014,5.779603,-0.170276,0.148991,-0.036184,21.724219,59.716406,35.100000
14.075612,-0.258136,-1.163581,0.464952,0.839193,-7.498640,0.737414,6.560113,0.015963,-0.022349,0.096844,21.724219,59.716406,35.100000
14.177355,0.000754,-1.131509,0.445388,0.779723,-7.398083,0.196325,7.000646,-0.112808,-0.042569,-0.088331,24.001758,61.287891,35.943750
14.278853,-0.378936,-1.166896,0.494658,0.837681,-8.101978,0.014365,5.889736,-0.089395,0.060661,-0.003193,23.651367,58.843359,35.606250
14.380823,-0.264026,-1.146270,0.462662,0.823225,-7.905654,0.210690,5.995081,0.173469,-0.056404,0.021284,25.052930,60.589453,34.931250
14.482819,-0.085050,-1.156543,0.491698,0.824189,-7.819463,0.138864,5.779603,0.011706,-0.133028,-0.028734,23.476172,59.017969,36.112500
14.584859,-0.250678,-1.123709,0.465231,0.804301,-7.852981,0.325611,6.210559,0.089395,-0.271377,0.047890,22.600195,58.494141,36.281250
14.686680,-0.289330,-1.069523,0.461966,0.728553,-7.254431,0.339977,6.636727,-0.026606,-0.475708,0.027670,22.425000,56.224219,38.137500
14.788462,-0.334083,-1.002987,0.469816,0.667079,-7.354988,0.272939,7.187393,-0.079817,-0.304368,0.085138,23.125781,51.335156,39.825000
14.889621,-0.244164,-0.964050,0.454044,0.595727,-6.785168,0.263362,7.469909,0.055340,-0.004257,-0.013835,22.074609,49.239844,41.850000
14.991461,-0.084977,-0.955476,0.430847,0.609426,-6.359000,0.411803,7.082049,-0.048954,0.095780,-0.067046,22.600195,50.462109,42.356250
15.093353,-0.170455,-0.956470,0.438472,0.619426,-6.655881,0.402226,7.249643,-0.019156,0.025541,-0.054275,21.549023,49.763672,42.693750
15.195193,-0.128239,-1.004612,0.455652,0.632687,-6.837840,0.292093,7.144298,0.023413,-0.012771,0.045762,21.899414,51.160547,41.006250
15.297007,-0.241512,-0.984211,0.453613,0.625758,-6.651092,0.392649,7.302315,-0.054275,0.239450,0.010642,23.826563,50.985937,41.850000
15.398423,-0.338891,-0.999591,0.474230,0.639971,-6.842628,0.081403,7.034164,0.043633,0.012771,-0.015963,23.826563,52.732031,40.162500
15.500199,-0.132259,-1.018541,0.464760,0.626892,-6.789956,-0.038307,7.077260,-0.002128,-0.036184,0.034055,23.826563,52.732031,40.162500
15.601794,-0.009146,-1.026882,0.475924,0.635910,-7.038953,-0.038307,7.235277,-0.012771,0.077688,0.023413,23.826563,52.732031,40.162500
15.703495,-0.105108,-1.014679,0.462459,0.668730,-7.283161,0.301669,7.173028,-0.014899,0.368222,-0.037248,23.826563,52.732031,40.162500
15.805968,-0.262847,-1.024456,0.481080,0.695453,-7.192182,0.177171,6.560113,-0.113872,0.449103,0.027670,23.826563,52.732031,40.162500
15.907936,-0.192944,-1.088808,0.502064,0.752164,-7.345411,0.129287,6.124368,-0.078753,0.402277,-0.091523,25.228125,56.922656,38.812500
16.009591,-0.304328,-1.177802,0.508586,0.830377,-7.814674,-0.248997,5.741296,0.045762,0.207524,-0.029798,26.104102,59.891016,35.268750
16.111038,-0.407024,-1.191828,0.499038,0.842345,-8.101978,-0.119710,5.755661,0.021284,0.136221,-0.085138,26.104102,60.938672,34.593750
16.213209,-0.267958,-1.190090,0.501827,0.851385,-7.766790,-0.095768,5.535394,-0.150056,-0.018092,0.075560,27.155273,61.637109,34.593750
16.314144,-0.293190,-1.180645,0.527576,0.824156,-7.757213,-0.268151,5.793968,-0.142606,-0.071303,0.019156,27.856055,61.287891,36.281250
16.416328,-0.265593,-1.155531,0.505936,0.791166,-8.140286,-0.727837,6.263232,-0.446974,-0.189432,-0.070239,28.206445,60.589453,35.268750
16.517926,-0.041644,-1.168635,0.552436,0.791261,-7.647080,-0.603339,5.928043,0.153248,-0.070239,0.028734,32.936719,59.367187,33.750000
16.620382,-0.181362,-1.158345,0.551694,0.771928,-7.996634,-0.545878,6.047753,-0.225616,-0.046826,-0.050019,31.184766,58.668750,34.425000
16.721923,0.082951,-1.164536,0.558173,0.784088,-7.896077,-0.656011,5.995081,0.009578,-0.014899,0.018092,33.637500,59.716406,34.087500
16.823327,-0.164227,-1.151431,0.565910,0.762872,-7.934384,-0.727837,6.129156,-0.085138,-0.010642,-0.047890,33.287109,59.367187,35.100000
16.924447,0.076210,-1.153306,0.569174,0.762443,-8.006210,-0.790087,6.210559,-0.008514,0.012771,-0.027670,33.287109,59.367187,35.100000
17.026244,-0.300280,-1.167006,0.580723,0.771747,-7.790732,-0.919373,5.861006,-0.014899,-0.018092,0.032991,33.287109,59.367187,35.100000
17.127950,0.173490,-1.159471,0.563559,0.731700,-7.618350,-0.948104,6.229713,0.002128,-0.014899,-0.005321,33.462305,59.541797,33.918750
17.229480,-0.036731,-1.175591,0.580144,0.772100,-7.819463,-0.871489,5.837064,-0.052147,0.010642,0.009578,33.987891,58.668750,33.750000
17.331752,0.105545,-1.171396,0.574318,0.763072,-7.929596,-0.905008,5.995081,0.001064,0.013835,-0.011706,33.987891,58.668750,33.750000
17.432881,-0.066413,-1.170072,0.604559,0.766086,-8.073248,-1.077391,5.942409,-0.122386,-0.035119,0.027670,35.564648,58.144922,33.581250
17.534362,-0.092212,-1.154643,0.599136,0.725305,-7.527370,-1.206678,5.990293,-0.037248,-0.013835,-0.019156,35.564648,57.097266,32.906250
17.637005,-0.038640,-1.167823,0.614552,0.751900,-8.044518,-1.335965,5.904101,0.014899,-0.026606,-0.032991,36.440625,58.668750,34.425000
17.738872,0.054818,-1.142594,0.610336,0.743727,-7.766790,-0.981623,5.942409,-0.142606,0.000000,0.021284,38.542969,59.017969,34.762500
17.840462,-0.211955,-1.172623,0.617159,0.749079,-7.742848,-1.211466,5.817910,-0.062789,-0.015963,-0.042569,38.367773,58.144922,32.231250
17.942870,0.133909,-1.159824,0.613298,0.740909,-7.920019,-1.216254,6.009446,-0.126643,0.030863,-0.014899,37.666992,58.144922,32.906250
18.043922,-0.020703,-1.164764,0.622692,0.749941,-7.900865,-1.235408,5.985504,0.097909,-0.018092,0.000000,37.666992,58.144922,32.906250
18.145437,0.053964,-1.160767,0.626878,0.711237,-7.733271,-1.431733,6.124368,-0.089395,-0.045762,0.043633,37.666992,58.144922,32.906250
18.246910,-0.197277,-1.143402,0.640262,0.698216,-7.584831,-1.359907,6.081272,-0.009578,-0.009578,-0.005321,38.893359,57.271875,32.400000
18.349126,0.173181,-1.175457,0.640072,0.715322,-7.704541,-1.503559,5.995081,-0.175597,0.042569,0.029798,39.594141,56.922656,30.712500
18.451522,0.270037,-1.151808,0.639690,0.716540,-7.857770,-1.522712,6.124368,-0.144734,-0.015963,-0.015963,40.645313,57.970312,31.387500
18.552782,-0.104962,-1.142954,0.644609,0.717411,-7.814674,-1.407791,5.904101,-0.148991,-0.086202,-0.055340,44.149219,57.621094,30.037500
18.653701,-0.073116,-1.146787,0.678648,0.700233,-7.733271,-1.556231,6.019023,-0.062789,-0.071303,0.017028,42.922852,56.398828,31.893750
18.755528,-0.093047,-1.139657,0.665728,0.691044,-7.876923,-1.714248,6.090849,-0.191560,0.003193,0.067046,42.922852,56.398828,31.893750
18.857349,0.146376,-1.123503,0.684131,0.669519,-7.852981,-1.824382,6.177040,-0.122386,-0.092588,-0.018092,44.674805,56.748047,30.881250
18.959177,0.077710,-1.090302,0.704875,0.621140,-7.445967,-1.838747,6.086061,-0.095780,0.002128,-0.012771,44.499609,54.478125,31.725000
19.060966,-0.130720,-1.106975,0.706309,0.629296,-7.771579,-2.015918,6.244078,-0.093652,0.009578,-0.040441,47.302734,55.875000,30.712500
19.163006,0.057889,-1.146562,0.725778,0.638432,-7.513005,-2.331952,5.908890,0.038312,-0.018092,-0.007450,46.952344,56.922656,29.362500
19.264951,-0.127871,-1.117203,0.719417,0.631119,-7.541735,-2.169147,5.923255,-0.159634,-0.076624,-0.057468,46.952344,55.875000,30.037500
19.366281,0.064465,-1.104516,0.753242,0.601959,-7.354988,-2.351106,5.985504,0.150056,0.069175,0.050019,48.529102,54.652734,29.193750
19.469140,-0.135231,-1.121938,0.707237,0.639633,-7.536947,-2.102109,5.884948,0.044697,0.055340,-0.004257,46.426758,56.398828,29.868750
19.570579,-0.085291,-1.100361,0.707121,0.620965,-7.656657,-2.092532,6.172252,-0.055340,-0.023413,0.035119,48.353906,56.922656,30.712500
19.672608,0.021136,-1.132315,0.725425,0.643049,-7.498640,-2.193089,5.961562,0.103230,0.019156,-0.010642,47.653125,57.621094,30.037500
19.774742,0.146706,-1.075905,0.712226,0.609768,-7.517793,-1.968034,6.244078,0.112808,0.056404,0.036184,48.704297,54.478125,29.700000
19.876853,-0.128288,-1.099913,0.707924,0.614469,-7.426814,-1.991976,6.186617,0.395891,0.138349,-0.005321,46.426758,55.700391,31.893750
19.978804,-0.025430,-1.131779,0.687399,0.665076,-7.436390,-1.752556,5.841852,0.391635,-0.020220,-0.017028,43.798828,56.573437,33.412500
20.080341,-0.014121,-1.085833,0.648211,0.659830,-7.771579,-1.173159,6.603208,0.607672,-0.188368,0.013835,39.944531,55.875000,35.100000
20.182003,-0.174718,-1.098606,0.630870,0.706332,-7.709329,-0.952892,6.320692,0.715159,0.069175,0.012771,39.944531,55.875000,35.100000
20.283713,-0.141204,-1.059782,0.591180,0.704176,-7.369353,-0.502782,6.354211,0.431011,-0.083009,0.089395,39.944531,55.875000,35.100000
20.385488,0.268054,-1.034408,0.562597,0.698288,-7.321469,-0.320823,6.469133,0.460809,0.020220,0.028734,39.944531,55.875000,35.100000
20.487055,0.104106,-1.075367,0.478188,0.747495,-6.880936,0.526724,6.631939,0.407598,0.233065,0.009578,25.578516,54.478125,35.775000
20.588312,0.261472,-1.118645,0.470091,0.824306,-7.838616,0.450110,6.047753,0.519341,-0.085138,-0.021284,22.950586,56.398828,34.931250
20.689619,-0.069786,-1.084173,0.430272,0.808876,-7.752425,1.647211,6.766014,0.442717,0.001064,0.114936,20.673047,56.573437,35.775000
20.791707,0.110538,-1.069389,0.378506,0.814995,-7.177817,1.417367,6.574478,0.266056,0.002128,0.010642,16.643555,56.049609,35.268750
20.893588,0.152963,-1.051109,0.397816,0.822306,-7.766790,1.216254,6.038177,0.267120,0.028734,-0.023413,16.468359,53.779687,35.775000
20.995289,-0.115170,-1.063477,0.360825,0.845383,-7.527370,1.771709,6.406884,0.086202,0.026606,-0.006385,13.314844,56.573437,35.775000
21.097670,0.034262,-1.056689,0.342308,0.857670,-7.862558,1.891419,6.354211,0.300111,0.017028,-0.071303,11.037305,56.049609,35.606250
21.198756,-0.097761,-1.076561,0.300977,0.895662,-7.900865,2.221819,6.143521,0.297983,0.001064,-0.034055,10.336523,58.843359,33.243750
21.301055,0.071912,-1.078531,0.297160,0.887780,-7.728483,1.915361,6.090849,0.506571,-0.014899,-0.062789,6.832617,56.398828,33.243750
21.403491,-0.063031,-1.067690,0.253298,0.927207,-7.541735,2.437297,5.741296,0.390570,0.012771,0.109615,4.204688,55.176562,30.712500
21.505384,-0.283200,-1.077959,0.244010,0.960694,-7.637503,2.513912,5.348647,0.170276,0.086202,0.095780,1.226367,56.398828,31.218750
21.607982,-0.120756,-1.060992,0.239851,0.973168,-7.963115,2.949656,5.420473,0.186239,0.048954,-0.019156,1.226367,56.398828,31.218750
21.709971,-0.050487,-1.074468,0.258206,0.988010,-8.044518,2.786851,5.295974,0.141542,0.041505,-0.020220,1.226367,56.398828,31.218750
21.811649,0.141804,-1.051752,0.243232,0.987628,-7.862558,3.098097,5.272032,0.118129,0.069175,-0.012771,-1.751953,56.573437,29.025000
21.913506,-0.052017,-1.070486,0.205520,0.998026,-7.805097,3.069367,5.286397,0.184111,0.136221,0.022349,-1.751953,56.573437,29.025000
22.014974,-0.034752,-1.078746,0.161733,1.012460,-7.819463,3.208230,5.243302,-0.017028,0.060661,-0.021284,-2.627930,58.843359,27.506250
22.116779,-0.210123,-1.086307,0.171331,1.017839,-8.475474,2.964022,5.286397,0.075560,0.129835,-0.036184,-2.102344,57.970312,27.337500
22.218151,0.022729,-1.102244,0.193227,1.041128,-8.130709,3.098097,4.970363,-0.094716,0.068110,0.046826,-2.978320,59.541797,27.843750
22.320562,0.000888,-1.088825,0.184764,1.057010,-8.078036,3.241749,4.740519,0.019156,0.027670,0.051083,-3.153516,59.017969,27.000000
22.422161,-0.364217,-1.105652,0.231479,1.039169,-8.322245,2.896984,5.166687,-0.408662,-0.225616,-0.073431,-2.452734,59.017969,28.687500
22.524077,-0.043558,-1.101101,0.218355,0.963358,-7.254431,2.212242,4.855441,-1.036554,-0.873728,0.424625,-0.175195,57.795703,28.518750
22.625806,0.039317,-1.046681,0.240067,0.739211,-6.449979,1.891419,6.722918,-1.098279,-1.152555,0.647048,5.606250,51.335156,33.075000
22.727741,-0.036369,-0.961824,0.296084,0.577891,-6.435614,0.842759,8.628703,-1.132335,-1.121692,0.425690,14.716406,43.303125,34.762500
22.828529,0.353782,-0.913753,0.214405,0.535355,-5.190629,0.679953,8.054094,0.095780,0.588516,-0.534241,20.497852,39.985547,38.643750
22.930361,0.089179,-0.848793,0.344316,0.492536,-6.133945,0.708684,8.585607,-0.570424,-0.300111,0.133028,19.096289,41.033203,40.668750
23.032378,-0.246369,-0.801920,0.344416,0.460813,-5.324704,0.952892,8.370129,0.071303,-0.330974,0.101101,21.899414,41.033203,42.356250
23.133605,-0.190922,-0.814624,0.364495,0.406129,-5.497087,0.392649,8.786720,-0.223487,-0.510828,0.221359,21.023438,39.461719,46.575000
23.234818,0.026162,-0.803311,0.334953,0.390675,-5.324704,0.560243,9.461885,-0.324588,-0.653434,0.076624,21.023438,39.461719,46.575000
23.336631,-0.185776,-0.823364,0.314640,0.337394,-4.486734,0.301669,9.313444,0.064918,-0.534241,-0.088331,21.023438,39.461719,46.575000
23.438036,0.125387,-0.848196,0.220491,0.272064,-3.371036,0.416591,9.567230,0.011706,-0.653434,0.018092,21.023438,39.461719,46.575000
23.539726,-0.432191,-0.700844,0.264491,0.091005,-2.533065,-0.296881,9.610325,-0.510828,-0.508699,0.031927,25.403320,21.826172,53.831250
23.641385,-0.072503,-0.600582,0.209269,0.040243,-1.470040,-0.301669,9.835380,0.008514,-0.386313,-0.025541,28.206445,19.032422,57.206250
23.743137,-0.137199,-0.494501,0.223374,-0.013063,-1.498770,0.402226,9.696517,0.029798,-0.427818,-0.061725,30.834375,12.571875,58.725000
23.844898,-0.217876,-0.424905,0.182058,-0.058705,-1.503559,-0.751779,9.150639,0.010642,-0.730058,0.201138,29.432813,9.079687,55.687500
23.947176,0.212085,-0.360827,0.048640,-0.124057,0.833182,-0.426168,10.108319,0.003193,-0.031927,-0.117065,30.483984,1.396875,54.337500
24.049314,-0.015271,-0.370222,-0.004286,-0.144488,-0.708684,-0.756568,11.267113,0.032991,0.121322,-0.464002,28.907227,-2.269922,52.818750
24.150860,-0.126515,-0.279967,0.053618,-0.138479,-2.437297,-0.957681,10.649409,-0.007450,0.350130,0.527855,28.732031,-4.190625,51.300000
24.252696,0.066443,-0.191524,0.071296,-0.109915,1.110910,-0.852336,10.500968,0.075560,0.233065,-0.029798,31.184766,-1.746094,47.587500
24.354689,-0.175048,-0.130975,0.054647,-0.081370,-0.694318,-0.330400,10.783484,-0.002128,-0.250093,-0.421433,30.308789,-3.317578,48.768750
24.456557,-0.006186,-0.014311,0.077590,-0.072444,-0.780510,-0.507571,10.098743,0.018092,0.039376,0.188368,28.907227,-4.016016,47.081250
24.558725,-0.103152,0.069024,0.024400,-0.073472,-0.296881,-0.555455,10.295067,0.011706,0.007450,0.038312,30.308789,-5.412891,47.418750
24.661240,-0.288331,0.059985,0.017261,-0.043286,-0.210690,-0.603339,10.280702,0.008514,0.008514,0.041505,29.432813,-3.492187,46.575000
24.762636,-0.135849,0.044125,0.044865,-0.069235,-0.416591,-0.656011,10.117896,0.008514,0.008514,0.023413,30.483984,-4.190625,46.912500
24.864325,-0.202156,0.048071,0.007335,-0.081051,0.531513,-0.933739,9.710882,-0.017028,-0.235194,0.183047,30.659180,-4.714453,47.081250
24.966549,-0.063208,0.065845,0.037101,-0.063727,-0.387861,-0.507571,9.682152,-0.002128,0.027670,0.040441,30.659180,-4.714453,47.081250
25.067702,0.106316,0.064718,-0.053257,-0.065015,1.221043,-0.660800,10.611102,-0.018092,-0.007450,-0.256478,30.659180,-5.063672,47.418750
25.169539,0.156868,0.008275,-0.013358,-0.060407,0.909797,-0.100556,9.227253,0.053211,0.092588,-0.821581,30.834375,-4.539844,45.562500
25.271423,-0.010105,-0.014693,0.038195,-0.129870,0.727837,-0.205901,10.165780,-0.005321,-0.108551,-0.200074,26.629687,-5.587500,40.837500
25.373521,-0.073002,0.017309,0.019154,-0.109758,-1.905785,-1.857900,11.348516,-0.018092,-0.276698,0.076624,24.702539,-9.254297,39.318750
25.475028,0.130382,0.078348,0.028643,-0.150748,0.095768,-1.388637,12.440272,-0.037248,-0.113872,0.073431,26.104102,-10.651172,37.968750
25.577326,0.192881,0.132400,-0.041239,-0.094310,0.560243,0.330400,9.088390,-0.004257,-0.034055,0.095780,27.680859,-11.524219,38.475000
25.678951,0.106963,0.258343,0.065199,-0.075293,-1.086968,-0.225055,11.348516,0.064918,-0.009578,0.402277,30.483984,-12.571875,39.150000
25.780554,0.091892,0.320280,-0.014202,-0.070066,2.753332,0.837971,13.565547,0.112808,-0.094716,0.552332,30.483984,-12.571875,39.150000
25.882417,0.235906,0.373346,-0.042347,-0.083208,-0.402226,-1.728614,11.645397,0.043633,0.244772,0.630021,30.483984,-12.571875,39.150000
25.984644,0.071643,0.308402,-0.007675,-0.064364,0.359130,-0.526724,10.242395,-0.012771,-0.220294,0.126643,30.483984,-12.571875,39.150000
26.086437,0.179726,0.337726,-0.018204,-0.028216,0.143652,-0.201113,10.304644,0.025541,0.073431,0.080881,30.483984,-12.571875,39.150000
26.188548,-0.114506,0.316475,-0.012936,-0.063454,3.179500,-1.225831,11.961431,-0.077688,-0.327781,-0.023413,38.893359,-9.778125,45.562500
26.290268,-0.061096,0.187658,0.062678,-0.058263,-1.240196,-1.000776,9.773131,-0.025541,-0.208588,-0.772627,35.915039,-7.857422,45.731250
26.392009,-0.002144,0.107128,-0.049611,-0.122462,-0.191536,-0.995988,5.343858,-0.010642,0.241579,-0.291597,33.287109,-11.873437,45.225000
26.493622,-0.106206,0.146699,0.050842,-0.058475,-0.909797,0.402226,11.247959,0.071303,0.052147,-0.389506,33.287109,-11.873437,45.225000
26.595460,0.389619,0.211947,-0.010285,-0.077446,-0.019154,-0.804452,10.184934,0.037248,0.119193,0.072367,30.659180,-11.349609,43.031250
26.697161,-0.112716,0.254071,0.017055,-0.059546,-0.186748,-1.058237,10.682928,-0.090459,-0.408662,0.124514,30.659180,-11.000391,41.681250
26.799005,0.096925,0.282366,-0.031916,-0.070971,0.043096,-0.746991,10.275914,0.013835,0.004257,0.018092,30.483984,-11.873437,41.175000
26.901498,0.506054,0.281266,-0.029455,-0.050667,0.201113,-0.565032,10.113108,0.007450,-0.019156,0.004257,30.834375,-11.524219,42.862500
27.003555,0.249505,0.305435,-0.039190,-0.046747,0.737414,-0.239420,10.864887,0.026606,0.007450,-0.048954,30.308789,-12.746484,43.706250
27.105407,0.164582,0.296665,-0.001094,-0.044343,-0.469264,-0.181959,10.979809,0.053211,0.136221,-0.039376,30.834375,-11.524219,41.175000
27.207276,-0.171586,0.292831,0.015408,-0.058156,-0.162806,-0.335188,10.189722,0.028734,-0.007450,0.024477,28.732031,-11.873437,41.175000
27.308441,0.070626,0.306772,-0.021994,-0.044252,-0.009577,-0.512359,10.615890,0.020220,-0.014899,0.006385,29.082422,-11.175000,40.500000
27.410611,0.153063,0.302532,0.028680,-0.089016,-0.780510,-0.828394,9.366117,0.020220,0.068110,0.008514,29.958398,-12.397266,41.681250
27.511599,-0.076595,0.266241,-0.005212,-0.049541,-0.090980,-0.565032,10.189722,0.025541,-0.004257,-0.006385,29.257617,-10.651172,41.343750
27.613563,-0.081609,0.260196,0.004919,-0.082288,-0.201113,-0.718260,10.022128,0.015963,0.002128,0.019156,29.257617,-10.651172,41.343750
27.715819,-0.138976,0.261198,-0.015880,-0.062133,0.023942,-0.694318,10.247183,0.013835,-0.001064,0.007450,29.257617,-10.651172,41.343750
27.817158,-0.182650,0.261640,0.013197,-0.052829,-0.196325,-0.574608,10.285490,0.178790,-0.035119,-0.028734,29.257617,-10.651172,41.343750
27.918636,0.247949,0.337501,-0.006002,-0.044032,-0.090980,-0.421379,10.611102,0.226680,-0.020220,-0.018092,26.980078,-11.873437,39.825000
28.020747,0.224878,0.334733,-0.024455,-0.014724,0.158017,-0.148441,10.266337,0.407598,-0.021284,0.020220,27.505664,-10.301953,38.981250
28.122373,0.368208,0.373782,0.006967,0.038370,0.186748,0.478840,10.098743,0.457616,-0.043633,-0.019156,23.125781,-8.381250,37.125000
28.224078,0.014159,0.421631,0.051185,0.067548,-0.119710,1.091756,9.916783,0.470387,0.005321,0.034055,21.549023,-8.206641,37.293750
28.325588,0.144244,0.508117,0.058526,0.111354,0.234632,1.403002,9.998186,0.292662,0.019156,0.068110,16.117969,-5.587500,35.437500
28.427238,0.045323,0.614648,0.100479,0.132805,0.062249,1.757344,9.979033,0.329910,0.000000,0.022349,15.241992,-6.111328,35.268750
28.528592,-0.055897,0.684964,0.126696,0.160665,0.215478,2.140416,9.849746,0.393763,-0.040441,0.023413,12.614063,-4.539844,34.087500
28.630939,-0.033897,0.776547,0.174403,0.156333,0.253785,2.671929,9.749189,0.308625,-0.026606,0.010642,9.635742,-5.063672,32.568750
28.732952,-0.043733,0.902228,0.227395,0.137211,0.009577,2.930503,9.720459,0.345873,0.012771,0.059597,7.708594,-5.238281,32.737500
28.834574,0.211985,1.041096,0.263220,0.133107,0.186748,3.203442,10.070012,0.357579,0.030863,0.034055,5.606250,-4.190625,32.062500
28.936545,0.290311,1.146043,0.328690,0.126435,-0.014365,3.620033,9.595960,0.287341,-0.010642,0.009578,5.606250,-4.190625,32.062500
29.037797,0.222061,1.210614,0.375953,0.148050,0.134075,3.926491,9.313444,0.269249,-0.015963,0.010642,5.606250,-4.190625,32.062500
29.139212,0.226296,1.252180,0.401912,0.160564,0.301669,4.180276,9.232042,0.271377,-0.008514,0.011706,5.606250,-4.190625,32.062500
29.241289,0.353907,1.265189,0.412792,0.132062,0.153229,4.309563,9.227253,0.222423,-0.011706,0.018092,5.606250,-4.190625,32.062500
29.343217,-0.115207,1.391744,0.446627,0.015539,0.153229,4.467580,9.246407,0.251157,-0.002128,0.019156,-1.401563,-1.396875,28.012500
29.445247,0.013840,1.546651,0.492583,-0.052956,0.301669,4.797980,9.021352,0.284148,-0.024477,-0.007450,-3.328711,-1.571484,27.168750
29.547745,0.079803,1.702577,0.527956,-0.089624,0.282516,5.152322,8.734048,0.253285,0.000000,0.012771,-3.153516,-0.349219,25.312500
29.649074,0.070236,1.855626,0.524047,-0.181075,0.258574,5.224148,9.864111,0.195817,0.081945,-0.020220,-5.956641,-1.746094,25.987500
29.751038,0.171594,1.982851,0.542650,-0.248258,0.411803,5.645528,8.418013,0.278827,-0.022349,0.013835,-6.832617,-0.523828,24.468750
29.852343,0.268890,2.139237,0.546056,-0.314105,0.397437,5.870582,8.183381,0.239450,-0.024477,-0.014899,-7.708594,0.000000,23.625000
29.954257,-0.138070,2.246917,0.527287,-0.393094,0.124498,6.138733,8.269573,0.168147,-0.012771,-0.011706,-8.584570,0.174609,20.756250
30.055923,0.318852,2.348806,0.503046,-0.436838,0.239420,6.133945,8.159439,0.171340,-0.024477,0.005321,-10.336523,0.873047,22.106250
30.157001,0.026880,2.429370,0.479575,-0.493661,0.062249,6.162675,7.896077,0.161762,-0.028734,-0.031927,-12.263672,0.698437,20.925000
30.259451,0.505910,2.487050,0.459475,-0.513246,0.105345,6.277597,7.891289,0.106422,-0.017028,-0.020220,-12.263672,0.698437,20.925000
30.360987,-0.087432,2.487262,0.479832,-0.509668,0.229843,6.440402,7.958326,0.183047,0.011706,0.030863,-12.263672,0.698437,20.925000
30.462578,0.124259,2.496718,0.488453,-0.550809,0.220267,6.560113,7.656657,0.163891,-0.001064,0.001064,-14.716406,1.396875,17.550000
30.564171,0.186160,2.660155,0.411125,-0.625327,0.186748,6.708553,7.556100,0.209652,-0.006385,0.020220,-14.716406,1.396875,17.550000
30.665409,0.054146,2.642365,0.455021,-0.638276,0.244209,6.947973,7.311892,0.230937,0.008514,0.019156,-14.366016,0.349219,17.212500
30.767427,-0.090390,2.645799,0.468774,-0.658217,0.263362,7.182605,7.201759,0.171340,-0.001064,0.015963,-15.066797,-0.349219,16.875000
30.869284,0.157641,2.734032,0.402292,-0.702089,0.186748,7.206547,7.101202,0.192625,-0.007450,0.007450,-15.767578,0.698437,15.187500
30.970905,-0.073780,2.779792,0.374386,-0.753070,0.095768,7.359776,6.813898,0.184111,-0.002128,0.010642,-16.643555,2.269922,15.356250
31.072743,0.417538,2.767876,0.402191,-0.768160,0.158017,7.441179,6.617573,0.170276,0.005321,0.021284,-18.220313,0.349219,15.187500
31.174325,0.197389,2.797277,0.378423,-0.766679,0.143652,7.584831,6.732495,0.130900,-0.004257,0.006385,-18.045117,1.571484,14.681250
31.276691,0.112805,2.856322,0.338602,-0.798328,0.272939,7.637503,6.675034,0.135156,0.011706,0.024477,-18.045117,2.269922,13.331250
31.378319,0.132723,2.857909,0.342992,-0.820203,0.234632,7.824251,6.660669,0.141542,-0.004257,0.006385,-19.446680,2.269922,14.343750
31.479770,0.003238,2.920345,0.303210,-0.870029,0.210690,7.876923,6.167463,0.161762,-0.004257,0.012771,-18.745898,2.619141,11.643750
31.581767,-0.004523,2.879896,0.349366,-0.846131,0.186748,8.015787,6.066907,0.176661,0.011706,0.030863,-20.322656,-0.349219,13.500000
31.682994,0.101676,2.873907,0.436581,-0.894715,0.435745,8.236054,5.669470,-0.131964,-0.015963,-0.026606,-20.322656,-0.349219,13.500000
31.784886,-0.114172,2.822637,0.408420,-0.837883,0.138864,7.532158,6.454768,-0.768370,0.110679,0.084074,-20.322656,-0.349219,13.500000
31.886476,0.304728,2.817362,0.372290,-0.744578,0.100556,6.742072,6.866570,-1.360079,0.077688,0.001064,-20.322656,-0.349219,13.500000
31.988298,0.041377,2.759919,0.391993,-0.576407,0.114922,5.631162,8.097190,-1.222794,0.000000,-0.087266,-9.986133,1.920703,21.093750
32.090515,-0.061050,2.617234,0.432640,-0.372306,-0.493206,3.653552,9.059659,-1.312189,0.109615,0.002128,-1.751953,-1.396875,28.687500
32.191869,0.208623,2.505220,0.456035,-0.171571,-0.497994,2.030283,9.892841,-1.096151,0.023413,0.220294,-1.751953,-1.396875,28.687500
32.293446,0.859509,2.411069,0.452948,0.030391,0.598550,1.374272,11.496956,-0.715159,0.141542,0.117065,7.533398,-6.809766,32.906250
32.395823,0.105799,2.333748,0.427189,0.200359,0.325611,0.076614,9.682152,-1.133399,0.089395,0.001064,15.417188,-6.635156,35.775000
32.497412,0.187033,2.290128,0.367318,0.319474,-1.522712,-1.058237,8.633491,-0.081945,0.153248,0.205395,22.425000,-12.222656,39.150000
32.598768,0.284801,2.271883,0.280040,0.342037,1.077391,-0.349553,9.720459,-0.008514,0.010642,0.445910,29.608008,-13.095703,40.331250
32.700581,-0.039982,2.214932,0.220669,0.357411,-0.038307,-0.507571,10.424354,0.014899,0.017028,0.035119,29.958398,-13.794141,41.343750
32.801793,-0.084922,2.151056,0.182509,0.348441,-0.459687,-0.632069,9.624691,0.021284,-0.006385,0.181982,29.958398,-12.746484,41.681250
32.904095,-0.388499,2.079669,0.175528,0.367836,0.746991,-0.531513,8.911219,-0.110679,0.221359,0.172404,31.184766,-13.619531,43.200000
33.005932,0.054185,2.016445,0.158126,0.369549,0.622492,-0.550666,9.816227,0.001064,-0.040441,0.220294,33.111914,-12.048047,45.393750
33.107092,-0.053538,1.937079,0.148283,0.366732,0.196325,-0.593762,10.333374,0.024477,0.002128,0.075560,35.039062,-12.222656,44.550000
33.208778,-0.170475,1.852042,0.130333,0.359861,0.263362,-0.847547,10.256760,0.009578,0.003193,0.071303,34.163086,-10.301953,45.056250
33.311027,-0.398919,1.760455,0.112774,0.356450,0.148441,-0.593762,10.237606,0.013835,0.005321,0.018092,36.615820,-11.349609,45.056250
33.413377,-0.039143,1.657823,0.094490,0.355331,0.067038,-0.584185,10.295067,0.013835,0.007450,0.013835,36.615820,-11.349609,45.056250
33.515461,0.251478,1.553688,0.069181,0.343809,0.153229,-0.689530,10.333374,0.013835,0.003193,0.013835,36.615820,-11.349609,45.056250
33.617265,0.108195,1.446336,0.041670,0.324228,0.052672,-0.785298,10.208876,0.011706,0.004257,0.019156,35.739844,-12.222656,44.887500
33.719711,-0.183801,1.332630,0.013567,0.297471,0.181959,-0.794875,10.285490,0.015963,0.009578,0.014899,35.739844,-12.222656,44.887500
33.821494,0.045457,1.210092,-0.005052,0.266345,0.052672,-0.665588,10.122685,0.017028,0.007450,0.015963,35.739844,-11.873437,44.887500
33.923549,-0.098470,1.081982,-0.023951,0.223920,0.009577,-0.689530,9.950302,0.009578,0.025541,0.008514,35.389453,-12.921094,44.550000
34.026329,-0.026782,0.941342,-0.030031,0.193971,0.047884,-0.675165,10.041282,0.011706,0.007450,0.018092,35.214258,-10.651172,44.718750
34.127629,-0.301564,0.796159,-0.037989,0.141685,0.119710,-0.656011,10.122685,0.013835,0.005321,0.012771,34.513477,-10.651172,45.731250
34.228820,0.128432,0.639767,-0.041013,0.087170,0.100556,-0.665588,10.074801,0.017028,0.009578,0.012771,36.090234,-12.222656,43.537500
34.330807,0.086208,0.474465,-0.037688,0.023178,0.105345,-0.737414,10.208876,0.015963,0.004257,0.011706,34.513477,-11.349609,44.043750
34.435185,-0.055406,0.311076,-0.031248,-0.044755,0.138864,-0.656011,10.261548,0.012771,0.005321,0.013835,35.564648,-12.746484,44.381250
34.535320,-0.060954,0.241083,-0.025057,-0.052317,0.105345,-0.617704,10.194511,0.011706,0.004257,0.017028,34.863867,-11.349609,43.706250
34.638113,-0.037422,0.228247,-0.024612,-0.053082,0.124498,-0.646434,10.165780,0.015963,0.004257,0.015963,36.966211,-11.349609,44.381250
34.739083,-0.341422,0.231664,-0.023454,-0.054450,0.090980,-0.670376,10.132261,0.018092,0.005321,0.011706,33.987891,-11.175000,44.212500
34.840972,-0.104463,0.221075,-0.027468,-0.058520,0.124498,-0.694318,10.084377,0.017028,0.007450,0.012771,35.039062,-10.476562,44.212500
34.943095,-0.256826,0.225068,-0.028478,-0.064170,0.100556,-0.684742,10.170569,0.015963,0.007450,0.014899,35.214258,-10.651172,44.381250
35.044304,-0.014509,0.234489,-0.018166,-0.053068,0.100556,-0.593762,10.247183,0.014899,0.003193,0.014899,35.214258,-11.000391,43.706250
35.146840,-0.261040,0.237446,-0.024032,-0.049524,0.134075,-0.617704,10.122685,0.014899,0.007450,0.012771,35.564648,-11.698828,44.718750
35.248999,-0.318061,0.243725,-0.032530,-0.044297,0.110133,-0.632069,10.175357,0.014899,0.009578,0.011706,35.564648,-11.698828,44.718750
35.352230,-0.366312,0.245330,-0.021698,-0.043614,0.086191,-0.588974,10.189722,0.014899,0.005321,0.011706,35.564648,-11.698828,44.718750
35.453399,0.003431,0.249872,-0.017552,-0.055008,0.114922,-0.660800,10.041282,0.017028,0.003193,0.012771,34.688672,-11.873437,44.550000
35.556100,0.081804,0.260813,-0.027786,-0.067882,0.124498,-0.641646,10.199299,0.015963,0.008514,0.011706,34.688672,-11.873437,44.550000
35.657347,-0.204532,0.257067,-0.030039,-0.063113,0.148441,-0.622492,10.060435,0.011706,0.006385,0.012771,34.863867,-11.698828,44.043750
35.760116,-0.016920,0.267906,-0.031739,-0.068971,0.148441,-0.627281,10.247183,0.015963,0.009578,0.015963,35.564648,-12.397266,44.718750
35.862207,-0.055248,0.285602,-0.026895,-0.065371,0.110133,-0.612916,10.223241,0.013835,0.007450,0.011706,35.564648,-13.095703,44.718750
35.964440,0.010104,0.259599,-0.025502,-0.069609,0.086191,-0.665588,10.084377,0.010642,0.006385,0.011706,35.389453,-11.873437,43.200000
36.066337,-0.031202,0.231201,-0.025308,-0.048282,0.110133,-0.699107,10.237606,0.014899,0.006385,0.013835,34.688672,-11.175000,44.887500
36.168337,-0.146562,0.227437,-0.028944,-0.052686,0.172383,-0.641646,10.256760,0.014899,0.004257,0.014899,33.812695,-10.651172,44.718750
36.269715,-0.224536,0.224030,-0.021946,-0.054662,0.067038,-0.641646,10.103531,0.015963,0.006385,0.014899,34.513477,-10.651172,45.731250
36.372597,-0.359403,0.220716,-0.023237,-0.054405,0.119710,-0.627281,10.180145,0.014899,0.006385,0.011706,34.338281,-10.476562,43.875000
36.474273,-0.070895,0.265121,-0.026387,-0.069045,0.100556,-0.651223,10.070012,0.012771,0.003193,0.013835,34.338281,-12.222656,43.537500
36.576940,-0.208703,0.238478,-0.026567,-0.049538,0.124498,-0.593762,9.993398,0.014899,0.004257,0.013835,35.039062,-11.175000,45.225000
36.678363,-0.111646,0.232294,-0.035550,-0.053523,0.148441,-0.727837,10.232818,0.014899,0.007450,0.014899,34.688672,-11.175000,44.887500
36.781278,-0.034389,0.239996,-0.025842,-0.049110,0.114922,-0.675165,10.223241,0.014899,0.007450,0.014899,34.863867,-11.698828,46.068750
36.883298,-0.016651,0.243976,-0.028272,-0.047635,0.119710,-0.670376,10.156203,0.011706,0.007450,0.014899,34.863867,-11.698828,46.068750
36.985885,-0.192316,0.246623,-0.030080,-0.051667,0.158017,-0.641646,10.098743,0.014899,0.003193,0.013835,34.863867,-11.698828,46.068750
37.088074,0.065728,0.246351,-0.018617,-0.057273,0.071826,-0.718260,10.309432,0.011706,0.005321,0.018092,34.863867,-11.698828,46.068750
37.189385,0.345166,0.245886,-0.027798,-0.054374,0.090980,-0.608127,10.108319,0.017028,0.006385,0.010642,34.863867,-11.698828,46.068750
37.290923,-0.030698,0.250817,-0.027080,-0.052527,0.110133,-0.612916,10.070012,0.015963,0.007450,0.011706,35.389453,-11.873437,44.550000
37.393534,-0.360240,0.251251,-0.024233,-0.050722,0.095768,-0.636858,10.338163,0.015963,0.007450,0.009578,34.513477,-11.698828,43.706250
37.495066,0.051725,0.233783,-0.023990,-0.048114,0.110133,-0.636858,10.213664,0.015963,0.006385,0.017028,35.915039,-11.349609,44.043750
37.596968,-0.265400,0.228745,-0.023317,-0.053489,0.090980,-0.665588,10.266337,0.017028,0.005321,0.013835,34.513477,-11.000391,43.706250
37.699904,-0.059180,0.245639,-0.025615,-0.046684,0.100556,-0.670376,10.342951,0.010642,0.005321,0.010642,34.863867,-11.698828,44.718750
37.801562,0.226485,0.278861,-0.026434,-0.070569,0.110133,-0.632069,10.108319,0.013835,0.007450,0.011706,34.513477,-12.746484,44.718750
37.903754,-0.107394,0.251343,-0.024846,-0.049492,0.100556,-0.560243,10.304644,0.015963,0.005321,0.014899,35.389453,-11.873437,44.887500
38.005092,0.127199,0.255566,-0.014838,-0.053233,0.062249,-0.665588,10.122685,0.013835,0.004257,0.013835,34.513477,-12.048047,45.731250
38.107521,-0.030141,0.270701,-0.035171,-0.049665,0.134075,-0.689530,10.285490,0.014899,0.007450,0.018092,35.389453,-12.921094,45.225000
38.208373,0.243937,0.257183,-0.025913,-0.063773,0.090980,-0.665588,10.184934,0.012771,0.006385,0.014899,34.163086,-11.000391,42.356250
38.310070,0.157192,0.243424,-0.023846,-0.067552,0.134075,-0.617704,10.275914,0.015963,0.006385,0.015963,34.688672,-11.175000,43.537500
38.412503,0.032393,0.248273,-0.029257,-0.063772,0.148441,-0.656011,10.261548,0.015963,0.006385,0.012771,34.688672,-11.175000,43.537500
38.514248,-0.207471,0.242560,-0.018960,-0.062428,0.062249,-0.593762,10.160992,0.015963,0.006385,0.010642,34.688672,-11.175000,43.537500
38.615951,0.291229,0.245210,-0.028185,-0.065210,0.148441,-0.603339,10.223241,0.014899,0.005321,0.012771,34.688672,-11.175000,43.537500
38.717708,-0.279486,0.249690,-0.024454,-0.069131,0.086191,-0.684742,10.232818,0.014899,0.007450,0.013835,35.564648,-11.698828,44.043750
38.819524,-0.191791,0.264841,-0.025155,-0.063661,0.110133,-0.651223,10.285490,0.017028,0.009578,0.011706,34.513477,-12.048047,44.381250
38.921607,0.248930,0.253214,-0.027328,-0.064720,0.129287,-0.656011,10.170569,0.013835,0.005321,0.013835,34.863867,-11.698828,44.381250
39.023520,0.269762,0.266140,-0.028318,-0.063983,0.129287,-0.718260,10.050859,0.014899,0.007450,0.011706,35.389453,-12.222656,42.862500
39.125474,-0.249011,0.254547,-0.031318,-0.070545,0.138864,-0.660800,10.113108,0.013835,0.006385,0.015963,34.863867,-11.698828,44.718750
39.227621,0.075251,0.258370,-0.025036,-0.069679,0.067038,-0.694318,10.127473,0.012771,0.007450,0.012771,33.987891,-11.873437,44.550000
39.329066,0.031760,0.224744,-0.016826,-0.043581,0.047884,-0.569820,10.199299,0.014899,0.005321,0.011706,35.214258,-10.651172,46.406250
39.430528,-0.073867,0.255846,-0.029747,-0.072144,0.119710,-0.627281,10.127473,0.018092,0.009578,0.013835,34.163086,-12.048047,45.056250
39.532153,-0.057599,0.262264,-0.027795,-0.067450,0.124498,-0.636858,10.261548,0.014899,0.006385,0.012771,34.513477,-11.698828,43.706250
39.634973,0.046969,0.191485,-0.029544,-0.045352,0.172383,-0.656011,10.175357,0.014899,0.009578,0.014899,36.791016,-9.428906,44.550000
39.735849,0.142152,0.236967,-0.018010,-0.067452,0.071826,-0.727837,10.295067,0.013835,0.007450,0.014899,34.338281,-11.873437,43.200000
39.838066,-0.545996,0.253129,-0.027146,-0.051379,0.134075,-0.632069,10.170569,0.015963,0.004257,0.018092,35.389453,-11.873437,43.537500
39.939791,-0.252341,0.235462,-0.029656,-0.067404,0.129287,-0.732626,9.993398,0.013835,0.006385,0.018092,35.564648,-10.651172,44.043750
40.041811,0.126994,0.238617,-0.015947,-0.056621,0.038307,-0.660800,10.137050,0.014899,0.005321,0.018092,35.214258,-12.048047,43.706250
40.143003,-0.000769,0.256084,-0.029799,-0.050585,0.162806,-0.617704,10.218453,0.013835,0.007450,0.011706,34.863867,-12.048047,44.381250
40.244595,-0.027000,0.262223,-0.026730,-0.066653,0.153229,-0.708684,10.141838,0.014899,0.009578,0.013835,34.863867,-12.048047,44.381250
40.346924,-0.128160,0.256687,-0.030078,-0.068550,0.138864,-0.684742,10.122685,0.014899,0.007450,0.012771,34.513477,-11.698828,43.368750
40.449113,-0.007393,0.226648,-0.033511,-0.050572,0.201113,-0.641646,10.204087,0.014899,0.006385,0.012771,34.513477,-11.000391,45.393750
40.550849,0.053460,0.293282,-0.030598,-0.066170,0.153229,-0.574608,10.098743,0.015963,0.005321,0.013835,33.111914,-12.746484,44.381250
40.652837,0.249273,0.232455,-0.025689,-0.052780,0.110133,-0.617704,10.242395,0.013835,0.006385,0.010642,35.039062,-11.175000,44.212500
40.755142,0.057864,0.236181,-0.022776,-0.052422,0.095768,-0.660800,10.156203,0.018092,0.009578,0.012771,35.039062,-11.175000,43.875000
40.856438,-0.045669,0.242079,-0.024942,-0.050456,0.090980,-0.651223,10.132261,0.012771,0.003193,0.015963,35.214258,-11.698828,46.068750
40.958533,-0.177180,0.254998,-0.021233,-0.044900,0.086191,-0.593762,10.223241,0.014899,0.006385,0.014899,35.564648,-12.048047,44.718750
41.061111,-0.192822,0.235197,-0.024644,-0.054228,0.119710,-0.627281,10.223241,0.015963,0.005321,0.012771,35.564648,-11.349609,44.043750
41.162032,-0.312570,0.233283,-0.025305,-0.054390,0.110133,-0.651223,10.175357,0.014899,0.003193,0.011706,35.564648,-11.349609,44.043750
41.263565,0.046596,0.234016,-0.031965,-0.051027,0.186748,-0.617704,10.074801,0.012771,0.006385,0.014899,35.564648,-11.349609,44.043750
41.366723,0.020990,0.239943,-0.023784,-0.051574,0.095768,-0.632069,10.328586,0.014899,0.006385,0.014899,35.214258,-11.698828,43.706250
41.468569,0.077845,0.247494,-0.030126,-0.052296,0.076614,-0.699107,10.113108,0.014899,0.004257,0.012771,34.513477,-11.698828,44.718750
41.570094,-0.050073,0.244130,-0.016287,-0.050674,0.028730,-0.622492,10.232818,0.012771,0.007450,0.013835,34.338281,-11.175000,44.212500
41.671817,-0.067497,0.236278,-0.019157,-0.053867,0.047884,-0.622492,10.189722,0.015963,0.006385,0.014899,35.739844,-10.825781,44.887500
41.773583,0.238977,0.220764,-0.025306,-0.071359,0.105345,-0.713472,10.223241,0.013835,0.004257,0.013835,35.739844,-10.825781,44.887500
41.875615,-0.096040,0.244712,-0.028188,-0.061083,0.134075,-0.536301,10.098743,0.012771,0.011706,0.013835,34.513477,-11.000391,44.043750
41.977707,-0.138024,0.240446,-0.028298,-0.046427,0.172383,-0.555455,10.295067,0.012771,0.007450,0.013835,34.688672,-11.175000,43.537500
42.078608,-0.233729,0.243444,-0.040416,-0.045089,0.205901,-0.627281,10.070012,0.011706,0.005321,0.013835,34.863867,-11.349609,44.043750
42.179774,0.177187,0.245926,-0.035303,-0.071376,0.210690,-0.656011,10.098743,0.015963,0.007450,0.014899,34.688672,-11.175000,43.537500
42.281596,0.288573,0.242161,-0.022372,-0.072485,0.100556,-0.665588,10.213664,0.015963,0.006385,0.012771,35.214258,-11.349609,45.393750
42.383720,-0.112237,0.254865,-0.027563,-0.072277,0.105345,-0.703895,10.204087,0.011706,0.006385,0.012771,35.214258,-12.048047,44.718750
42.484919,-0.089620,0.278974,-0.024332,-0.068240,0.033519,-0.689530,10.122685,0.014899,0.004257,0.017028,34.688672,-12.921094,46.237500
42.589376,0.008745,0.234226,-0.018678,-0.054416,0.062249,-0.665588,10.079589,0.015963,0.005321,0.014899,35.039062,-11.175000,45.562500
42.689058,-0.043916,0.257966,-0.022487,-0.066713,0.110133,-0.569820,10.137050,0.014899,0.004257,0.010642,33.637500,-11.175000,43.537500
42.791099,0.088118,0.238518,-0.026370,-0.047287,0.134075,-0.612916,10.232818,0.013835,0.007450,0.010642,35.915039,-11.349609,44.381250
42.892472,-0.196070,0.246044,-0.019572,-0.057138,0.124498,-0.732626,10.093954,0.011706,0.008514,0.013835,34.163086,-11.698828,44.718750
42.993589,-0.082987,0.217171,-0.023539,-0.059551,0.100556,-0.785298,10.103531,0.014899,0.006385,0.015963,36.090234,-11.175000,44.550000
43.095127,0.005137,0.218010,-0.021525,-0.056250,0.086191,-0.612916,10.103531,0.013835,0.006385,0.011706,35.389453,-10.825781,46.237500
43.196337,-0.088987,0.214174,-0.017445,-0.053266,0.043096,-0.646434,10.180145,0.010642,0.006385,0.012771,35.389453,-10.825781,46.237500
43.297958,-0.119818,0.240583,-0.028210,-0.080249,0.095768,-0.699107,10.108319,0.012771,0.006385,0.012771,35.389453,-12.222656,45.562500
43.400151,-0.073393,0.240220,-0.023345,-0.040112,0.090980,-0.617704,10.223241,0.019156,0.005321,0.013835,35.389453,-10.825781,44.887500
43.501962,-0.209292,0.219870,-0.025781,-0.057419,0.124498,-0.593762,10.275914,0.018092,0.007450,0.021284,36.966211,-11.698828,44.043750
43.603722,-0.139018,0.236902,-0.025022,-0.054423,0.086191,-0.612916,10.228029,0.014899,0.009578,0.013835,36.966211,-11.698828,44.043750
43.704848,-0.044821,0.216719,-0.026116,-0.043001,0.153229,-0.550666,10.199299,0.015963,0.005321,0.011706,36.090234,-10.476562,44.212500
43.806342,0.110407,0.244490,-0.030295,-0.042430,0.129287,-0.608127,10.299856,0.015963,0.007450,0.017028,35.564648,-11.698828,45.056250
43.907998,-0.066400,0.229218,-0.032123,-0.053044,0.138864,-0.742203,10.232818,0.013835,0.005321,0.011706,35.039062,-11.175000,45.225000
44.009116,-0.039103,0.225535,-0.031219,-0.054812,0.172383,-0.713472,10.160992,0.014899,0.006385,0.015963,35.039062,-10.825781,44.550000
44.110847,-0.099379,0.241998,-0.017855,-0.079745,0.047884,-0.804452,10.113108,0.013835,0.013835,0.015963,34.688672,-11.524219,44.550000
44.212400,-0.023888,0.226393,-0.037320,-0.076695,0.210690,-0.775721,10.050859,0.017028,0.040441,0.015963,34.513477,-11.000391,43.706250
44.313633,0.030221,0.239011,-0.011924,-0.065599,0.057461,-0.675165,10.189722,0.018092,0.019156,0.015963,35.739844,-11.873437,45.225000
44.415014,-0.102949,0.243034,-0.007368,-0.066401,-0.095768,-0.646434,10.079589,0.019156,0.000000,0.019156,35.739844,-11.873437,45.225000
44.516190,-0.487344,0.250625,-0.029156,-0.060527,0.071826,-0.579397,10.280702,0.015963,-0.008514,0.006385,35.739844,-11.873437,45.225000
44.617792,-0.202853,0.251073,-0.027567,-0.079308,0.086191,-1.034295,10.146627,0.023413,0.029798,0.039376,35.739844,-11.873437,45.225000
44.719328,-0.209532,0.262495,-0.002365,-0.045880,-0.301669,-0.430956,10.266337,0.062789,0.270313,0.084074,35.739844,-11.873437,45.225000
44.820866,0.039655,0.231880,-0.031239,-0.050672,0.124498,-0.588974,10.266337,0.040441,0.117065,0.018092,35.389453,-10.476562,44.887500
44.922556,0.095762,0.214207,-0.020784,-0.042452,0.110133,-0.507571,10.414777,0.021284,-0.030863,0.019156,35.214258,-10.301953,46.068750
45.024024,-0.327462,0.176873,-0.026337,-0.034313,0.727837,-0.081403,10.342951,0.010642,-0.053211,0.046826,37.316602,-8.905078,45.731250
45.125156,-0.102242,0.158652,0.021414,-0.023098,-0.067038,1.699883,10.927136,0.196881,-0.148991,-0.046826,35.389453,-8.730469,45.562500
45.226583,-0.118908,0.166681,-0.026302,-0.056021,0.450110,-0.339977,11.003751,0.010642,-0.101101,0.015963,35.214258,-9.254297,46.406250
45.327983,-0.199894,0.181509,0.030942,-0.066337,-0.483629,-0.536301,10.065224,-0.024477,-0.120257,0.042569,35.214258,-9.254297,46.406250
45.429310,-0.307741,0.162984,-0.031019,-0.066581,0.268151,-0.794875,10.122685,0.013835,0.011706,0.000000,35.214258,-9.254297,48.093750
45.530728,0.034576,0.192244,0.000915,-0.080671,-0.220267,-0.723049,10.050859,-0.006385,-0.061725,0.015963,35.915039,-10.301953,46.406250
45.632033,-0.016096,0.138293,-0.020199,-0.065712,0.268151,-0.746991,10.304644,0.004257,0.003193,0.000000,36.440625,-8.032031,45.900000
45.733352,-0.326033,0.161211,-0.007808,-0.057589,-0.134075,-0.541090,10.290279,0.045762,0.098973,-0.005321,37.491797,-9.079687,45.225000
45.834981,0.159173,0.180960,-0.010567,-0.069505,0.713472,-0.775721,10.563218,0.001064,-0.044697,0.012771,37.491797,-10.127344,46.237500
45.936466,-0.058832,0.153177,0.039504,-0.048357,-0.474052,-0.440533,10.002975,-0.027670,-0.171340,0.020220,36.440625,-8.381250,47.587500
46.038346,-0.367502,0.172710,-0.016606,-0.072511,0.076614,-0.660800,10.127473,-0.012771,-0.097909,0.022349,36.265430,-9.952734,46.406250
