Time, Altitude, Yaw, Pitch, Roll, Ax, Ay, Az, Pitch_rate, Roll_rate,Yaw_rate, Magx, Magy, Magz0.758275,0.396551,-0.174201,0.033487,0.027554,-1.067814,-0.090980,9.634267,0.013835,0.028734,0.007450,30.916992,83.731641,11.197266
0.858275,0.327855,-0.365253,0.055415,0.058809,-1.134852,-0.134075,9.691728,0.015963,0.029798,0.007450,30.916992,83.731641,11.197266
0.958328,0.305342,-0.549263,0.065028,0.087629,-1.043872,0.028730,9.662998,0.017028,0.026606,0.008514,31.274414,83.373047,11.197266
1.059272,0.309673,-0.724564,0.065816,0.113391,-1.106121,-0.225055,9.686940,0.021284,0.026606,0.005321,30.559570,83.014453,12.919922
1.161077,0.321278,-0.891353,0.060624,0.125316,-1.149217,-0.114922,9.710882,0.015963,0.026606,0.009578,30.916992,81.938672,11.197266
1.262642,0.027695,-1.049358,0.053520,0.123578,-1.072602,-0.119710,9.619902,0.017028,0.028734,0.007450,31.989258,83.014453,10.163672
1.364032,0.162631,-1.194730,0.048446,0.099296,-1.034295,-0.086191,9.658209,0.019156,0.034055,0.010642,32.346680,84.807422,12.230859
1.466043,0.076842,-1.195958,0.047451,0.091735,-1.077391,-0.134075,9.624691,0.017028,0.028734,0.006385,31.810547,83.552344,11.714063
1.568327,0.198504,-1.207266,0.056629,0.112720,-1.096544,-0.114922,9.653421,0.019156,0.030863,0.010642,31.810547,83.552344,11.714063
1.670206,-0.197816,-1.206820,0.051921,0.086429,-1.048660,-0.110133,9.648633,0.014899,0.031927,0.005321,31.095703,83.193750,10.680469
1.771103,-0.220910,-1.208670,0.040105,0.093363,-1.048660,-0.095768,9.720459,0.015963,0.028734,0.007450,30.202148,82.655859,12.575391
1.872715,-0.237533,-1.191218,0.059660,0.099615,-1.115698,-0.148441,9.567230,0.017028,0.031927,0.006385,31.989258,82.297266,11.541797
1.974231,0.031411,-1.218237,0.053670,0.097320,-1.063026,-0.162806,9.648633,0.020220,0.026606,0.004257,29.844727,83.731641,12.575391
2.075735,0.141769,-1.215368,0.052294,0.097055,-1.134852,-0.143652,9.600749,0.017028,0.031927,0.006385,29.844727,83.731641,12.575391
2.177558,-0.182387,-1.227697,0.070689,0.100408,-1.082179,-0.210690,9.600749,0.021284,0.027670,0.006385,29.844727,83.731641,12.575391
2.279026,-0.311309,-1.220501,0.060424,0.095943,-1.048660,-0.105345,9.600749,0.018092,0.028734,0.007450,29.844727,83.731641,12.575391
2.381170,-0.017375,-1.206866,0.053570,0.107650,-1.154005,-0.114922,9.548076,0.021284,0.031927,0.008514,31.453125,83.193750,12.403125
2.482687,0.092345,-1.199652,0.054301,0.097306,-1.058237,-0.148441,9.552865,0.018092,0.026606,0.008514,31.453125,83.193750,12.403125
2.584431,-0.347943,-1.202151,0.054942,0.099990,-1.115698,-0.129287,9.648633,0.015963,0.027670,0.005321,31.274414,83.014453,10.508203
2.686204,-0.153106,-1.194872,0.039890,0.099219,-1.086968,-0.105345,9.773131,0.015963,0.027670,0.005321,31.810547,81.759375,9.991406
2.788338,0.037886,-1.212697,0.040375,0.108850,-1.077391,-0.095768,9.715670,0.017028,0.029798,0.006385,30.916992,84.090234,10.852734
2.889850,0.002767,-1.213737,0.056856,0.107602,-1.163582,-0.114922,9.672575,0.021284,0.029798,0.010642,30.380859,83.552344,11.714063
2.991447,-0.336559,-1.201986,0.049426,0.123610,-1.221043,-0.071826,9.706094,0.019156,0.028734,0.006385,31.095703,83.910938,12.403125
3.092890,-0.000343,-1.200456,0.064479,0.106295,-1.067814,-0.162806,9.500192,0.019156,0.029798,0.005321,31.274414,81.580078,12.230859
3.194113,-0.285660,-1.210859,0.065626,0.090757,-1.115698,-0.210690,9.792285,0.018092,0.029798,0.006385,31.274414,85.166016,11.541797
3.295597,-0.242844,-1.194449,0.062574,0.089844,-1.086968,-0.186748,9.686940,0.020220,0.029798,0.005321,31.095703,81.759375,11.714063
3.396959,-0.134597,-1.200839,0.061850,0.093787,-1.086968,-0.167594,9.591172,0.021284,0.025541,0.008514,31.810547,83.910938,11.714063
3.499164,-0.402339,-1.194596,0.058918,0.098597,-1.101333,-0.134075,9.557653,0.019156,0.032991,0.007450,31.810547,82.835156,11.369531
3.600792,-0.162214,-1.210739,0.039025,0.097258,-1.077391,-0.090980,9.648633,0.021284,0.023413,0.009578,30.916992,83.731641,10.852734
3.703047,-0.523634,-1.204436,0.047773,0.097182,-1.139640,-0.134075,9.610325,0.017028,0.029798,0.006385,31.274414,84.090234,10.852734
3.804542,-0.162181,-1.198942,0.046914,0.098430,-1.043872,-0.095768,9.476250,0.015963,0.031927,0.002128,30.738281,80.683594,12.058594
3.906407,-0.410774,-1.196374,0.046782,0.101049,-1.063026,-0.062249,9.706094,0.018092,0.031927,0.006385,30.738281,80.683594,12.058594
4.008630,-0.248520,-1.199593,0.054259,0.098385,-1.077391,-0.067038,9.686940,0.015963,0.027670,0.007450,30.738281,80.683594,12.058594
4.110190,-0.603556,-1.200818,0.055670,0.106184,-1.106121,-0.153229,9.691728,0.015963,0.030863,0.011706,30.738281,80.683594,12.058594
4.211646,-0.620325,-1.199015,0.050702,0.111075,-1.134852,-0.052672,9.610325,0.022349,0.028734,0.007450,30.738281,80.683594,12.058594
4.313001,-0.653102,-1.205074,0.048324,0.088579,-1.063026,-0.138864,9.634267,0.015963,0.030863,0.007450,30.738281,81.400781,12.058594
4.414108,-0.634473,-1.198866,0.052478,0.098459,-1.039084,-0.124498,9.629479,0.018092,0.029798,0.007450,30.738281,81.400781,12.058594
4.516184,-0.399997,-1.198459,0.045183,0.099765,-1.149217,-0.095768,9.610325,0.015963,0.028734,0.006385,31.989258,83.373047,11.541797
4.618069,-0.561864,-1.199581,0.052461,0.090699,-1.019930,-0.138864,9.682152,0.015963,0.029798,0.009578,31.095703,82.117969,12.058594
4.720117,-0.305801,-1.200126,0.046074,0.115336,-1.225831,0.047884,10.170569,0.013835,0.002128,0.007450,31.631836,84.090234,12.230859
4.821682,-0.423314,-1.209523,0.035335,0.085753,-0.521936,-0.086191,9.332598,0.027670,-0.015963,-0.255414,30.916992,83.731641,12.575391
4.924012,-0.593390,-1.208984,-0.005668,0.066057,-0.316035,1.110910,9.552865,-0.028734,-0.105358,-0.194753,30.380859,82.117969,13.092187
5.025978,-0.711799,-1.203622,0.017817,0.036869,0.076614,-0.708684,9.356540,-0.207524,-0.213909,-0.446974,31.989258,82.297266,12.919922
5.129078,-0.706181,-1.228081,0.047833,-0.061986,0.584185,-0.751779,9.255984,0.041505,-0.459745,-0.172404,30.202148,83.014453,15.331641
5.232004,-0.457373,-1.232970,0.032602,-0.118197,1.077391,-0.081403,9.198523,-0.004257,-0.416112,0.267120,30.023438,81.042187,17.915625
5.332495,-0.422029,-1.203417,-0.087328,0.024346,-0.095768,1.331176,8.944737,0.297983,0.317139,-0.068110,30.202148,75.842578,22.566797
5.434105,-0.505673,-1.211704,-0.068448,-0.007454,0.588974,0.502782,9.193734,-0.029798,1.089766,-0.408662,29.308594,77.097656,24.806250
5.535655,-0.541884,-1.256640,-0.029867,-0.030653,0.052672,0.071826,9.691728,0.045762,0.074496,-0.043633,28.772461,82.655859,24.633984
5.637797,-0.577451,-1.239076,-0.046246,0.041962,-0.651223,0.981623,10.117896,0.032991,0.069175,-0.040441,28.593750,82.476562,24.117188
5.740019,-0.889443,-1.233563,-0.011925,0.011697,-0.047884,0.148441,9.768343,-0.001064,0.054275,0.058532,28.593750,82.476562,24.117188
5.841615,-0.508560,-1.232480,-0.024627,-0.002500,0.105345,0.215478,9.720459,0.000000,0.069175,0.619379,28.593750,82.476562,24.117188
5.943482,-0.581907,-1.221849,0.015400,0.034118,-0.263362,-0.177171,9.423578,0.040441,0.020220,0.044697,28.593750,82.476562,24.117188
6.044762,-0.844383,-1.246286,-0.009192,0.006986,-0.124498,0.158017,9.710882,-0.001064,0.027670,0.020220,26.806641,82.476562,22.739062
6.146972,-0.526995,-1.243854,-0.035630,0.017931,-0.067038,0.316035,9.715670,-0.007450,0.042569,0.038312,27.521484,82.476562,22.739062
6.248481,-0.736526,-1.249004,-0.004814,0.013926,-0.071826,0.095768,9.600749,0.008514,0.042569,0.002128,27.521484,82.476562,22.739062
6.349917,-0.443411,-1.242361,-0.004606,0.013490,-0.114922,0.191536,9.691728,0.011706,0.028734,0.035119,27.521484,82.476562,22.050000
6.452237,-0.586298,-1.241969,-0.013820,0.030842,-0.138864,0.234632,9.715670,0.015963,0.029798,0.011706,27.521484,82.476562,22.050000
6.553932,-0.761925,-1.253511,-0.004103,0.003990,-0.004788,-0.004788,9.763554,-0.004257,0.044697,0.055340,26.449219,82.117969,24.806250
6.655393,-0.619720,-1.240829,-0.013589,0.024100,-0.177171,0.191536,9.648633,0.013835,0.032991,0.011706,27.521484,82.117969,24.117188
6.757163,-0.851823,-1.242494,-0.018258,0.029861,-0.143652,0.239420,9.744401,-0.013835,0.034055,-0.014899,27.521484,82.476562,24.117188
6.858930,-0.663532,-1.237980,-0.005219,0.026254,-0.177171,0.138864,9.600749,0.027670,0.029798,0.077688,28.236328,82.835156,24.117188
6.960423,-0.560933,-1.253283,-0.016688,0.005432,-0.076614,0.191536,9.610325,0.019156,0.031927,0.006385,26.627930,83.731641,23.944922
7.061421,-0.668759,-1.244012,0.000612,0.019137,-0.129287,0.114922,9.572018,0.017028,0.030863,0.020220,28.057617,83.373047,22.911328
7.163368,-0.405409,-1.241665,-0.010221,0.017856,-0.114922,0.124498,9.586383,0.019156,0.031927,0.010642,27.521484,82.835156,22.394531
7.265534,-0.745186,-1.251324,-0.015654,0.026763,-0.205901,0.215478,9.768343,0.018092,0.031927,0.030863,26.985352,82.655859,22.911328
7.367800,-1.002490,-1.243254,-0.011340,0.010113,-0.071826,0.153229,9.864111,0.020220,0.001064,0.200074,27.878906,82.476562,23.772656
7.469352,-0.493967,-1.270143,-0.020689,0.043175,-0.296881,0.320823,9.595960,0.004257,0.011706,0.336295,24.840820,82.297266,22.911328
7.571220,-0.732967,-1.263840,-0.006147,0.013208,-0.134075,0.196325,9.639056,0.009578,0.015963,0.006385,25.555664,83.373047,23.944922
7.673200,-0.772574,-1.259376,-0.021982,0.010296,-0.028730,0.067038,9.730036,0.019156,0.024477,-0.021284,26.449219,82.117969,23.772656
7.774976,-0.427547,-1.246508,-0.028888,0.004850,0.052672,0.287304,9.902418,-0.002128,0.025541,0.002128,27.700195,83.373047,22.566797
7.876651,-0.952397,-1.254956,-0.014000,0.033722,-0.225055,0.201113,10.026917,0.025541,-0.008514,-0.259671,26.270508,82.655859,23.255859
7.978351,-0.729214,-1.252408,-0.017229,-0.000999,0.119710,0.067038,9.897630,0.022349,-0.002128,-0.382057,27.342773,82.297266,21.877734
8.080153,-0.610964,-1.256446,-0.000609,0.016233,-0.143652,-0.124498,9.509769,0.012771,-0.001064,-0.502314,27.342773,82.297266,21.877734
8.182181,-0.924368,-1.248889,-0.027952,-0.001007,0.205901,0.339977,10.184934,0.039376,0.047890,-0.038312,27.342773,82.297266,21.877734
8.283849,-0.618661,-1.234282,-0.040619,0.027439,-0.019154,0.411803,9.356540,0.032991,0.020220,-0.216038,29.844727,83.014453,22.222266
8.385774,-0.601631,-1.225992,-0.014942,-0.003277,1.015142,0.354342,10.175357,0.030863,0.004257,-0.263928,29.844727,83.014453,22.222266
8.487331,-0.776551,-1.193445,-0.041066,0.045493,-0.306458,0.608127,9.227253,0.020220,0.034055,0.457616,30.202148,81.221484,22.222266
8.589134,-0.840116,-1.238274,-0.014375,0.015483,-0.033519,0.186748,9.619902,0.019156,0.026606,0.010642,28.057617,83.373047,22.566797
8.691826,-0.531102,-1.236389,-0.017671,0.014166,-0.114922,0.215478,9.624691,0.015963,0.030863,0.011706,27.878906,82.476562,23.428125
8.793409,-0.553487,-1.230009,-0.019767,0.019957,-0.086191,0.239420,9.835380,0.018092,0.027670,0.011706,29.487305,83.373047,22.222266
8.895262,-0.216606,-1.222830,-0.018063,0.018971,-0.023942,0.191536,9.696517,0.020220,0.028734,0.006385,30.559570,83.014453,22.911328
8.997504,-0.908846,-1.212560,-0.018607,0.030577,-0.143652,0.225055,9.605537,0.019156,0.028734,0.008514,30.380859,81.400781,22.739062
9.098970,-0.608656,-1.227869,-0.021733,0.018996,-0.129287,0.239420,9.701305,0.019156,0.031927,0.008514,28.772461,82.297266,22.911328
9.200895,-0.727354,-1.212832,-0.004969,0.015717,-0.090980,0.167594,9.634267,0.018092,0.029798,0.006385,30.916992,83.373047,22.911328
9.302662,-0.636206,-1.232807,-0.029055,0.014938,0.114922,0.339977,10.711658,0.045762,0.372478,-0.037248,28.951172,83.552344,23.083594
9.404794,-0.254446,-1.237068,-0.012257,0.008715,0.090980,0.153229,9.054871,0.004257,-0.121322,0.003193,28.236328,83.552344,22.394531
9.506507,-0.620168,-1.213426,-0.005396,0.017158,-0.071826,0.119710,9.648633,0.020220,0.041505,0.005321,30.738281,82.117969,23.428125
9.608405,-0.413175,-1.232950,-0.023081,0.020905,-0.071826,0.225055,9.548076,0.018092,0.028734,0.009578,29.308594,82.117969,23.083594
9.710687,-0.744737,-1.220479,-0.010014,0.010492,-0.062249,0.114922,9.576807,0.014899,0.030863,0.010642,29.844727,83.373047,22.911328
9.812766,-0.638867,-1.226752,-0.037037,0.016846,-0.086191,0.316035,9.581595,0.015963,0.030863,0.005321,29.129883,83.373047,21.533203
9.914635,-0.488992,-1.236442,-0.002298,0.004740,-0.196325,-0.445322,8.571242,-0.019156,0.092588,0.102166,28.236328,82.476562,22.394531
10.016479,-0.520899,-1.254027,-0.136929,-0.008903,0.699107,1.541866,11.109096,-0.001064,0.021284,-0.873728,28.236328,82.476562,22.394531
10.118632,-0.577257,-1.296624,-0.053911,0.043317,1.273715,-1.426944,8.049306,0.001064,0.068110,-0.933325,28.236328,82.476562,22.394531
10.220820,-0.418048,-1.310987,0.014768,0.029294,-0.320823,-0.258574,9.979033,0.025541,0.025541,-0.819453,28.236328,82.476562,22.394531
10.322781,-0.395052,-1.229713,0.024713,0.040456,0.076614,0.459687,9.926360,0.038312,0.059597,0.072367,28.236328,82.476562,22.394531
10.424068,-0.574624,-1.205215,-0.020820,0.021977,-0.167594,0.129287,9.739612,0.022349,0.034055,-0.489543,30.916992,81.221484,24.633984
10.526494,-0.248290,-1.224249,-0.063485,-0.043624,0.632069,0.593762,10.381258,-0.001064,-0.026606,-0.158569,30.380859,79.966406,23.428125
10.627813,-0.632997,-1.180190,-0.012912,0.014172,-0.277727,0.014365,10.630255,0.020220,0.008514,0.214973,31.810547,77.814844,24.117188
10.729882,-0.643741,-1.171147,0.014255,0.082692,-0.967257,0.316035,9.911995,0.024477,0.034055,0.145799,31.631836,79.069922,24.633984
10.831969,-0.500510,-1.206244,-0.002521,0.021367,-0.148441,0.100556,9.600749,0.014899,0.025541,-0.108551,30.559570,80.504297,25.667578
10.933810,-0.302428,-1.197829,0.060631,0.008913,-1.350330,-1.326388,5.257667,-0.044697,0.286276,0.450167,29.844727,78.711328,26.012109
11.035836,-0.267662,-1.215530,-0.017225,0.013887,-0.076614,0.143652,9.634267,0.011706,0.025541,0.009578,29.308594,79.607812,26.528906
11.137715,-0.551118,-1.214277,0.018614,0.028690,-0.316035,-0.105345,8.317457,0.002128,0.065982,0.006385,29.129883,79.428516,24.633984
11.239224,-0.329850,-1.197633,-0.006313,0.017936,-0.110133,0.100556,9.797073,0.001064,-0.002128,-0.153248,30.380859,79.966406,25.150781
11.341560,-0.510895,-1.202862,-0.012475,0.008425,-0.158017,0.258574,9.524134,0.010642,0.044697,-0.015963,31.274414,79.787109,27.045703
11.443424,-0.598516,-1.182434,-0.022263,0.051450,-0.354342,0.349553,9.653421,0.006385,0.019156,-0.012771,31.631836,79.787109,24.978516
11.544832,-0.592231,-1.171849,-0.015462,0.021587,-0.134075,0.186748,9.634267,0.028734,0.031927,0.006385,32.167969,80.325000,24.806250
11.646141,-0.335300,-1.201332,-0.018728,0.002533,-0.043096,0.177171,9.662998,0.009578,0.014899,0.022349,30.559570,80.504297,23.944922
11.748419,-0.548681,-1.178037,-0.011068,0.011254,-0.095768,0.167594,9.768343,0.017028,0.030863,0.006385,31.989258,79.428516,26.012109
11.850219,-0.557533,-1.190032,-0.006404,0.020039,-0.071826,0.158017,9.629479,0.017028,0.029798,0.010642,29.844727,79.428516,27.390234
11.952465,-0.380105,-1.205766,-0.013545,0.012606,-0.052672,0.138864,9.715670,0.021284,0.040441,0.008514,29.844727,79.428516,27.390234
12.054608,-0.557336,-1.185184,0.000407,0.010122,-0.100556,0.009577,9.830592,0.030863,0.057468,0.073431,31.810547,79.249219,25.495313
12.156078,-0.315763,-1.185162,-0.020824,0.037859,-0.248997,0.469264,9.758766,0.031927,0.148991,0.131964,31.453125,80.683594,25.839844
12.257507,-0.006308,-1.195291,-0.007315,0.064263,-0.521936,0.277727,9.514557,0.023413,0.329910,0.019156,29.308594,78.890625,25.150781
12.360386,-0.424098,-1.185594,0.017171,0.087843,-0.785298,0.095768,9.528923,-0.005321,0.093652,0.025541,30.738281,81.400781,24.461719
12.461783,-0.308664,-1.209013,0.015114,0.097149,-0.928950,0.205901,9.509769,0.007450,0.070239,0.002128,29.666016,83.193750,22.050000
12.563117,-0.276426,-1.181052,0.030582,0.092202,-0.938527,0.047884,9.730036,0.009578,0.073431,0.003193,31.095703,81.400781,22.739062
12.664154,-0.408891,-1.191745,0.023243,0.117721,-1.063026,0.191536,9.543288,0.014899,0.106422,0.007450,30.916992,83.014453,23.600391
12.766534,-0.468773,-1.207370,0.024798,0.113156,-1.058237,0.167594,9.572018,0.013835,0.193689,-0.002128,29.666016,84.269531,21.360938
12.868064,-0.022966,-1.195933,0.031103,0.152467,-1.412579,0.205901,9.471462,0.018092,0.117065,-0.010642,30.023438,83.552344,23.428125
12.969444,-0.496101,-1.179369,0.044240,0.147886,-1.508347,0.292093,9.481039,0.030863,0.088331,-0.001064,31.274414,82.655859,22.222266
13.071219,-0.352057,-1.197600,0.043724,0.145208,-1.484405,0.191536,9.753978,0.018092,0.069175,0.006385,29.487305,85.166016,22.222266
13.172981,-0.167236,-1.200331,0.032217,0.164947,-1.565808,0.205901,9.528923,0.005321,0.027670,0.006385,29.129883,84.807422,21.188672
13.275522,-0.238627,-1.210774,0.036673,0.163038,-1.479617,0.272939,9.548076,0.018092,0.025541,0.011706,29.666016,85.703906,21.705469
13.376055,-0.252385,-1.208997,0.035074,0.152273,-1.503559,0.205901,9.567230,0.007450,0.052147,0.007450,29.666016,85.703906,21.705469
13.477372,-0.150022,-1.207187,0.046539,0.156607,-1.551443,0.134075,9.466673,0.005321,0.059597,0.001064,29.666016,85.703906,21.705469
13.579116,0.197133,-1.206681,0.042089,0.158723,-1.541866,0.205901,9.390059,0.011706,0.044697,0.018092,29.666016,85.703906,21.705469
13.681824,-0.050960,-1.202240,0.047288,0.144763,-1.546654,0.114922,9.538499,0.004257,0.068110,0.028734,29.666016,85.703906,21.705469
13.783584,0.076339,-1.183046,0.048700,0.149229,-1.532289,0.110133,9.533711,0.036184,0.023413,0.007450,30.738281,83.910938,21.360938
13.885050,-0.028052,-1.198135,0.046815,0.160291,-1.556231,0.129287,9.514557,0.007450,0.052147,0.017028,30.202148,85.883203,21.188672
13.987716,-0.215053,-1.200585,0.051076,0.191958,-1.843535,0.191536,9.275137,-0.017028,0.142606,0.076624,30.202148,85.883203,21.188672
14.089264,-0.287373,-1.197879,0.062600,0.218771,-2.240973,0.172383,9.749189,0.091523,0.448038,0.006385,30.023438,85.345312,20.327344
14.190687,-0.154735,-1.198823,0.079181,0.280876,-2.868254,0.234632,9.615114,0.030863,0.484222,-0.031927,30.380859,86.779687,18.949219
14.292680,-0.194632,-1.227082,0.081079,0.312387,-3.069367,0.167594,9.179369,0.014899,0.527855,-0.124514,28.772461,86.600391,15.331641
14.394201,0.322033,-1.240195,0.107350,0.370471,-3.533842,0.191536,8.772355,-0.006385,0.435268,0.021284,30.023438,89.648438,12.403125
14.495868,-0.150755,-1.276483,0.137517,0.413165,-4.027047,0.000000,8.714894,0.128771,0.535305,0.026606,28.772461,90.544922,10.163672
14.597310,0.070441,-1.277866,0.103949,0.489444,-4.548983,0.407014,8.408436,0.004257,0.482094,0.032991,28.236328,90.724219,8.613281
14.698491,-0.179461,-1.293748,0.136570,0.512222,-4.855441,0.153229,8.365341,-0.013835,0.257542,0.036184,29.129883,89.827734,6.718359
14.800486,-0.259375,-1.288723,0.111275,0.524181,-4.644751,0.440533,7.905654,-0.008514,0.180918,0.056404,28.772461,90.903516,6.718359
14.902107,0.012724,-1.341810,0.139148,0.545892,-5.238513,-0.057461,8.355764,-0.078753,0.244772,0.062789,26.985352,92.337891,4.651172
15.003418,-0.028678,-1.352290,0.127466,0.592382,-5.851429,0.114922,8.331822,0.010642,0.581066,0.037248,26.270508,91.979297,3.962109
15.104760,-0.059909,-1.400906,0.116622,0.680588,-6.253655,0.023942,7.292738,-0.186239,0.873728,-0.070239,26.627930,92.696484,-1.894922
15.206233,-0.033668,-1.472164,0.147023,0.750366,-6.636727,-0.430956,7.043741,-0.244772,0.870535,-0.046826,26.270508,92.696484,-4.651172
15.307893,0.065622,-1.527062,0.129931,0.839413,-7.618350,-0.713472,6.540959,-0.214973,1.017398,0.078753,25.376953,93.234375,-6.546094
15.409524,0.145771,-1.558386,0.075525,0.938337,-8.130709,-0.598550,5.597643,-0.176661,0.819453,0.100037,25.734375,91.800000,-12.058594
15.510707,0.150944,-1.621206,0.023320,1.041429,-8.350975,-0.603339,4.750096,-0.074496,0.764113,0.013835,22.696289,89.110547,-16.020703
15.612359,-0.022527,-1.647453,-0.039266,1.126528,-8.370129,-0.584185,4.108450,0.057468,0.721544,-0.045762,22.696289,89.110547,-16.020703
15.713364,0.301155,-1.629155,-0.081066,1.227254,-9.006987,-0.349553,3.126827,0.042569,0.216038,0.059597,22.160156,90.724219,-16.882031
15.814993,0.085763,-1.681964,-0.091040,1.209862,-9.030929,-0.656011,3.471592,0.057468,0.195817,0.126643,20.730469,88.214062,-19.982813
15.916559,0.201648,-1.619743,-0.133253,1.243440,-9.251195,-0.095768,3.098097,0.054275,0.220294,0.116000,22.875000,86.779687,-20.327344
16.018124,0.097453,-1.626724,-0.136541,1.277606,-9.361328,-0.110133,2.662352,0.030863,0.104294,-0.065982,22.875000,86.779687,-20.327344
16.119454,0.209568,-1.615938,-0.149491,1.311294,-9.385271,-0.057461,2.456451,0.110679,0.229872,0.014899,22.875000,86.779687,-20.327344
16.221207,-0.103856,-1.646257,-0.149045,1.304944,-9.557653,-0.383072,2.748544,0.006385,0.256478,0.081945,22.875000,86.779687,-20.327344
16.322356,0.103449,-1.642825,-0.199327,1.343896,-9.548076,-0.373495,2.279280,0.044697,0.200074,0.053211,22.160156,87.855469,-23.428125
16.423579,0.264820,-1.626541,-0.191655,1.343153,-9.332598,-0.172383,2.193089,0.101101,0.134092,0.046826,21.624023,86.241797,-22.222266
16.525134,0.237213,-1.610975,-0.214109,1.371441,-9.476250,0.057461,1.857900,-0.004257,0.201138,0.134092,22.696289,85.524609,-23.600391
16.627021,0.067373,-1.569791,-0.240346,1.410884,-9.672575,0.555455,1.335965,0.067046,0.175597,0.043633,21.624023,85.883203,-24.633984
16.728651,-0.209422,-1.560508,-0.234328,1.428852,-9.787496,0.426168,1.331176,0.187303,0.163891,0.146863,21.087891,85.703906,-23.083594
16.830087,0.120125,-1.591171,-0.242045,1.408407,-10.189722,-0.119710,1.699883,0.012771,0.141542,0.007450,23.411133,85.524609,-25.323047
16.931790,-0.154538,-1.548642,-0.259652,1.397108,-9.883264,0.651223,1.637634,-0.055340,0.105358,0.052147,22.160156,84.628125,-25.839844
17.033769,-0.057243,-1.564856,-0.241859,1.413284,-9.662998,0.335188,1.556231,-0.025541,0.108551,0.059597,22.517578,85.703906,-24.461719
17.135331,-0.021495,-1.555295,-0.239116,1.413950,-9.730036,0.306458,1.575385,0.021284,0.074496,0.019156,21.624023,85.524609,-23.944922
17.236779,0.125034,-1.543032,-0.252790,1.434981,-9.634267,0.497994,1.235408,0.013835,0.162826,0.067046,21.624023,85.524609,-24.978516
17.339771,-0.247944,-1.518134,-0.273716,1.459999,-9.624691,1.053449,0.833182,-0.036184,0.363965,0.272441,20.551758,84.448828,-25.323047
17.441052,-0.098970,-1.455255,-0.272384,1.527787,-9.792285,1.259350,0.450110,-0.030863,0.023413,-0.032991,21.087891,84.628125,-24.806250
17.542485,-0.096534,-1.494596,-0.281592,1.506593,-9.840169,0.905008,0.579397,0.056404,0.095780,-0.040441,22.160156,84.628125,-26.184375
17.644309,-0.042450,-1.459793,-0.287007,1.538674,-9.548076,1.268927,0.143652,0.000000,0.080881,0.022349,21.266602,84.090234,-25.323047
17.747194,-0.176738,-1.476822,-0.289584,1.518316,-9.677363,1.101333,0.574608,0.060661,0.061725,0.020220,21.445312,83.193750,-26.528906
17.849417,-0.514990,-1.493343,-0.290829,1.519920,-9.835380,0.924162,0.565032,0.027670,0.039376,0.010642,21.445312,83.193750,-26.528906
17.950522,0.014332,-1.505044,-0.268745,1.507410,-9.744401,0.857124,0.636858,0.010642,0.009578,-0.031927,21.802734,84.269531,-24.806250
18.052469,-0.314650,-1.478349,-0.277370,1.526811,-9.801862,1.000776,0.330400,0.011706,0.025541,0.001064,22.517578,82.835156,-24.806250
18.154743,-0.011607,-1.470331,-0.289462,1.528647,-9.739612,1.086968,0.397437,0.036184,0.014899,-0.018092,20.730469,82.476562,-25.495313
18.256280,-0.164634,-1.483184,-0.277544,1.507707,-9.629479,0.967257,0.536301,0.028734,0.038312,0.014899,19.658203,83.910938,-24.806250
18.358502,0.135754,-1.500427,-0.292588,1.503902,-9.835380,0.861913,0.732626,0.064918,0.011706,-0.013835,21.624023,84.090234,-26.701172
18.460769,0.068786,-1.490195,-0.279259,1.500451,-9.777920,1.053449,0.761356,0.006385,0.034055,0.009578,21.266602,85.524609,-25.667578
18.562900,-0.054740,-1.499769,-0.261142,1.498330,-9.739612,0.938527,0.593762,0.012771,0.024477,0.001064,21.802734,84.269531,-23.083594
18.664297,-0.437350,-1.475139,-0.255739,1.520970,-9.749189,1.101333,0.603339,0.038312,0.011706,-0.013835,21.802734,84.269531,-23.083594
18.767328,-0.310243,-1.478215,-0.260136,1.559586,-9.811438,0.972046,0.181959,0.047890,0.162826,-0.062789,21.802734,84.269531,-23.083594
18.869174,0.150687,-1.473370,-0.261885,1.560411,-9.696517,0.938527,0.100556,-0.022349,0.074496,0.035119,21.802734,84.269531,-23.083594
18.970526,-0.277674,-1.479684,-0.293213,1.550781,-9.773131,0.909797,0.162806,-0.072367,-0.050019,0.052147,23.768555,84.090234,-26.012109
19.072517,-0.279695,-1.450114,-0.259802,1.522632,-10.113108,1.230620,-0.052672,-0.067046,-0.760920,0.268185,20.373047,84.986719,-23.428125
19.174195,-0.334568,-1.490850,-0.217858,1.396549,-10.237606,1.312023,1.719037,-0.290533,-1.612300,-0.383121,20.373047,84.986719,-23.428125
19.276457,-0.336807,-1.567727,-0.129633,1.313554,-8.513781,0.244209,4.007894,0.224551,-1.508006,0.013835,19.658203,87.138281,-21.016406
19.377962,-0.365770,-1.530724,-0.016722,1.182670,-7.714118,1.460463,4.797980,-0.025541,-1.517584,0.042569,18.228516,90.007031,-15.503906
19.478837,-0.301134,-1.508001,0.049597,1.033758,-7.235277,0.593762,6.397307,-0.224551,-1.396262,0.000000,15.905273,88.751953,-12.230859
19.581151,-0.507941,-1.451720,0.073104,0.877938,-5.554548,0.981623,6.344634,0.300111,-0.891820,0.361836,18.585938,90.365625,-5.857031
19.683076,-0.501786,-1.405555,0.077225,0.717609,-5.410896,1.168370,8.269573,-0.297983,-1.206830,-0.125578,16.441406,90.365625,-2.756250
19.784475,-0.413113,-1.363120,0.076675,0.533284,-3.744531,0.588974,8.212112,0.171340,-0.725801,0.312882,19.658203,90.724219,2.411719
19.886793,-0.496051,-1.316641,0.041824,0.370464,-3.481169,0.656011,9.145850,-0.079817,-1.073802,0.107487,21.445312,88.931250,5.857031
19.989118,-0.833735,-1.290858,0.023351,0.241321,-2.308010,1.067814,9.011775,-0.327781,-0.693874,0.011706,22.517578,88.572656,12.058594
20.090991,-0.752978,-1.222163,-0.026346,0.196528,-1.680730,0.933739,9.706094,0.162826,-0.159634,0.169212,26.985352,85.524609,14.987109
20.191945,-0.478186,-1.219718,-0.016165,0.160024,0.067038,1.618480,10.012551,-0.208588,-0.830095,-0.068110,27.521484,84.986719,17.571094
20.294334,-0.354731,-1.229319,0.054357,0.127944,-1.230620,0.225055,7.594408,-0.039376,-1.529290,-0.134092,28.057617,84.807422,20.844141
20.396532,-0.576130,-1.212854,-0.001329,-0.001221,0.325611,-0.071826,9.888053,0.012771,0.065982,0.375671,30.023438,82.476562,23.772656
20.498713,-0.460218,-1.207784,-0.025019,0.024753,1.532289,-0.828394,9.236830,-0.021284,-0.885435,0.037248,26.806641,81.759375,23.083594
20.601239,-0.230448,-1.235624,-0.014742,0.008448,-0.119710,0.167594,9.859322,-0.003193,-0.179854,0.045762,27.878906,81.759375,24.806250
20.703194,-0.085342,-1.226780,-0.005385,0.029577,-0.248997,0.162806,9.485827,0.018092,0.036184,0.004257,28.772461,82.297266,24.289453
20.804924,-0.230152,-1.243040,-0.019815,0.023941,-0.158017,0.244209,9.753978,0.020220,0.032991,0.005321,27.521484,82.476562,24.117188
20.907163,-0.070468,-1.241242,-0.022306,0.029792,-0.450110,0.086191,10.137050,0.051083,0.391635,-0.038312,27.521484,82.476562,24.117188
21.008557,-0.517757,-1.240084,-0.020755,0.010248,-0.033519,0.229843,9.935937,0.013835,0.001064,0.014899,27.521484,82.476562,24.117188
21.109981,-0.388567,-1.233517,-0.007019,0.038625,0.330400,0.497994,9.131485,-0.044697,-0.006385,-0.032991,27.521484,82.476562,24.117188
21.212040,-0.560055,-1.256132,0.022190,0.001487,-0.028730,-0.196325,9.677363,-0.012771,0.002128,0.057468,27.521484,82.117969,22.050000
21.314016,-0.281538,-1.238866,0.018179,0.015121,-0.162806,-0.067038,9.806650,0.054275,-0.027670,-0.092588,28.057617,82.297266,24.289453
21.415713,-0.181758,-1.232013,0.029607,-0.012118,-0.009577,-0.225055,9.370905,-0.022349,-0.564039,-0.345873,28.772461,81.221484,23.944922
21.517046,-0.339654,-1.227298,0.005179,-0.074113,0.746991,-0.172383,9.576807,-0.025541,-0.924811,-0.071303,30.202148,79.787109,25.323047
21.619066,-0.345103,-1.270821,0.027779,-0.152808,2.255338,-0.335188,8.901642,-0.095780,-2.011384,-0.727929,28.951172,77.456250,26.528906
21.720753,-0.543801,-1.279424,0.083945,-0.324812,4.553772,-0.545878,6.885724,0.028734,-1.740007,0.150056,33.418945,66.160547,29.801953
21.821963,-0.535363,-1.303296,0.029852,-0.469257,5.741296,-0.071826,7.608773,0.091523,-0.247964,0.064918,31.095703,57.016406,29.285156
21.923865,-0.284384,-1.385104,-0.125040,-0.523130,5.056554,0.196325,8.571242,0.141542,0.527855,0.315010,32.167969,58.092188,31.007812
22.025629,-0.321918,-1.409642,-0.126819,-0.478595,4.299986,0.110133,8.906430,0.174533,0.419304,0.015963,29.487305,61.498828,30.835547
22.127748,0.071238,-1.396566,-0.093164,-0.508922,4.702212,-0.205901,8.145074,0.032991,0.128771,0.114936,29.844727,61.857422,29.112891
22.229102,-0.301933,-1.368202,-0.082438,-0.468955,4.213795,-0.713472,8.365341,0.053211,-0.595966,-0.159634,30.916992,62.933203,28.768359
22.330873,-0.392451,-1.402099,-0.079849,-0.547858,4.362235,-0.565032,7.939173,0.166019,-0.302240,0.286276,30.380859,58.809375,31.352344
22.432723,-0.175697,-1.446269,-0.073200,-0.590493,6.009446,0.368707,7.920019,0.027670,-0.465066,0.001064,30.380859,58.809375,31.352344
22.534468,-0.352648,-1.535531,-0.042528,-0.657806,6.090849,0.196325,7.824251,0.091523,-0.826902,0.168147,28.951172,58.450781,31.352344
22.635975,-0.296132,-1.561174,-0.013288,-0.730982,6.560113,0.110133,6.536171,0.039376,-0.584259,-0.044697,28.951172,54.147656,31.007812
22.737700,-0.033172,-1.587535,-0.024155,-0.749313,6.421249,0.086191,7.278373,-0.044697,-0.044697,0.004257,27.878906,50.203125,30.318750
22.840028,-0.340276,-1.588285,0.002840,-0.812192,7.072472,0.114922,6.402095,0.009578,-0.321396,0.023413,28.951172,51.996094,29.629687
22.941592,-0.286681,-1.614407,0.043750,-0.827890,7.302315,0.138864,6.660669,0.220294,-0.323524,0.123450,29.129883,50.023828,30.835547
23.043920,-0.309419,-1.645186,0.071495,-0.854054,7.493851,0.071826,6.004658,-0.011706,-0.409726,-0.104294,26.806641,48.410156,29.629687
23.145484,-0.137024,-1.687829,0.122694,-0.931659,7.896077,0.177171,5.702988,-0.083009,-0.668333,-0.039376,28.593750,46.258594,29.629687
23.246962,0.082803,-1.697811,0.163136,-1.001671,8.154651,0.191536,5.219360,0.019156,-0.159634,0.009578,28.593750,46.258594,29.629687
23.348575,-0.158774,-1.710425,0.174070,-1.014942,8.307880,0.296881,5.214571,-0.419304,-0.703452,-0.075560,28.593750,46.258594,29.629687
23.450004,-0.093184,-1.712701,0.299355,-1.132882,9.107543,0.081403,3.936068,-0.068110,-0.582131,-0.151120,28.593750,46.258594,29.629687
23.551813,-0.155467,-1.715473,0.375874,-1.213002,9.825804,-0.172383,4.046201,-0.075560,-0.842866,-0.025541,28.593750,46.258594,29.629687
23.653319,-0.004055,-1.679982,0.451503,-1.325199,9.294291,0.057461,1.556231,-0.155377,-0.943967,0.051083,31.810547,29.046094,22.394531
23.755146,-0.018743,-1.709610,0.466888,-1.318109,9.557653,0.143652,2.255338,0.015963,-0.145799,-0.046826,30.916992,25.639453,20.155078
23.856970,-0.018175,-1.684955,0.515657,-1.385584,9.600749,0.244209,1.527501,0.018092,-0.304368,0.005321,31.453125,25.460156,19.293750
23.958822,0.013388,-1.675991,0.539129,-1.416838,9.782708,0.339977,1.225831,-0.008514,0.288405,0.010642,31.631836,23.846484,18.776953
24.059907,-0.091971,-1.693457,0.491337,-1.367696,9.485827,0.253785,1.910573,-0.069175,0.484222,-0.006385,33.776367,25.280859,19.121484
24.161219,-0.212852,-1.681328,0.441980,-1.356684,9.605537,0.186748,1.862689,-0.119193,0.005321,-0.026606,33.418945,26.356641,20.155078
24.263332,-0.173144,-1.666494,0.471646,-1.400001,9.725247,0.435745,1.369483,-0.457616,0.351194,-0.080881,34.133789,25.998047,18.432422
24.365328,0.015706,-1.679336,0.445743,-1.372242,9.686940,0.138864,1.900996,0.020220,-0.027670,-0.001064,34.133789,25.998047,18.432422
24.466440,-0.221927,-1.692773,0.487933,-1.337161,9.749189,0.172383,1.910573,0.013835,0.045762,0.015963,35.920898,24.563672,20.844141
24.568686,-0.225258,-1.679646,0.417095,-1.351711,9.572018,0.114922,1.968034,0.019156,0.002128,0.004257,34.133789,24.205078,17.743359
24.670735,-0.395215,-1.683518,0.413070,-1.352731,9.514557,0.229843,2.001553,0.020220,-0.344809,0.005321,34.848633,25.280859,18.776953
24.772409,-0.242194,-1.659396,0.525340,-1.442941,9.787496,0.225055,1.039084,0.021284,-0.841801,-0.003193,35.742188,24.384375,18.260156
24.874494,-0.453459,-1.560954,0.602125,-1.589660,9.753978,-0.071826,-0.316035,0.050019,-0.044697,0.011706,35.206055,20.977734,14.298047
24.975813,-0.065020,-1.597046,0.608736,-1.561503,9.782708,0.181959,0.105345,0.014899,-0.076624,0.011706,35.742188,18.288281,13.092187
25.077985,0.018495,-1.584449,0.611320,-1.585159,9.830592,0.191536,-0.158017,0.017028,-0.153248,0.018092,36.993164,21.336328,13.953516
25.179929,0.015836,-1.572705,0.584136,-1.610320,9.811438,0.201113,-0.287304,0.017028,-0.037248,0.015963,36.099609,20.081250,11.714063
25.280892,0.156092,-1.563411,0.582260,-1.589064,9.864111,0.086191,-0.220267,0.017028,-0.024477,0.015963,36.099609,18.646875,11.369531
25.383256,0.040751,-1.533263,0.602093,-1.630971,9.888053,0.095768,-0.517148,0.017028,-0.186239,0.017028,35.206055,18.826172,10.852734
25.484514,-0.106106,-1.579858,0.581016,-1.619806,9.792285,0.229843,-0.301669,0.017028,0.007450,0.011706,35.742188,19.364062,10.680469
25.585736,0.150755,-1.551967,0.575544,-1.629903,9.730036,0.158017,-0.488417,0.015963,-0.037248,0.007450,35.742188,19.364062,10.680469
25.687920,-0.029906,-1.556733,0.585703,-1.636941,9.859322,0.186748,-0.488417,0.014899,-0.005321,0.009578,35.742188,19.364062,10.680469
25.790199,-0.310544,-1.548783,0.598005,-1.647922,9.864111,0.134075,-0.560243,0.017028,0.001064,0.010642,35.742188,19.364062,10.680469
25.891472,-0.286302,-1.556910,0.571399,-1.630728,9.777920,0.220267,-0.541090,0.018092,0.021284,0.008514,35.563477,18.467578,9.474609
25.993614,-0.081198,-1.544242,0.542261,-1.648649,9.797073,0.114922,-0.622492,0.018092,-0.004257,0.007450,36.099609,18.646875,8.957813
26.095683,-0.264587,-1.535182,0.636689,-1.630829,9.797073,0.148441,-0.627281,0.018092,0.110679,0.008514,36.993164,17.391797,11.541797
26.197549,0.061701,-1.570766,0.580253,-1.624535,9.739612,0.153229,-0.239420,0.015963,0.353322,-0.004257,37.708008,20.260547,9.474609
26.299430,0.043425,-1.596685,0.539460,-1.517505,9.749189,0.229843,0.392649,0.063853,0.179854,0.003193,35.563477,18.467578,14.987109
26.401000,-0.221021,-1.588689,0.564668,-1.576717,9.816227,0.172383,0.062249,0.014899,0.623635,0.018092,34.848633,21.336328,13.608984
26.502500,-0.304477,-1.639940,0.444758,-1.433936,9.844957,0.248997,2.537854,0.160698,1.919861,0.122386,34.669922,22.591406,16.882031
26.604253,-0.140894,-1.671092,0.411817,-1.325037,10.017340,0.943315,2.446874,0.046826,0.156441,0.001064,34.491211,27.432422,21.188672
26.706068,-0.329204,-1.691403,0.303721,-1.216316,9.457097,0.124498,3.447650,0.037248,1.475015,0.061725,33.240234,30.480469,24.117188
26.806874,0.050266,-1.708779,0.091338,-1.070652,9.332598,0.727837,6.373365,0.035119,2.984085,0.053211,33.240234,41.238281,27.217969
26.908836,-0.438468,-1.641915,-0.074116,-0.935213,6.196194,-0.009577,7.441179,0.000000,1.635713,0.046826,32.346680,53.609766,31.180078
27.010175,-0.310746,-1.602809,-0.097514,-0.775152,5.492299,0.033519,7.920019,0.060661,0.363965,0.054275,32.346680,53.609766,31.180078
27.111695,-0.555441,-1.540583,-0.054512,-0.604271,4.788403,-0.114922,8.470685,0.038312,-0.369286,0.039376,29.844727,56.478516,32.558203
27.213630,-0.309537,-1.484320,-0.068820,-0.643586,6.076484,-0.028730,7.647080,-0.024477,0.422497,-0.103230,30.023438,56.299219,31.352344
27.315566,-0.250640,-1.435944,-0.089805,-0.541158,4.458003,0.306458,8.566454,0.076624,1.268555,0.065982,30.202148,57.554297,31.180078
27.417646,-0.547450,-1.389428,-0.218628,-0.409570,2.375048,-0.095768,9.174581,0.040441,2.964929,0.030863,31.274414,63.650391,31.180078
27.519420,-0.453732,-1.336309,-0.296485,-0.217821,-0.397437,-0.694318,6.579266,0.010642,0.036184,-0.528919,31.274414,75.483984,27.734766
27.621333,-0.197078,-1.348612,-0.166069,-0.120026,0.890643,-0.316035,7.872135,0.002128,0.015963,-0.617250,30.916992,79.428516,24.978516
27.722968,-0.454085,-1.205773,-0.037767,-0.071812,-0.330400,-0.225055,9.591172,0.402277,0.043633,1.302610,33.597656,79.249219,21.705469
27.824991,-0.366111,-1.204661,-0.024289,0.004140,-0.028730,0.148441,9.758766,0.018092,0.038312,0.011706,30.738281,80.683594,25.495313
27.926911,-0.368453,-1.218665,-0.032426,0.008656,0.000000,0.220267,9.787496,0.015963,0.031927,0.014899,30.202148,82.297266,24.633984
28.028630,-0.398981,-1.204896,-0.023899,0.003651,-0.052672,0.114922,9.624691,0.015963,0.034055,0.007450,31.631836,81.938672,24.289453
28.130503,-0.359400,-1.194065,-0.013135,-0.005948,1.350330,-0.550666,12.315773,0.022349,0.396956,0.128771,31.631836,81.938672,24.289453
28.233076,-0.278694,-1.190149,-0.015748,0.024463,0.287304,-0.517148,9.739612,-0.056404,-0.312882,-0.006385,31.631836,81.938672,24.289453
28.334635,-0.399744,-1.206140,0.005572,-0.032973,0.354342,-0.215478,9.667786,0.005321,0.134092,0.001064,31.631836,81.938672,24.289453
28.436903,-0.277095,-1.204099,-0.028010,0.011815,-0.421379,0.124498,9.797073,0.045762,0.087266,0.087266,30.380859,80.683594,23.083594
28.538961,-0.398721,-1.217046,-0.020664,0.065710,-0.842759,-0.196325,8.920795,-0.012771,0.028734,-0.766241,33.061523,81.938672,23.255859
28.641051,-0.432520,-1.188894,0.006691,-0.006502,0.598550,-0.411803,9.787496,0.025541,0.040441,-0.361836,32.525391,79.249219,24.806250
28.743509,-0.833589,-1.178012,-0.014331,0.003586,0.004788,0.186748,9.720459,-0.009578,0.005321,0.440589,32.525391,79.249219,24.806250
28.845488,-0.375741,-1.170270,-0.001229,0.024635,-0.225055,0.090980,9.739612,0.065982,0.057468,-0.045762,33.061523,79.069922,23.944922
28.946328,-0.556543,-1.194166,-0.011142,0.022568,-0.076614,0.162806,9.763554,0.037248,0.041505,0.004257,31.989258,79.787109,24.289453
29.048164,-0.568349,-1.181816,-0.034464,0.017313,-0.043096,0.292093,9.682152,0.061725,0.027670,0.007450,32.167969,80.683594,25.495313
29.150159,-0.690921,-1.171414,-0.007223,0.009880,-0.067038,0.090980,9.662998,0.019156,0.025541,0.006385,33.776367,80.145703,24.633984
29.251774,-0.396227,-1.183183,-0.009841,0.011479,-0.014365,0.134075,9.725247,0.020220,0.032991,0.005321,33.240234,79.607812,25.150781
29.353501,-0.597125,-1.187472,-0.007917,-0.004882,0.071826,0.100556,10.208876,0.020220,0.134092,0.003193,32.167969,79.607812,24.117188
29.455821,-0.295920,-1.163157,-0.009394,0.009950,-0.110133,0.181959,9.835380,0.019156,0.030863,0.008514,33.418945,79.787109,23.600391
29.558079,-0.592439,-1.164404,-0.014835,0.026564,-0.129287,0.287304,9.658209,0.011706,0.025541,0.007450,33.418945,79.787109,23.600391
29.659646,-0.504019,-1.165254,-0.007746,0.016223,-0.047884,0.172383,9.821015,0.019156,0.029798,0.006385,33.418945,79.787109,23.600391
29.761868,-0.479738,-1.169040,-0.000735,0.020936,-0.158017,0.129287,9.792285,0.018092,0.018092,0.008514,33.418945,79.787109,23.600391
29.863156,-0.568550,-1.169383,-0.011345,-0.002151,0.057461,0.100556,9.715670,0.031927,0.035119,0.003193,33.776367,80.145703,23.944922
29.965014,-0.469214,-1.166468,-0.021658,0.042681,-0.325611,-1.752556,9.433155,-0.010642,0.027670,-0.003193,34.133789,79.428516,25.323047
30.066546,-0.244800,-1.156355,-0.023826,0.026887,1.632846,-0.258574,9.782708,-0.047890,-0.047890,-0.042569,33.418945,80.145703,24.978516
30.168464,-0.678698,-1.176907,0.015606,0.018809,-0.416591,-0.186748,9.955091,0.012771,0.028734,0.012771,33.418945,80.145703,24.978516
30.270136,-0.599913,-1.185468,-0.004322,0.004851,0.004788,0.047884,9.634267,-0.018092,0.008514,0.006385,32.882812,81.042187,25.150781
30.372275,-0.556037,-1.181114,-0.007853,-0.013879,0.043096,0.014365,9.792285,-0.002128,0.023413,0.010642,32.882812,81.042187,25.150781
30.474737,-0.326626,-1.171713,0.009747,-0.009694,0.000000,-0.038307,9.701305,-0.089395,0.022349,0.018092,33.061523,79.428516,23.944922
30.575829,-0.327192,-1.163174,0.026534,-0.001492,-0.397437,-0.263362,9.921572,-0.199010,0.028734,0.060661,33.776367,77.635547,23.255859
30.678031,-0.370815,-1.162018,0.043905,-0.012911,-0.167594,-0.493206,9.835380,-0.403341,0.041505,0.017028,34.491211,80.145703,23.944922
30.780444,-0.396428,-1.163765,0.096894,-0.055341,0.239420,-1.019930,9.136274,-0.024477,0.031927,0.046826,34.848633,79.428516,22.911328
30.882872,-0.637306,-1.150633,0.097500,-0.066207,0.100556,-1.058237,9.457097,-0.087266,-0.020220,0.014899,36.099609,78.890625,23.772656
30.984644,-0.701080,-1.154076,0.095138,-0.058985,0.119710,-1.144428,9.859322,-0.065982,-0.007450,0.009578,35.563477,78.352734,22.222266
31.086846,-0.574540,-1.138672,0.028805,-0.010259,-0.383072,0.632069,7.034164,-0.061725,0.094716,0.218166,36.278320,77.994141,22.566797
31.188547,-0.440600,-1.157361,0.131035,-0.078319,0.660800,-1.795651,10.405200,0.146863,-0.074496,0.039376,34.848633,79.069922,23.255859
31.290341,-0.574936,-1.169534,0.127003,-0.044787,-0.062249,-1.326388,9.514557,-0.180918,0.055340,-0.072367,34.669922,79.607812,22.739062
31.392012,-0.407661,-1.138377,0.139385,-0.099583,0.339977,-1.690306,10.103531,-0.244772,0.086202,0.102166,36.278320,76.918359,21.188672
31.493662,-0.589581,-1.116506,0.234460,-0.122987,-0.138864,-2.652775,9.868899,-0.335231,-0.063853,0.303304,38.244141,79.966406,19.982813
31.595707,-0.502895,-1.115058,0.278655,-0.098764,-0.450110,-3.318364,9.576807,-0.727929,0.092588,0.061725,38.244141,80.325000,20.671875
31.697355,-0.803230,-1.072854,0.369186,-0.179499,-0.067038,-4.175488,8.523358,-0.726865,0.137285,0.037248,39.495117,78.352734,19.121484
31.799379,-0.723752,-0.991241,0.476763,-0.265172,-0.454898,-5.166687,8.671798,-1.217473,-0.068110,0.034055,41.818359,79.249219,15.848438
31.901194,-0.703411,-0.891193,0.515732,-0.402903,0.148441,-6.224924,7.321469,-1.182353,0.044697,-0.093652,45.035156,77.814844,13.092187
32.003137,-0.487233,-0.733683,0.562085,-0.608395,0.138864,-6.871359,5.928043,-0.907783,-0.038312,0.170276,45.750000,76.739063,9.302344
32.104511,-0.643851,-0.551576,0.611535,-0.744389,-0.277727,-7.742848,5.540183,-0.570424,0.136221,0.443782,50.039062,78.532031,5.857031
32.206575,-0.485776,-0.397228,0.682758,-0.846475,-1.158794,-8.274361,4.903325,-0.489543,0.079817,0.246900,49.860352,80.145703,4.306641
32.308685,-0.263473,-0.369955,0.735822,-0.849325,-1.584961,-8.322245,4.817134,-0.222423,0.192625,-0.055340,49.860352,80.145703,4.306641
32.410720,-0.526252,-0.317283,0.729077,-0.940835,-1.005565,-8.149862,4.065354,-0.085138,0.213909,-0.077688,49.860352,80.145703,4.306641
32.512443,-0.399397,-0.259430,0.665633,-1.002899,-1.211466,-8.681375,4.371812,-0.250093,0.124514,0.114936,52.183594,78.890625,-2.067188
32.614268,-0.348308,-0.167527,0.584135,-1.071482,-1.096544,-9.165004,3.950433,-0.443782,-0.014899,0.166019,51.826172,79.966406,-1.722656
32.715993,-0.468309,-0.079581,0.560643,-1.160491,-1.206678,-8.882488,2.686294,-0.471451,0.433139,-0.037248,53.791992,80.145703,-4.995703
32.818290,-0.427748,0.011480,0.451124,-1.275111,-1.264138,-9.504981,2.370260,-0.367157,0.032991,0.048954,53.791992,80.145703,-4.995703
32.919748,-0.423193,0.066377,0.362634,-1.296350,-1.340753,-8.901642,1.738190,-0.157505,-0.020220,-0.022349,53.791992,78.711328,-8.441016
33.021002,-0.201190,0.045429,0.286130,-1.323081,-0.991199,-9.303868,1.628057,-0.624700,0.343744,-0.118129,54.685547,78.890625,-8.268750
33.123464,-0.186593,0.046003,0.194744,-1.363162,-0.526724,-8.714894,-0.627281,-0.789654,0.378864,-0.199010,54.149414,80.504297,-8.785547
33.225325,-0.538371,0.080174,0.056404,-1.448656,-0.938527,-9.337386,-0.330400,-1.015270,0.322460,-0.046826,54.864258,78.711328,-14.298047
33.326499,-0.455570,0.089434,-0.095705,-1.534117,-0.895431,-9.332598,-0.837971,-0.161762,-0.037248,-0.142606,54.149414,78.352734,-17.743359
33.428753,-0.154833,0.048293,-0.225731,-1.580377,-0.727837,-9.260772,-0.464475,0.063853,-0.129835,-0.050019,55.400391,77.097656,-17.915625
33.530585,-0.157445,0.027644,-0.344798,-1.601752,-0.478840,-9.859322,-0.565032,0.011706,-0.039376,-0.022349,54.685547,77.456250,-18.604688
33.632186,-0.521829,0.028978,-0.410042,-1.646668,-0.694318,-9.414001,-0.770933,-0.013835,-0.020220,0.025541,55.042969,77.814844,-17.915625
33.733523,-0.338043,0.039763,-0.449721,-1.646891,-0.737414,-10.036493,-0.454898,-0.034055,0.008514,0.001064,55.757812,77.456250,-18.260156
33.835051,-0.043232,0.006465,-0.451345,-1.684561,-0.497994,-9.543288,-0.943315,-0.029798,0.041505,0.006385,55.579102,78.711328,-16.365234
33.936739,0.023201,0.040349,-0.449373,-1.657989,-0.737414,-9.538499,-0.718260,-0.028734,0.064918,-0.034055,55.400391,77.814844,-18.260156
34.039066,-0.264047,0.013215,-0.453976,-1.674453,-0.531513,-9.380482,-1.005565,-0.078753,0.142606,-0.023413,55.221680,77.276953,-18.432422
34.140734,-0.169697,-0.016206,-0.467981,-1.702724,-0.411803,-9.370905,-1.211466,-0.007450,-0.012771,-0.003193,55.579102,78.352734,-18.087891
34.242099,-0.225874,-0.001469,-0.481149,-1.701334,-0.526724,-9.648633,-1.053449,-0.014899,0.046826,-0.020220,56.293945,78.711328,-18.776953
34.343786,0.152100,0.014105,-0.495909,-1.691719,-0.718260,-9.715670,-0.770933,-0.006385,0.005321,-0.006385,56.293945,78.711328,-18.776953
34.445440,-0.129317,-0.038471,-0.502143,-1.721051,-0.383072,-9.303868,-1.316811,0.006385,0.021284,0.020220,55.221680,77.635547,-19.466016
34.547033,-0.179518,-0.017538,-0.505843,-1.705937,-0.421379,-9.591172,-1.101333,0.018092,0.014899,-0.006385,55.757812,77.456250,-19.982813
34.649352,-0.334244,-0.015603,-0.515648,-1.702210,-0.421379,-9.552865,-1.182736,0.007450,0.022349,-0.002128,55.042969,76.739063,-19.293750
34.750272,-0.119272,-0.015302,-0.512966,-1.715311,-0.383072,-9.121908,-1.130063,0.036184,0.038312,0.032991,55.400391,77.814844,-19.293750
34.852809,-0.244232,-0.044846,-0.516677,-1.748470,-0.526724,-9.447520,-1.757344,0.019156,-0.107487,0.060661,54.328125,77.456250,-19.638281
34.954605,0.129886,0.054377,-0.528002,-1.663031,-0.785298,-10.146627,-1.278504,-0.054275,0.128771,-0.017028,55.042969,76.739063,-19.638281
35.056514,-0.020458,0.053854,-0.509299,-1.682648,-0.857124,-9.543288,-1.498770,0.051083,0.345873,-0.032991,54.149414,77.635547,-18.432422
35.157934,0.039517,0.079550,-0.483897,-1.630954,-0.914585,-9.514557,-0.354342,-0.043633,0.258606,-0.057468,55.579102,77.635547,-17.054297
35.259826,-0.178946,0.039152,-0.491900,-1.655897,-0.900220,-9.624691,-0.742203,0.266056,-0.124514,-0.024477,55.579102,77.994141,-19.466016
35.361999,0.222160,0.039385,-0.441369,-1.681500,-0.411803,-10.266337,-0.387861,0.457616,-0.136221,-0.118129,54.328125,77.097656,-14.814844
35.463818,-0.086413,0.108728,-0.377844,-1.590415,-1.225831,-9.217676,-0.023942,0.067046,-0.029798,-0.058532,53.970703,77.097656,-15.159375
35.565029,-0.041517,0.055137,-0.305978,-1.586218,-0.588974,-9.777920,0.004788,0.064918,0.359708,-0.059597,55.221680,77.635547,-13.264453
35.666269,-0.086723,0.023324,-0.271983,-1.569202,-0.507571,-9.710882,0.656011,0.080881,0.007450,0.110679,55.936523,76.201172,-14.987109
35.767799,-0.053813,0.138003,-0.256772,-1.529920,-1.441309,-9.825804,0.478840,-0.112808,0.103230,0.039376,55.042969,77.456250,-14.814844
35.869743,0.236618,0.104458,-0.288350,-1.559003,-1.158794,-9.782708,0.028730,0.027670,0.097909,0.118129,55.400391,77.097656,-16.192969
35.972274,-0.107201,0.097020,-0.309015,-1.582214,-0.861913,-9.552865,0.043096,0.109615,-0.068110,0.141542,55.221680,76.918359,-13.953516
36.073488,0.195792,0.116660,-0.291196,-1.558498,-1.106121,-9.586383,0.071826,0.060661,-0.133028,0.087266,53.970703,76.380469,-14.470313
36.174737,0.249492,0.102899,-0.284680,-1.557534,-0.991199,-9.495404,0.134075,0.026606,-0.051083,-0.009578,53.970703,76.380469,-14.470313
36.276657,-0.346878,0.090777,-0.280424,-1.548871,-0.861913,-9.672575,0.205901,0.032991,0.015963,-0.014899,55.221680,77.635547,-15.331641
36.377907,0.134615,0.092016,-0.276106,-1.541841,-0.837971,-9.490615,0.177171,0.038312,0.004257,0.047890,55.221680,77.635547,-15.331641
36.479614,0.241041,0.109878,-0.275108,-1.537887,-1.000776,-9.739612,0.296881,0.000000,0.060661,-0.031927,55.757812,78.173437,-15.159375
36.581562,0.203443,0.083476,-0.294471,-1.550749,-0.790087,-9.595960,0.196325,-0.009578,0.028734,-0.039376,55.042969,74.946094,-15.848438
36.682949,0.240288,0.091596,-0.274760,-1.567896,-0.866701,-9.600749,0.067038,-0.003193,0.018092,-0.020220,56.115234,77.097656,-14.814844
36.784216,0.210169,0.070097,-0.316897,-1.556492,-0.756568,-9.504981,0.076614,0.007450,0.035119,-0.018092,53.970703,75.663281,-16.537500
36.886465,0.100558,0.061148,-0.290430,-1.574338,-0.708684,-9.653421,-0.067038,0.000000,0.042569,-0.017028,54.864258,77.276953,-14.298047
36.987428,-0.070312,0.068315,-0.289231,-1.561843,-0.761356,-9.452308,0.038307,0.005321,0.005321,0.001064,53.613281,77.456250,-15.503906
37.089267,-0.166738,0.057996,-0.258740,-1.580102,-0.627281,-9.586383,-0.071826,0.020220,0.017028,0.003193,54.864258,77.276953,-12.919922
37.191157,0.162221,0.080465,-0.269263,-1.551983,-0.699107,-9.490615,0.134075,0.017028,0.032991,0.003193,53.791992,76.559766,-14.642578
37.292700,0.169389,0.069209,-0.293214,-1.575624,-0.694318,-9.524134,-0.009577,0.003193,0.027670,-0.009578,56.115234,77.456250,-15.503906
37.395449,0.025804,0.068856,-0.311352,-1.564550,-0.670376,-9.437943,0.110133,-0.002128,0.050019,-0.021284,55.221680,78.352734,-16.365234
37.496746,0.007625,0.048969,-0.301887,-1.574822,-0.612916,-9.619902,-0.105345,0.003193,0.040441,0.011706,54.149414,75.483984,-14.298047
37.598867,0.122190,0.069062,-0.279503,-1.553159,-0.641646,-9.543288,0.086191,-0.012771,0.043633,-0.006385,54.864258,76.559766,-15.331641
37.700626,-0.150505,0.069697,-0.301247,-1.565303,-0.675165,-9.524134,0.086191,-0.006385,0.035119,-0.042569,54.864258,77.994141,-15.676172
37.802838,-0.233705,0.054059,-0.308058,-1.595005,-0.574608,-9.476250,-0.177171,0.009578,0.042569,-0.003193,57.008789,76.201172,-15.331641
37.904014,-0.025505,0.057691,-0.299593,-1.577808,-0.636858,-9.543288,-0.172383,0.006385,0.024477,-0.004257,57.008789,76.201172,-15.331641
38.006511,-0.152717,0.045733,-0.306935,-1.592552,-0.536301,-9.624691,-0.143652,0.005321,0.042569,0.010642,55.936523,77.276953,-15.676172
38.108150,-0.144180,0.042207,-0.294463,-1.587172,-0.459687,-9.552865,-0.138864,0.008514,0.024477,-0.002128,55.221680,74.766797,-15.331641
38.210364,-0.126487,0.054508,-0.308921,-1.589965,-0.555455,-9.533711,-0.114922,0.009578,0.034055,-0.005321,55.936523,76.201172,-15.676172
38.312412,0.059157,0.064228,-0.311526,-1.570573,-0.603339,-9.485827,-0.105345,0.012771,0.012771,0.007450,55.221680,76.918359,-15.676172
38.413847,0.008200,0.035453,-0.287688,-1.583917,-0.421379,-9.519346,-0.162806,0.022349,0.036184,0.021284,56.293945,76.559766,-14.642578
38.515791,0.019481,0.064939,-0.305321,-1.569679,-0.588974,-9.538499,-0.105345,0.009578,0.038312,-0.002128,54.685547,76.021875,-15.848438
38.618126,-0.384888,0.063471,-0.317005,-1.581659,-0.632069,-9.576807,-0.086191,0.030863,0.015963,0.022349,54.685547,76.021875,-15.848438
38.718988,-0.275326,0.074267,-0.319681,-1.568601,-0.651223,-9.595960,-0.100556,0.020220,0.040441,0.009578,54.685547,76.021875,-15.848438
38.820518,-0.228928,0.053499,-0.302779,-1.582531,-0.521936,-9.485827,-0.047884,0.028734,0.023413,0.020220,54.685547,76.021875,-15.848438
38.922177,-0.281652,0.062462,-0.317556,-1.566456,-0.608127,-9.543288,0.086191,0.005321,0.034055,0.003193,54.685547,76.021875,-15.848438
39.023593,-0.252548,0.061091,-0.323967,-1.576926,-0.584185,-9.720459,-0.076614,0.026606,0.004257,0.015963,54.685547,76.021875,-15.848438
39.125647,-0.354545,0.065176,-0.314277,-1.582050,-0.656011,-9.610325,-0.119710,0.023413,0.038312,0.009578,54.685547,76.021875,-15.848438
39.227125,-0.403464,0.056786,-0.312465,-1.576689,-0.598550,-9.548076,0.028730,0.003193,0.034055,-0.004257,54.685547,76.021875,-15.848438
39.328737,-0.460032,0.047558,-0.307126,-1.580572,-0.454898,-9.710882,-0.129287,0.015963,0.030863,0.001064,54.685547,76.021875,-15.848438
39.430678,-0.346760,0.056548,-0.325137,-1.578897,-0.603339,-9.615114,-0.062249,0.031927,0.026606,0.043633,54.685547,76.021875,-15.848438
39.531985,-0.171294,0.081423,-0.314749,-1.581853,-0.732626,-9.605537,0.014365,0.009578,0.007450,0.020220,54.685547,76.021875,-15.848438
39.634338,-0.178370,0.064088,-0.322415,-1.581187,-0.598550,-9.643844,-0.110133,0.030863,0.029798,0.035119,54.685547,76.021875,-15.848438
39.736081,-0.386567,0.082586,-0.318194,-1.565214,-0.703895,-9.610325,0.124498,0.024477,0.023413,0.053211,54.685547,76.021875,-15.848438
39.837514,-0.310268,0.073985,-0.330277,-1.573876,-0.694318,-9.538499,-0.028730,0.010642,0.032991,0.001064,54.685547,76.021875,-15.848438
39.939729,-0.246256,0.070819,-0.322382,-1.566004,-0.622492,-9.442731,-0.047884,0.017028,0.032991,0.017028,54.685547,76.021875,-15.848438
40.041521,-0.367674,0.072605,-0.319558,-1.570079,-0.708684,-9.595960,-0.047884,0.017028,0.028734,0.011706,54.685547,76.021875,-15.848438
40.142595,-0.429328,0.072924,-0.315696,-1.580131,-0.708684,-9.591172,-0.009577,-0.005321,0.079817,-0.003193,54.685547,76.021875,-15.848438
40.243931,-0.335342,0.048817,-0.339203,-1.585633,-0.622492,-9.457097,-0.191536,0.007450,0.029798,-0.002128,54.685547,76.021875,-15.848438
40.345749,-0.617793,0.075803,-0.287543,-1.581034,-0.718260,-9.557653,-0.033519,-0.005321,0.035119,-0.046826,57.008789,76.918359,-14.987109
40.447505,-0.172438,0.049215,-0.291162,-1.568604,-0.521936,-9.581595,-0.100556,0.005321,0.042569,0.003193,56.115234,77.097656,-14.470313
40.549047,-0.263679,0.053253,-0.295336,-1.584895,-0.656011,-9.648633,-0.110133,0.020220,0.032991,0.008514,56.115234,77.097656,-14.470313
40.651327,-0.228165,0.087662,-0.300934,-1.555490,-0.890643,-9.998186,0.071826,0.190496,0.052147,-0.074496,55.221680,77.276953,-15.676172
40.752535,-0.484254,0.097222,-0.161037,-1.496039,0.694318,-11.707646,-0.086191,0.750278,0.626828,-0.236258,55.221680,77.276953,-15.676172
40.853901,-0.584244,0.063951,-0.009887,-1.384353,-1.106121,-9.088390,3.203442,2.385991,0.488479,0.207524,55.221680,77.276953,-15.676172
40.955643,-0.414821,0.028324,0.218642,-1.273685,-0.656011,-6.689399,5.267244,2.167825,-0.498057,-0.104294,55.221680,77.276953,-15.676172
41.057981,-0.545482,0.030241,0.401209,-1.216180,-1.292869,-7.086837,8.360552,1.520776,-0.590644,0.121322,55.221680,77.276953,-15.676172
41.159646,-0.349770,-0.039089,0.486385,-1.072218,-1.154005,-4.271256,8.777143,1.401583,-0.402277,0.173469,55.221680,77.276953,-15.676172
41.261147,-0.612038,-0.131539,0.553862,-0.940944,-0.316035,-3.337517,8.528146,0.758792,-0.146863,-0.059597,55.221680,77.276953,-15.676172
41.362567,-0.205536,-0.261011,0.561399,-0.806345,1.407791,-0.732626,10.319009,0.684296,-0.228808,-0.296919,55.221680,77.276953,-15.676172
41.464469,-0.828246,-0.384157,0.507334,-0.652079,1.321599,-2.700659,9.418789,0.379928,0.276698,-0.038312,55.221680,77.276953,-15.676172
41.566814,-0.934401,-0.498780,0.413489,-0.495128,0.177171,-1.963245,9.275137,0.122386,0.159634,0.020220,55.221680,77.276953,-15.676172
41.668397,-0.370349,-0.639852,0.315487,-0.351235,0.354342,-1.551443,9.064447,0.575745,0.044697,0.067046,55.221680,77.276953,-15.676172
41.770115,-0.915227,-0.820854,0.298945,-0.186586,0.924162,-0.699107,11.923124,0.842866,-0.034055,0.174533,38.422852,76.918359,22.222266
41.871701,-0.595597,-0.977065,0.205826,-0.073192,0.320823,-0.349553,9.734824,0.568296,0.004257,0.020220,35.742188,78.173437,23.772656
41.973402,-1.104833,-1.098422,0.074228,-0.032864,0.632069,-0.047884,9.730036,-0.011706,0.007450,-0.015963,35.742188,78.173437,23.772656
42.075048,-0.514941,-1.141484,-0.035973,0.006828,0.134075,0.277727,9.476250,0.079817,0.067046,0.026606,35.742188,78.173437,23.772656
42.177252,-0.840566,-1.188940,-0.023852,-0.014208,0.239420,0.158017,9.706094,0.035119,0.043633,0.003193,32.346680,79.069922,25.323047
42.278536,-0.505574,-1.188580,-0.016049,0.001452,0.114922,0.129287,9.777920,-0.021284,0.025541,0.009578,32.346680,79.069922,25.323047
42.381096,-0.558782,-1.179006,-0.047479,0.068034,-0.746991,1.000776,8.025364,0.050019,0.108551,-0.220294,32.346680,79.069922,25.323047
42.483176,-1.002014,-1.174860,-0.046561,0.007836,0.038307,0.440533,8.532935,0.054275,0.102166,-0.158569,32.346680,79.069922,25.323047
42.584533,-0.788898,-1.184269,0.038592,-0.012010,-0.023942,-0.330400,9.629479,0.015963,0.025541,-0.022349,32.346680,79.069922,25.323047
42.685969,-0.785301,-1.180673,-0.011689,0.019296,-0.090980,0.162806,9.677363,0.021284,0.030863,0.007450,32.346680,79.069922,25.323047
42.787455,-0.512943,-1.185246,-0.019359,0.023879,-0.043096,0.215478,9.715670,0.018092,0.029798,0.004257,32.346680,79.069922,25.323047
42.889119,-0.608578,-1.178890,-0.017980,0.007001,-0.033519,0.138864,9.629479,0.017028,0.029798,0.007450,32.346680,79.069922,25.323047
42.990636,-0.515531,-1.177874,-0.026187,0.012783,-0.033519,0.268151,9.706094,0.019156,0.034055,0.010642,32.346680,79.069922,25.323047
43.092098,-0.896777,-1.180971,-0.025591,0.015601,-0.019154,0.248997,9.696517,0.013835,0.027670,0.007450,32.346680,79.069922,25.323047
43.193897,-0.733717,-1.181560,-0.004510,0.016136,-0.090980,0.095768,9.715670,0.018092,0.028734,0.008514,32.346680,79.069922,25.323047
43.295985,-0.767163,-1.167665,-0.022606,0.018134,-0.114922,0.220267,9.639056,0.017028,0.028734,0.003193,32.346680,79.069922,25.323047
43.397839,-0.787112,-1.176949,-0.006791,0.007244,-0.047884,0.134075,9.653421,0.017028,0.028734,0.006385,32.346680,79.069922,25.323047
43.499269,-0.646246,-1.169520,-0.017236,0.015660,-0.119710,0.205901,9.706094,0.019156,0.028734,0.006385,32.346680,79.069922,25.323047
43.602229,-0.645372,-1.177803,-0.000968,0.009842,-0.067038,0.129287,9.787496,0.020220,0.026606,0.006385,32.346680,79.069922,25.323047
43.703826,-0.595842,-1.184177,-0.008583,0.021915,-0.071826,0.191536,9.806650,0.017028,0.028734,0.007450,32.346680,79.069922,25.323047
43.805454,-0.629417,-1.175199,-0.012562,0.002970,-0.023942,0.138864,9.643844,0.019156,0.029798,0.007450,32.346680,79.069922,25.323047
43.907276,-0.514162,-1.184614,-0.005347,0.018524,-0.062249,0.129287,9.706094,0.017028,0.030863,0.009578,32.346680,79.069922,25.323047
44.009204,-0.851958,-1.182227,-0.012698,0.019049,-0.071826,0.177171,9.701305,0.019156,0.028734,0.007450,32.346680,79.069922,25.323047
44.110191,-0.850823,-1.175436,-0.019407,0.013829,-0.047884,0.234632,9.562441,0.014899,0.030863,0.006385,32.346680,79.069922,25.323047
44.212109,-0.955917,-1.174500,-0.022962,0.009347,-0.028730,0.248997,9.734824,0.019156,0.031927,0.005321,32.346680,79.069922,25.323047
44.313704,-0.835405,-1.206057,-0.010928,-0.002998,0.009577,0.081403,9.739612,0.020220,0.037248,0.001064,30.738281,81.042187,25.839844
44.415129,-0.860928,-1.197847,-0.020781,0.017903,-0.052672,0.215478,9.739612,0.019156,0.028734,0.006385,30.916992,79.428516,25.667578
44.516286,-0.866381,-1.195664,-0.018879,0.009763,-0.014365,0.215478,9.667786,0.014899,0.025541,0.008514,30.916992,79.428516,25.667578
44.618320,-0.759034,-1.204182,-0.013155,0.002028,0.014365,0.181959,9.720459,0.017028,0.026606,0.010642,30.916992,79.428516,25.667578
44.720367,-0.671592,-1.195920,-0.007535,0.003778,-0.019154,0.114922,9.753978,0.013835,0.034055,0.006385,30.916992,79.428516,25.667578
44.821999,-0.610468,-1.184980,-0.028300,0.015301,-0.023942,0.272939,9.677363,0.025541,0.017028,0.007450,32.346680,80.504297,25.323047
44.923916,-0.975675,-1.182437,-0.029807,0.005525,-0.057461,0.172383,9.734824,0.017028,0.027670,0.007450,32.167969,79.249219,25.495313
45.026340,-0.824589,-1.199644,-0.002891,0.004770,0.062249,-0.014365,9.859322,0.028734,-0.032991,0.212845,29.844727,79.428516,25.323047
45.128194,-1.062192,-1.221257,-0.041395,-0.008831,0.311246,0.665588,9.691728,0.048954,-0.219230,0.008514,30.380859,81.759375,27.217969
45.229542,-1.001330,-1.211633,-0.031893,-0.019077,0.215478,0.272939,9.859322,0.028734,0.002128,0.005321,29.308594,78.532031,25.839844
45.330880,-0.761649,-1.222619,-0.031700,0.000343,0.177171,0.248997,9.835380,0.021284,0.024477,0.006385,29.844727,80.145703,28.423828
45.432957,-0.815168,-1.211259,-0.038623,-0.019656,0.277727,0.292093,9.600749,0.015963,0.034055,0.007450,29.487305,78.352734,27.390234
45.534506,-0.788398,-1.213960,-0.034891,-0.007843,0.153229,0.234632,9.615114,0.017028,0.036184,0.003193,29.129883,78.711328,27.734766
45.636576,-0.957190,-1.213833,-0.029211,-0.021001,0.225055,0.177171,9.782708,0.017028,0.023413,0.009578,30.023438,79.249219,28.251563
45.738018,-0.830472,-1.208314,-0.029494,-0.015391,0.172383,0.248997,9.792285,0.007450,0.041505,-0.005321,30.023438,79.966406,27.562500
