Time, Altitude, Yaw, Pitch, Roll, Ax, Ay, Az, Pitch_rate, Roll_rate,Yaw_rate, Magx, Magy, Magz0.906269,0.175851,-0.147342,0.035822,0.096584,-0.076614,-0.402226,10.098743,0.017028,0.004257,0.017028,10.511719,11.524219,12.825000
1.006212,0.261765,-0.332463,0.033883,0.149590,-0.014365,-0.378284,10.160992,0.011706,0.009578,0.015963,10.686914,11.349609,14.006250
1.106525,-0.111268,-0.513515,0.024373,0.112998,-0.028730,-0.387861,10.237606,0.014899,0.005321,0.012771,10.686914,11.349609,14.006250
1.207784,-0.007175,-0.675803,0.025898,0.040660,-0.009577,-0.421379,10.141838,0.014899,0.010642,0.010642,11.387695,11.698828,14.006250
1.309301,0.081489,-0.767289,0.034350,-0.032436,-0.076614,-0.411803,10.141838,0.014899,0.002128,0.015963,11.387695,10.651172,12.656250
1.411387,-0.096280,-0.788959,0.035756,-0.012907,-0.090980,-0.378284,10.223241,0.017028,0.007450,0.013835,10.511719,10.127344,12.487500
1.512985,-0.090331,-0.759675,0.033116,-0.034166,-0.062249,-0.373495,10.208876,0.012771,0.006385,0.011706,13.139648,11.000391,13.668750
1.614986,-0.195814,-0.736248,0.037676,-0.001576,-0.038307,-0.426168,10.304644,0.017028,0.002128,0.014899,9.986133,10.301953,12.993750
1.716995,-0.119921,-0.838851,0.029421,-0.020055,0.009577,-0.411803,10.199299,0.014899,0.005321,0.014899,10.336523,11.349609,13.331250
1.818424,-0.037031,-0.846288,0.032936,-0.026992,-0.052672,-0.397437,10.170569,0.017028,0.005321,0.014899,10.336523,11.349609,13.331250
1.920393,-0.028632,-0.842184,0.031462,-0.028508,-0.076614,-0.349553,10.232818,0.012771,0.006385,0.012771,10.336523,11.349609,13.331250
2.022131,-0.125019,-0.821720,0.034481,-0.017867,-0.100556,-0.407014,10.218453,0.014899,0.003193,0.013835,10.336523,10.651172,11.981250
2.123664,-0.214897,-0.833311,0.034772,-0.014707,-0.076614,-0.407014,10.194511,0.014899,0.005321,0.012771,10.862109,11.524219,13.837500
2.224959,-0.085390,-0.863842,0.025608,-0.030516,-0.023942,-0.363919,10.180145,0.011706,0.005321,0.014899,9.635742,11.000391,12.656250
2.327408,-0.145291,-0.787106,0.031000,-0.033190,-0.043096,-0.397437,10.065224,0.013835,0.006385,0.012771,11.212500,10.825781,12.487500
2.429246,-0.209213,-0.784370,0.030343,-0.032726,-0.033519,-0.402226,10.204087,0.014899,0.004257,0.012771,10.686914,10.301953,12.656250
2.530795,-0.134179,-0.809805,0.031524,-0.022404,-0.100556,-0.349553,10.285490,0.015963,0.004257,0.009578,10.511719,10.825781,12.825000
2.631873,0.028513,-0.843781,0.022083,-0.025640,-0.014365,-0.320823,10.180145,0.014899,0.007450,0.011706,10.862109,11.873437,14.512500
2.733808,0.132778,-0.850666,0.028672,-0.029491,-0.014365,-0.373495,10.036493,0.018092,0.006385,0.012771,10.862109,11.873437,14.512500
2.835450,-0.072455,-0.756320,0.027728,-0.034409,-0.043096,-0.378284,10.175357,0.012771,0.008514,0.018092,11.387695,9.952734,14.343750
2.937118,-0.266946,-0.767861,0.035676,-0.024439,-0.095768,-0.397437,10.275914,0.017028,0.007450,0.013835,12.438867,11.698828,12.993750
3.038550,0.027159,-0.818481,0.033485,-0.017097,-0.028730,-0.430956,10.194511,0.017028,0.008514,0.012771,10.336523,10.651172,12.656250
3.140577,0.014288,-0.827202,0.031901,-0.023467,-0.023942,-0.378284,10.189722,0.014899,0.004257,0.015963,10.511719,11.175000,13.500000
3.242056,0.045963,-0.798310,0.036066,-0.033919,-0.143652,-0.392649,10.208876,0.014899,0.005321,0.011706,11.212500,10.476562,12.487500
3.344601,-0.271519,-0.777960,0.024549,-0.021833,0.038307,-0.359130,10.175357,0.012771,0.006385,0.012771,10.161328,11.524219,13.162500
3.446335,0.560466,-0.872101,0.034858,-0.016555,-0.047884,-0.440533,10.141838,0.013835,0.006385,0.013835,9.986133,11.698828,12.993750
3.547397,0.010427,-0.887108,0.044958,-0.026312,-0.004788,-0.512359,10.165780,0.015963,0.003193,0.011706,9.986133,11.698828,12.993750
3.650385,0.184813,-0.875172,0.028794,-0.027702,-0.052672,-0.344765,10.074801,0.017028,0.008514,0.012771,9.986133,11.698828,12.993750
3.752509,0.187372,-0.767554,0.018860,-0.023526,-0.067038,-0.359130,10.170569,0.012771,0.004257,0.014899,10.686914,9.952734,13.668750
3.853533,0.000051,-0.799795,0.033983,-0.035641,-0.062249,-0.445322,10.117896,0.012771,0.007450,0.012771,11.562891,11.524219,13.500000
3.955074,0.112666,-0.796225,0.034184,-0.018718,-0.081403,-0.407014,10.223241,0.015963,0.005321,0.015963,10.686914,10.301953,14.006250
4.056588,0.117391,-0.825483,0.038719,-0.017163,-0.043096,-0.474052,10.175357,0.014899,0.003193,0.006385,11.562891,11.873437,13.162500
4.158937,0.133933,-0.829954,0.040477,-0.016590,-0.100556,-0.368707,10.295067,0.018092,0.008514,0.015963,11.562891,12.222656,13.837500
4.260040,0.351087,-0.866560,0.036261,-0.019118,-0.014365,-0.421379,10.290279,0.017028,0.006385,0.013835,10.862109,12.222656,14.175000
4.361604,0.138037,-0.782269,0.028500,-0.033172,-0.047884,-0.383072,10.290279,0.013835,0.005321,0.017028,11.562891,10.825781,13.500000
4.463812,0.349114,-0.779659,0.028033,-0.017041,-0.038307,-0.411803,10.132261,0.014899,0.007450,0.014899,11.562891,10.825781,13.500000
4.564955,0.495654,-0.805877,0.026985,-0.007860,-0.047884,-0.330400,10.299856,0.004257,-0.025541,0.019156,10.336523,10.651172,12.318750
4.666587,0.529132,-0.840963,0.029778,-0.010480,-0.043096,-0.359130,10.275914,0.017028,-0.003193,0.012771,10.161328,11.524219,13.500000
4.768274,0.018212,-0.840889,0.037171,-0.029943,-0.090980,-0.320823,10.122685,0.015963,0.021284,0.012771,12.614063,12.222656,12.825000
4.870338,0.634243,-0.805311,0.021804,-0.023079,0.062249,-0.378284,10.242395,0.018092,-0.086202,-0.004257,11.212500,11.524219,13.500000
4.972699,0.423345,-0.805181,0.033803,-0.027717,-0.320823,-0.330400,10.749965,0.039376,-0.721544,-0.022349,10.511719,10.127344,9.787500
5.075042,0.148303,-0.826466,-0.018956,-0.069531,0.598550,-0.320823,10.228029,0.011706,0.003193,0.012771,10.511719,10.127344,9.787500
5.176723,0.332417,-0.809207,-0.029179,-0.077741,0.842759,-0.296881,10.371682,0.013835,-0.176661,-0.072367,9.635742,9.254297,7.256250
5.278742,0.251260,-0.810049,-0.041694,-0.079678,0.948104,-0.306458,10.419566,0.429947,0.081945,0.055340,9.635742,9.254297,7.256250
5.379955,0.371843,-0.700800,-0.066528,-0.050334,0.823605,0.124498,10.409989,0.394827,-0.026606,-0.026606,9.285352,7.508203,6.918750
5.481826,0.361826,-0.828094,-0.071976,0.042163,0.871489,0.837971,10.453084,0.478901,-0.010642,-0.029798,6.832617,10.301953,4.556250
5.583118,0.105779,-0.981586,-0.085665,0.094108,0.732626,1.479617,10.108319,0.543819,0.009578,-0.062789,3.153516,10.476562,2.700000
5.685104,0.498125,-1.130823,-0.110734,0.121632,0.737414,2.011129,9.969456,0.655562,0.036184,-0.040441,-0.175195,12.048047,-0.843750
5.787152,0.348282,-1.275453,-0.145536,0.137871,0.708684,2.758120,9.979033,0.688553,0.015963,-0.040441,-2.978320,14.143359,-2.193750
5.889037,0.704703,-1.405295,-0.200710,0.145090,0.718260,3.620033,9.514557,0.741764,0.014899,0.001064,-8.584570,16.238672,-6.918750
5.990859,0.317865,-1.534578,-0.264443,0.123557,0.660800,4.185065,9.423578,0.684296,-0.004257,-0.050019,-8.584570,16.238672,-6.918750
6.092607,0.610390,-1.655515,-0.344073,0.094383,0.349553,5.090073,8.628703,0.730058,0.051083,-0.032991,-14.891602,16.238672,-12.656250
6.194010,0.217725,-1.781506,-0.420267,0.018094,0.723049,5.837064,8.212112,0.433139,0.017028,-0.167083,-16.993945,16.587891,-15.018750
6.295835,0.447321,-1.925766,-0.482032,-0.092220,0.445322,5.837064,8.293515,0.123450,-0.102166,-0.034055,-20.322656,16.064062,-18.225000
6.398112,0.604900,-2.083627,-0.505472,-0.231003,0.416591,5.918467,8.073248,0.147927,0.011706,-0.069175,-20.322656,16.064062,-18.225000
6.500257,0.350339,-2.230243,-0.500012,-0.351192,0.354342,6.191405,8.303091,0.450167,0.047890,-0.087266,-22.249805,17.635547,-20.418750
6.602294,0.362058,-2.346463,-0.532324,-0.454730,0.186748,6.880936,7.714118,0.650241,-0.003193,-0.048954,-22.249805,17.635547,-20.418750
6.704757,0.362466,-2.372761,-0.572648,-0.527649,0.129287,7.249643,7.594408,0.877985,0.036184,-0.095780,-23.300977,18.683203,-24.131250
6.806694,0.561668,-2.399021,-0.680997,-0.570225,0.354342,7.943961,5.755661,0.919490,-0.058532,-0.038312,-23.300977,18.683203,-24.131250
6.908069,0.243226,-2.459800,-0.779966,-0.678391,0.129287,8.528146,4.817134,0.891820,0.091523,0.058532,-29.783203,18.159375,-36.450000
7.009836,0.442693,-2.546419,-0.854943,-0.827131,-0.100556,9.246407,3.883395,0.594901,0.026606,-0.002128,-32.761523,17.984766,-43.031250
7.111146,0.365659,-2.642828,-0.853553,-0.953170,0.095768,9.299079,3.768473,0.225616,-0.018092,-0.001064,-34.338281,18.508594,-45.225000
7.212827,0.344707,-2.622229,-0.890966,-0.931909,-0.483629,9.174581,3.227384,0.164955,0.023413,0.014899,-34.863867,19.032422,-49.443750
7.315247,0.448765,-2.640892,-0.885255,-0.934905,-0.052672,9.241618,3.754108,0.227744,0.081945,0.022349,-34.863867,19.032422,-48.768750
7.417005,0.234222,-2.649611,-0.916932,-0.954687,-0.636858,10.654197,2.049437,0.722608,0.420369,0.159634,-36.265430,17.286328,-48.768750
7.518810,0.329415,-2.760875,-0.968607,-1.097395,-0.397437,10.251972,0.962469,0.210716,0.164955,0.005321,-36.265430,17.286328,-48.768750
7.620121,0.581602,-2.769343,-0.945582,-1.137178,0.368707,9.811438,2.269703,0.050019,0.088331,0.000000,-34.688672,11.175000,-53.662500
7.721787,0.669465,-2.737734,-0.950066,-1.095358,0.330400,9.629479,2.341529,0.212845,0.063853,0.061725,-35.739844,10.476562,-54.000000
7.824467,0.377411,-2.790963,-0.965450,-1.164450,0.119710,9.538499,2.197877,0.224551,0.060661,0.031927,-35.739844,9.428906,-55.687500
7.925716,0.157021,-2.847322,-0.990303,-1.226600,0.023942,9.835380,2.217031,0.346937,0.039376,0.051083,-35.739844,9.428906,-55.687500
8.027467,0.437602,-2.966153,-1.003491,-1.354886,-0.014365,9.974244,1.101333,0.003193,0.013835,0.025541,-35.389453,8.381250,-56.362500
8.129710,0.198025,-2.926314,-0.980379,-1.324957,0.067038,9.835380,1.288080,0.103230,0.035119,0.040441,-36.615820,4.365234,-56.193750
8.231125,0.541092,-2.953596,-1.008718,-1.364149,0.234632,9.710882,1.120486,0.147927,0.228808,0.079817,-35.915039,4.714453,-57.881250
8.332087,0.171388,-2.984427,-1.008709,-1.387896,-0.019154,9.868899,1.010353,0.074496,0.012771,0.032991,-35.915039,4.714453,-57.881250
8.433789,0.554664,-2.998057,-1.003525,-1.409452,0.028730,9.926360,1.082179,-0.015963,0.009578,0.011706,-37.316602,5.063672,-59.231250
8.536242,0.194013,-2.970154,-1.002942,-1.384929,0.105345,9.935937,0.948104,0.088331,0.015963,0.011706,-36.440625,4.539844,-57.712500
8.637367,0.235172,-2.967134,-1.032081,-1.385019,0.138864,9.931148,0.976834,0.065982,0.007450,0.014899,-35.564648,3.666797,-59.231250
8.739732,0.039582,-2.996715,-1.043559,-1.411131,0.067038,9.835380,0.823605,0.073431,0.010642,0.009578,-35.915039,4.016016,-62.268750
8.841852,0.204642,-2.966834,-1.029407,-1.378838,0.119710,9.844957,1.010353,0.108551,0.009578,0.009578,-35.039062,3.492187,-59.737500
8.943557,0.190957,-3.025122,-1.040328,-1.446415,0.038307,10.007763,0.770933,0.042569,0.032991,0.006385,-35.739844,4.190625,-61.087500
9.045001,0.213503,-2.995024,-1.036007,-1.405538,0.043096,9.931148,0.818817,-0.019156,0.009578,0.005321,-35.739844,4.190625,-61.087500
9.146875,0.074473,-3.010762,-1.017937,-1.426213,0.071826,9.907206,0.751779,0.001064,0.024477,0.019156,-37.141406,3.841406,-60.750000
9.247861,0.258907,-2.986540,-1.019410,-1.394149,0.062249,9.835380,0.876278,0.023413,-0.004257,0.019156,-37.491797,4.889062,-61.762500
9.350080,0.306373,-2.992808,-1.029576,-1.404083,0.033519,9.950302,0.881066,0.065982,0.007450,0.010642,-36.090234,4.190625,-61.087500
9.452128,0.331821,-3.046449,-1.035624,-1.468121,0.134075,9.926360,0.450110,0.135156,0.017028,0.031927,-36.090234,4.190625,-61.087500
9.553981,0.504065,-3.033590,-1.017531,-1.460727,0.138864,9.854534,0.574608,0.116000,0.011706,0.024477,-37.316602,5.762109,-60.581250
9.655819,0.175250,-3.053157,-1.029026,-1.494156,0.205901,9.830592,0.325611,0.142606,0.009578,0.014899,-36.440625,4.190625,-60.750000
9.757057,0.118385,-3.111164,-1.041789,-1.552412,0.215478,9.921572,0.105345,0.046826,0.008514,0.021284,-36.265430,4.365234,-61.931250
9.859511,0.416475,-3.141274,-1.039807,-1.570808,0.114922,9.868899,0.076614,0.028734,0.009578,0.017028,-36.265430,4.365234,-61.931250
9.962070,0.406685,-3.093279,-1.034857,-1.535285,0.210690,9.816227,0.210690,0.006385,0.002128,0.014899,-35.915039,5.063672,-60.581250
10.064076,0.142344,-3.076741,-1.027794,-1.529126,0.363919,9.888053,0.268151,0.006385,0.028734,0.017028,-36.791016,3.841406,-61.087500
10.165945,0.136575,-3.124482,-1.003991,-1.563090,0.244209,9.988609,0.129287,-0.027670,0.013835,0.004257,-37.491797,2.444531,-58.725000
10.267903,0.321352,-3.070295,-1.014508,-1.508780,0.086191,9.931148,0.392649,-0.003193,0.006385,0.010642,-36.966211,2.269922,-59.568750
10.369520,0.191838,-3.064385,-1.013904,-1.496633,0.162806,9.854534,0.407014,-0.008514,0.000000,0.007450,-36.966211,2.269922,-59.568750
10.471571,0.101495,-3.105170,-1.020784,-1.534372,0.119710,9.926360,0.248997,0.029798,0.010642,0.019156,-36.265430,3.666797,-59.231250
10.572545,-0.001766,-3.058577,-1.042346,-1.489782,0.129287,9.878476,0.402226,0.017028,0.008514,0.022349,-33.987891,3.841406,-58.387500
10.673858,0.567376,-3.056204,-1.031226,-1.497838,0.186748,9.926360,0.311246,0.038312,0.002128,0.014899,-35.039062,3.492187,-58.725000
10.776004,0.203780,-3.095391,-1.008648,-1.531037,0.153229,9.979033,0.196325,0.055340,0.006385,0.018092,-37.491797,3.492187,-58.725000
10.877639,0.055833,-3.073216,-1.016310,-1.512188,0.191536,9.931148,0.277727,0.002128,0.007450,0.011706,-36.440625,3.492187,-59.400000
10.979796,0.317888,-3.106463,-1.034142,-1.534445,0.095768,9.840169,0.244209,0.013835,0.005321,0.011706,-36.265430,2.968359,-59.906250
11.081340,0.350534,-3.096091,-1.027080,-1.523827,0.114922,9.959879,0.301669,0.005321,0.008514,0.022349,-36.265430,2.968359,-59.906250
11.183391,0.131382,-3.074846,-1.025608,-1.524238,0.229843,9.888053,0.282516,0.025541,0.005321,0.013835,-36.265430,2.968359,-59.906250
11.285732,0.124892,-3.074172,-1.018038,-1.508728,0.148441,9.844957,0.339977,0.006385,0.002128,0.006385,-36.265430,3.666797,-58.893750
11.386875,0.347025,-3.104920,-1.026112,-1.542244,0.124498,9.979033,0.215478,0.044697,0.009578,0.015963,-36.265430,1.920703,-59.906250
11.488517,0.124905,-3.102820,-1.034941,-1.524054,-0.004788,9.907206,0.263362,0.013835,0.007450,0.010642,-36.090234,3.142969,-60.750000
11.589714,0.297628,-3.089578,-1.025063,-1.525289,0.114922,9.926360,0.215478,0.009578,0.007450,0.013835,-36.440625,2.793750,-60.075000
11.691888,0.210284,-3.059905,-1.016691,-1.492056,0.158017,9.868899,0.301669,0.012771,0.007450,0.011706,-36.265430,3.317578,-58.893750
11.793815,-0.016943,-3.116789,-1.018960,-1.546717,0.071826,9.911995,0.162806,0.036184,0.001064,0.019156,-36.265430,3.317578,-58.893750
11.895982,0.080692,-3.068425,-1.035337,-1.493424,0.062249,9.835380,0.387861,-0.013835,-0.002128,0.010642,-35.739844,4.190625,-60.412500
11.998130,0.057462,-3.072386,-1.030579,-1.499696,0.129287,9.950302,0.373495,0.068110,0.010642,0.018092,-35.389453,3.142969,-59.062500
12.099753,0.175374,-3.071348,-1.014809,-1.501663,0.110133,9.864111,0.368707,0.002128,0.009578,0.011706,-36.440625,4.190625,-58.725000
12.201645,0.237443,-3.065647,-1.015095,-1.498693,0.153229,9.859322,0.450110,0.017028,0.006385,0.012771,-36.791016,1.746094,-59.400000
12.304384,0.330678,-3.099408,-1.022718,-1.540199,0.153229,9.931148,0.167594,-0.013835,-0.001064,0.013835,-36.440625,3.492187,-59.737500
12.406240,0.377895,-3.067987,-1.022222,-1.505405,0.143652,9.911995,0.316035,0.020220,0.003193,0.006385,-36.440625,3.492187,-59.737500
12.507524,0.140026,-3.052472,-1.035687,-1.477137,0.033519,9.888053,0.526724,-0.010642,0.006385,0.011706,-34.688672,1.396875,-59.400000
12.609648,0.066438,-3.106081,-1.025770,-1.525743,-0.028730,10.046070,0.234632,-0.019156,0.039376,0.030863,-35.739844,2.793750,-59.062500
12.711708,0.326717,-3.066863,-1.026841,-1.516035,0.383072,10.022128,-0.076614,0.069175,0.007450,0.014899,-35.739844,2.793750,-59.062500
12.812943,0.309469,-3.032175,-1.006811,-1.469116,0.234632,9.921572,0.531513,-0.168147,-0.006385,-0.002128,-36.791016,2.793750,-58.725000
12.915018,0.479088,-3.044372,-1.002530,-1.467822,0.019154,10.012551,0.574608,0.036184,0.004257,0.012771,-38.017383,1.920703,-59.906250
13.017453,0.035765,-3.075110,-0.978955,-1.499507,0.067038,9.864111,0.502782,-0.008514,0.002128,0.009578,-39.594141,2.444531,-59.062500
13.119632,0.065943,-3.060824,-1.022894,-1.479641,0.033519,9.873688,0.493206,0.032991,0.002128,0.010642,-35.739844,2.793750,-58.725000
13.221207,0.152947,-3.027333,-1.020776,-1.453771,0.138864,9.878476,0.603339,0.009578,0.005321,0.005321,-35.739844,2.793750,-58.725000
13.322805,0.441545,-3.042176,-1.011470,-1.464775,0.090980,9.907206,0.512359,0.093652,0.003193,0.013835,-36.791016,1.396875,-59.062500
13.425014,0.315855,-3.066838,-1.024426,-1.490822,0.057461,9.864111,0.430956,0.084074,-0.003193,0.000000,-36.615820,3.666797,-60.243750
13.526900,0.197733,-3.106011,-1.049935,-1.514308,-0.090980,10.002975,0.330400,0.023413,-0.047890,-0.032991,-35.389453,2.793750,-61.762500
13.628641,0.003871,-3.102384,-1.054429,-1.524463,-0.004788,10.012551,0.311246,0.018092,-0.002128,0.010642,-35.564648,4.016016,-62.606250
13.729991,0.397986,-3.090150,-1.042043,-1.514361,0.038307,9.873688,0.373495,0.020220,0.017028,0.011706,-36.966211,4.016016,-61.931250
13.832584,0.212905,-3.104526,-1.047108,-1.525669,-0.019154,10.055647,0.277727,0.002128,0.030863,0.030863,-36.090234,3.841406,-62.437500
13.934763,0.355724,-2.969880,-1.038943,-1.368788,-0.023942,9.730036,1.043872,0.063853,0.024477,0.026606,-36.090234,3.841406,-62.437500
14.035919,0.240000,-3.121031,-1.049247,-1.553072,-0.105345,10.031705,-0.057461,0.121322,0.074496,0.127707,-36.090234,3.841406,-62.437500
14.137635,0.015426,-3.074479,-1.019793,-1.515659,0.258574,9.916783,0.373495,-0.058532,0.028734,0.249028,-37.316602,5.063672,-60.918750
14.240124,0.242892,-2.981215,-1.055852,-1.471206,0.799663,9.835380,0.502782,0.052147,-0.032991,0.037248,-35.389453,2.793750,-63.112500
14.341871,0.413250,-3.032104,-1.063756,-1.512807,0.656011,9.993398,0.320823,0.015963,0.003193,-0.170276,-34.338281,2.793750,-62.100000
14.443708,0.290486,-3.037571,-1.038811,-1.465756,0.186748,9.816227,0.483629,0.051083,-0.038312,-0.112808,-35.389453,3.142969,-60.412500
14.545573,0.236794,-3.108266,-1.026757,-1.545902,0.095768,9.988609,0.177171,0.021284,-0.010642,-0.027670,-36.791016,3.142969,-60.412500
14.647411,0.153451,-3.092025,-1.023810,-1.500132,-0.043096,9.859322,0.407014,0.018092,0.009578,0.020220,-36.791016,3.142969,-60.412500
14.748402,0.192829,-3.064369,-1.034712,-1.525262,0.277727,9.974244,0.263362,0.028734,0.035119,0.114936,-36.440625,2.793750,-61.425000
14.850672,0.275853,-3.099167,-1.019236,-1.529605,0.162806,9.864111,0.220267,-0.059597,0.032991,-0.020220,-36.791016,0.698437,-59.737500
14.951810,0.274316,-3.030857,-1.047397,-1.481070,0.430956,9.969456,0.526724,-0.139413,0.076624,-0.073431,-33.987891,0.349219,-60.075000
15.053935,0.491183,-3.040379,-1.036984,-1.463016,0.052672,9.955091,0.593762,-0.038312,0.014899,-0.011706,-35.039062,3.142969,-59.737500
15.155948,0.445183,-3.001809,-1.006769,-1.421680,0.153229,9.935937,0.833182,-0.071303,0.003193,0.006385,-36.966211,2.968359,-58.893750
15.257805,-0.018238,-2.991511,-1.019893,-1.400746,0.043096,9.873688,0.861913,0.158569,-0.013835,0.017028,-35.739844,2.793750,-59.062500
15.359519,0.340594,-3.122943,-1.028143,-1.560197,0.114922,10.093954,0.047884,0.094716,0.013835,0.043633,-35.739844,2.793750,-59.062500
15.460412,0.332230,-3.029599,-1.022554,-1.445103,-0.004788,9.816227,0.689530,-0.179854,0.009578,0.009578,-35.739844,2.793750,-59.062500
15.562096,0.457418,-2.970288,-0.993237,-1.378945,0.004788,9.830592,1.024718,0.060661,0.012771,0.017028,-37.666992,2.269922,-59.231250
15.663916,0.157118,-3.046612,-1.036675,-1.467536,0.076614,9.935937,0.560243,0.039376,0.009578,0.009578,-34.863867,0.873047,-59.231250
15.766922,0.315818,-3.002022,-1.016441,-1.424954,0.186748,9.830592,0.718260,0.079817,-0.014899,0.006385,-36.090234,1.396875,-59.062500
15.868181,0.645581,-3.105854,-1.015087,-1.522145,0.052672,10.117896,0.201113,0.034055,0.006385,0.022349,-35.214258,1.222266,-58.218750
15.970379,0.383505,-3.017546,-1.007122,-1.430944,0.052672,9.888053,0.727837,0.063853,0.000000,0.010642,-36.791016,2.444531,-58.725000
16.072522,0.242541,-3.025600,-1.002482,-1.458812,0.105345,9.864111,0.617704,0.011706,0.008514,0.005321,-37.316602,2.968359,-58.893750
16.173907,0.457461,-3.050468,-1.003973,-1.474968,0.114922,9.883264,0.488417,0.007450,0.003193,0.017028,-37.316602,2.968359,-58.893750
16.276394,0.317990,-3.065936,-1.025883,-1.483066,0.004788,9.883264,0.450110,0.058532,0.006385,0.019156,-36.265430,2.968359,-59.906250
16.378583,0.407085,3.092900,-1.014961,-1.604497,-0.363919,9.854534,-0.052672,-0.691746,0.034055,0.009578,-36.090234,1.746094,-59.737500
16.480553,0.291612,-2.965311,-0.999722,-1.350767,0.095768,9.749189,1.790863,0.348001,0.017028,0.023413,-36.791016,2.793750,-58.387500
16.582291,0.183309,-3.017446,-1.000156,-1.474527,0.641646,9.959879,0.502782,-0.002128,-0.061725,-0.046826,-37.141406,2.095312,-57.712500
16.684131,0.221249,-3.043018,-1.001741,-1.457825,0.301669,9.873688,0.732626,0.062789,-0.010642,-0.025541,-36.791016,2.793750,-57.712500
16.786568,0.114871,-3.031169,-0.998064,-1.450251,0.057461,9.835380,0.569820,0.039376,-0.001064,0.018092,-36.090234,1.396875,-56.362500
16.887950,-0.234785,-3.035235,-0.997475,-1.442159,0.019154,9.955091,0.727837,0.031927,0.003193,-0.023413,-36.090234,1.396875,-56.362500
16.989838,0.010175,-3.077833,-1.020326,-1.493672,0.019154,9.969456,0.407014,0.024477,0.014899,-0.002128,-34.688672,2.793750,-56.362500
17.091622,0.241932,-3.069479,-1.002346,-1.491818,0.038307,10.089166,0.445322,0.036184,0.025541,0.007450,-36.090234,2.444531,-56.025000
17.194277,0.097685,-3.077582,-0.998209,-1.485895,-0.081403,9.950302,0.440533,0.052147,0.018092,0.005321,-36.090234,2.444531,-56.025000
17.295746,0.358529,-3.055845,-1.007243,-1.436528,-0.426168,9.979033,0.713472,0.047890,0.178790,-0.006385,-35.564648,1.571484,-56.531250
17.398036,0.046340,-3.102039,-0.996789,-1.541494,0.162806,10.108319,0.330400,0.014899,-0.036184,-0.003193,-36.791016,0.000000,-57.037500
17.499743,0.355141,3.138282,-1.020296,-1.558006,-0.105345,9.892841,0.000000,0.121322,-0.024477,0.009578,-36.090234,2.095312,-58.387500
17.601323,0.478129,-3.084344,-1.019989,-1.473016,-0.210690,9.840169,0.469264,0.058532,-0.039376,-0.043633,-36.265430,4.714453,-58.893750
17.702824,0.195417,-3.103109,-1.019290,-1.511604,-0.043096,9.878476,0.339977,-0.051083,-0.036184,0.005321,-36.265430,4.714453,-58.893750
17.804908,0.068731,-3.103837,-0.963525,-1.507707,-0.177171,10.012551,0.354342,0.036184,0.020220,0.007450,-37.141406,0.698437,-54.337500
17.906739,0.390104,-3.122800,-0.983521,-1.511909,-0.263362,9.979033,0.244209,0.009578,0.041505,0.019156,-37.491797,1.047656,-56.362500
18.008681,0.356628,-3.118138,-0.994423,-1.534477,-0.411803,9.883264,0.526724,-0.104294,0.024477,-0.026606,-36.265430,0.174609,-56.193750
18.109892,0.370717,-3.120408,-0.971977,-1.531706,0.100556,9.763554,0.201113,-0.035119,0.005321,0.055340,-37.842188,2.793750,-55.350000
18.212041,0.017480,-3.061370,-0.977385,-1.450325,-0.296881,9.945514,0.229843,0.056404,-0.053211,0.034055,-36.791016,3.142969,-55.350000
18.313492,0.420594,-3.084651,-0.986635,-1.470878,-0.435745,9.854534,0.430956,0.041505,0.029798,0.024477,-37.141406,1.396875,-56.362500
18.414766,0.184951,-3.021238,-0.982772,-1.429230,0.100556,9.816227,0.818817,0.021284,-0.005321,-0.017028,-37.141406,1.396875,-56.362500
18.516658,0.197171,-3.050498,-0.985553,-1.455831,0.057461,9.792285,0.675165,0.050019,0.037248,-0.041505,-37.141406,1.396875,-56.362500
18.618814,0.192914,-3.110398,-0.988312,-1.514053,-0.239420,9.768343,0.502782,-0.052147,0.023413,-0.007450,-36.265430,0.873047,-55.181250
18.720646,0.089006,-3.071159,-1.012741,-1.480712,-0.095768,9.801862,0.392649,-0.074496,0.009578,0.019156,-35.389453,1.047656,-57.037500
18.821883,0.182621,-3.137826,-0.999218,-1.524589,-0.407014,9.979033,0.354342,-0.026606,0.151120,0.030863,-36.615820,1.920703,-56.868750
18.922734,0.135725,-3.135278,-0.979872,-1.516450,-0.387861,9.811438,0.292093,0.031927,0.001064,0.015963,-37.491797,2.095312,-55.687500
19.024474,0.552188,-3.114883,-1.000734,-1.491092,-0.339977,9.763554,0.660800,-0.018092,-0.004257,0.051083,-36.265430,2.619141,-56.531250
19.126848,0.250017,-3.107553,-0.974146,-1.510755,-0.172383,9.931148,0.339977,0.021284,-0.019156,0.023413,-37.141406,1.396875,-54.675000
19.228455,0.368180,-3.101189,-0.982063,-1.483924,-0.814029,9.979033,-0.081403,0.179854,-0.047890,0.022349,-36.791016,0.000000,-54.675000
19.329964,0.121161,-3.094867,-0.974793,-1.482492,-0.301669,9.840169,0.536301,0.039376,0.002128,0.018092,-36.791016,-0.349219,-54.337500
19.431176,0.137978,-3.067065,-0.974874,-1.445911,-0.272939,9.883264,0.699107,0.046826,0.021284,-0.028734,-36.966211,0.174609,-54.843750
19.532514,0.688815,-3.047054,-0.958872,-1.444688,0.019154,9.773131,0.703895,0.069175,-0.012771,-0.023413,-38.542969,1.047656,-55.350000
19.634789,-0.190775,3.114700,-0.981880,-1.561231,-0.229843,9.897630,-0.162806,0.011706,0.014899,-0.017028,-36.440625,1.746094,-55.012500
19.736675,0.099525,-3.067555,-0.978841,-1.433351,-0.646434,9.907206,-0.023942,0.048954,0.028734,0.078753,-37.141406,0.000000,-54.675000
19.838190,0.087955,-3.086296,-0.981035,-1.475427,-0.306458,9.868899,0.565032,-0.019156,0.040441,0.038312,-36.440625,1.047656,-55.350000
19.940030,0.362192,-3.112661,-0.989049,-1.530513,0.646434,10.041282,0.263362,0.008514,0.117065,0.068110,-36.440625,1.047656,-55.350000
20.041269,0.306071,-3.104211,-0.977635,-1.507015,0.009577,9.998186,0.316035,0.004257,0.019156,0.027670,-36.791016,1.746094,-55.350000
20.142880,0.239684,-3.093411,-0.966811,-1.500995,-0.081403,9.864111,0.392649,0.009578,-0.077688,-0.006385,-37.842188,-0.349219,-55.012500
20.244562,0.344861,-3.116540,-0.964610,-1.515757,-0.244209,9.907206,0.411803,-0.019156,-0.029798,-0.017028,-38.542969,-0.349219,-55.687500
20.346153,0.091784,-3.111718,-0.973318,-1.512124,-0.177171,9.921572,0.330400,0.070239,0.002128,-0.024477,-37.491797,1.746094,-55.012500
20.447480,0.222935,-3.122071,-0.972800,-1.526720,0.555455,10.299856,0.081403,-0.034055,-0.007450,0.011706,-37.491797,1.746094,-55.012500
20.548995,0.101889,-3.093950,-0.956908,-1.472253,0.282516,10.007763,0.186748,0.094716,0.096844,0.026606,-38.017383,1.920703,-53.831250
20.650876,0.270212,-3.080657,-0.970626,-1.493065,0.191536,9.883264,0.603339,-0.058532,-0.024477,0.061725,-37.316602,0.873047,-54.843750
20.752851,0.356434,-3.100482,-0.992277,-1.473915,-0.373495,9.926360,0.526724,0.095780,-0.061725,-0.053211,-36.440625,2.095312,-55.687500
20.854299,0.134826,-3.097937,-0.978647,-1.479702,-0.071826,9.768343,0.660800,-0.042569,-0.177725,0.001064,-37.141406,1.746094,-55.350000
20.955870,0.114170,-3.109450,-0.969711,-1.516022,-0.172383,10.160992,0.316035,0.039376,0.069175,-0.040441,-38.192578,0.000000,-55.687500
21.057548,0.314534,-3.092580,-0.966859,-1.477632,-0.311246,9.988609,0.416591,-0.052147,0.102166,0.133028,-38.192578,0.000000,-55.687500
21.159436,0.138017,-3.109270,-0.968771,-1.520553,-0.095768,10.184934,0.296881,0.045762,0.094716,0.045762,-37.666992,0.523828,-54.843750
21.260897,0.068502,-3.076036,-0.975749,-1.464866,-0.282516,9.897630,0.651223,0.097909,-0.039376,-0.021284,-38.367773,-0.174609,-56.868750
21.362588,0.113459,3.088213,-0.980225,-1.617439,-0.038307,10.189722,-0.632069,-0.043633,-0.286276,0.035119,-38.367773,1.222266,-57.206250
21.464776,0.219660,-3.019611,-0.968173,-1.397512,-0.177171,9.509769,0.919373,0.257542,-0.157505,-0.028734,-38.017383,0.174609,-55.856250
21.566415,0.536094,-3.045488,-0.997233,-1.452826,0.119710,9.816227,0.751779,0.651305,-0.097909,0.053211,-36.615820,4.016016,-57.543750
21.667987,0.225819,3.056475,-1.047430,-1.683168,0.627281,9.380482,-1.302446,0.972701,0.127707,0.078753,-36.615820,4.016016,-57.543750
21.769205,0.043474,2.812328,-1.016119,-1.934575,-0.775721,10.371682,-3.902549,-0.163891,-0.285212,0.008514,-36.615820,4.016016,-57.543750
21.870849,0.198505,2.963746,-0.829296,-1.758777,-0.349553,9.710882,-0.842759,-0.843930,-0.059597,-0.112808,-42.572461,8.555859,-48.768750
21.972427,0.483898,3.126819,-0.814777,-1.551296,-0.196325,9.471462,0.387861,-0.050019,-0.012771,0.017028,-42.747656,7.333594,-46.237500
22.074260,0.291129,3.070263,-0.797623,-1.653749,0.129287,10.079589,-0.962469,-0.121322,-0.374607,0.008514,-42.222070,11.698828,-43.031250
22.175928,0.101725,3.053336,-0.869475,-1.662975,-1.211466,10.060435,-0.287304,-0.386313,-0.276698,-0.031927,-39.243750,13.270312,-61.425000
22.278280,-0.043840,-3.107138,-0.931503,-1.515331,-0.105345,9.749189,0.847547,-0.266056,-0.458681,-0.052147,-36.966211,-0.174609,-55.181250
22.380490,-0.037166,-3.005697,-0.997520,-1.394446,-0.201113,9.959879,1.072602,0.156441,-0.153248,0.026606,-40.294922,7.682812,-65.137500
22.482003,0.348182,-3.116247,-1.031723,-1.519583,-0.201113,9.868899,0.244209,0.186239,-0.022349,0.025541,-40.119727,16.238672,-65.643750
22.584023,0.331843,3.135676,-1.018393,-1.548368,-0.268151,9.955091,0.114922,0.072367,-0.029798,0.045762,-41.521289,16.238672,-65.981250
22.685810,0.116805,-3.105945,-1.031266,-1.533034,1.125275,8.777143,0.354342,0.243707,0.241579,0.034055,-38.367773,11.000391,-63.618750
22.787103,0.083563,3.135233,-1.035599,-1.553067,-0.220267,10.031705,0.090980,0.110679,0.034055,0.027670,-40.645313,11.873437,-67.837500
22.888889,0.329322,-3.121126,-1.052286,-1.548497,0.062249,9.940725,0.186748,0.097909,0.061725,0.015963,-39.243750,11.873437,-68.850000
22.989744,0.093373,3.121594,-1.063658,-1.567462,-0.311246,9.888053,0.100556,0.209652,0.086202,0.062789,-38.367773,11.000391,-69.018750
23.092027,0.290859,3.085411,-1.065284,-1.631430,0.181959,10.362105,0.536301,0.282019,0.475708,0.022349,-38.367773,11.000391,-69.018750
23.193601,-0.073764,2.908190,-1.072929,-1.791071,1.613692,12.066776,-3.936068,0.073431,-0.194753,0.135156,-38.367773,11.000391,-69.018750
23.295309,-0.262364,3.124113,-0.995864,-1.617178,0.263362,9.777920,-0.330400,0.258606,-0.130900,-0.010642,-40.294922,22.699219,-62.100000
23.397022,0.226671,3.032212,-0.992914,-1.753624,0.541090,9.476250,0.411803,0.103230,0.709838,-0.058532,-40.470117,18.683203,-65.643750
23.498619,0.379740,2.904487,-1.010247,-1.829674,0.225055,9.773131,-1.417367,0.550204,0.492736,0.262863,-40.294922,9.778125,-64.800000
23.600122,0.179364,2.824030,-0.963112,-1.977886,-0.459687,10.419566,-2.825158,0.131964,0.277763,-0.361836,-38.367773,0.174609,-56.531250
23.701728,0.519812,2.834520,-0.884812,-1.976591,1.024718,8.638280,-2.078167,-1.430317,-0.209652,-0.113872,-38.367773,0.174609,-56.531250
23.803417,0.045141,2.947112,-0.768347,-1.776037,-0.703895,9.303868,2.068590,-0.959930,0.428882,-0.392699,-38.542969,9.778125,-28.350000
23.905375,-0.116158,2.947127,-0.729549,-1.692956,-1.728614,9.519346,1.450886,0.104294,0.614057,-0.025541,-36.615820,19.032422,-45.393750
24.006969,0.471925,3.020590,-0.816931,-1.613591,-0.928950,9.916783,0.555455,-0.037248,-0.026606,0.068110,-37.491797,21.651562,-41.512500
24.109149,0.329527,-3.132205,-0.860586,-1.456488,-1.024718,9.586383,1.307234,-0.071303,-0.020220,0.011706,-36.090234,19.905469,-42.862500
24.210747,0.193860,-3.088865,-0.918793,-1.352107,-1.608904,3.098097,2.853888,0.200074,-0.037248,0.094716,-36.791016,20.254687,-42.187500
24.311905,0.325888,-2.983118,-0.905046,-1.342594,1.848324,10.060435,0.488417,0.468259,-0.254350,0.424625,-35.214258,16.238672,-46.743750
24.412904,0.416048,3.119703,-0.954792,-1.575055,0.636858,10.290279,-1.613692,0.087266,0.292662,0.203267,-35.214258,16.238672,-46.743750
24.514497,0.144049,3.138324,-0.908722,-1.567937,0.047884,10.151415,0.373495,-0.498057,-0.175597,-0.050019,-33.987891,2.444531,-44.550000
24.615768,0.298094,-3.028780,-0.796568,-1.375331,-0.497994,9.591172,1.656788,-0.137285,0.123450,-0.027670,-36.966211,6.460547,-37.968750
24.716925,0.320147,-2.979477,-0.949475,-1.362066,-0.057461,9.734824,1.187524,0.450167,0.070239,0.061725,-33.637500,8.730469,-46.912500
24.818558,0.065983,3.104724,-0.975053,-1.597661,0.287304,10.180145,-1.321599,0.234129,0.026606,0.083009,-33.637500,6.635156,-48.262500
24.920083,0.048589,3.126508,-0.958761,-1.589997,0.086191,10.175357,0.095768,-0.230937,-0.062789,0.042569,-33.637500,6.635156,-48.262500
25.022274,0.188389,-3.104581,-0.893157,-1.487357,-0.205901,9.787496,0.555455,-0.312882,0.015963,-0.097909,-34.863867,5.412891,-43.368750
25.124043,0.184001,-3.025918,-0.946771,-1.379979,-0.387861,9.830592,1.115698,-0.078753,0.110679,-0.164955,-34.688672,10.127344,-47.587500
25.225424,0.252643,-3.067286,-0.954964,-1.381029,-0.799663,9.935937,1.082179,-0.068110,-0.102166,-0.102166,-32.936719,11.873437,-44.887500
25.326874,0.507271,-2.978224,-0.953134,-1.304482,-0.569820,9.710882,1.470040,-0.006385,0.069175,0.023413,-33.987891,13.619531,-46.237500
25.428512,0.059996,-3.096182,-0.959726,-1.428492,-0.191536,10.036493,1.312023,-0.015963,-0.203267,-0.040441,-33.987891,13.619531,-46.237500
25.529932,-0.204469,-3.060405,-0.934824,-1.356243,-0.938527,9.710882,1.259350,0.159634,0.013835,0.100037,-35.039062,13.968750,-44.212500
25.630985,0.547960,-3.042614,-0.926427,-1.371553,-0.440533,9.773131,1.288080,0.201138,-0.194753,0.339488,-35.214258,14.841797,-44.043750
25.733088,0.094822,-3.024691,-0.920424,-1.408590,-0.158017,10.036493,0.967257,0.054275,0.018092,-0.073431,-35.389453,12.222656,-45.900000
25.834543,0.190365,-3.044817,-0.956156,-1.405231,0.014365,10.137050,0.708684,-0.009578,-0.012771,0.051083,-33.287109,5.936719,-46.912500
25.935495,0.254855,-3.101576,-0.959636,-1.451281,-0.560243,9.830592,0.675165,0.065982,0.006385,-0.004257,-33.287109,5.936719,-46.912500
26.037430,0.254171,-3.006415,-0.972395,-1.373421,-0.296881,9.888053,1.130063,-0.063853,0.003193,-0.006385,-32.586328,10.127344,-47.587500
26.139391,0.136519,-3.028957,-0.950310,-1.372289,-0.507571,9.873688,1.139640,0.064918,-0.019156,-0.022349,-34.338281,10.476562,-47.250000
26.240433,0.375338,-3.026725,-0.958411,-1.435806,0.229843,10.070012,0.703895,0.079817,-0.106422,0.055340,-34.863867,11.349609,-48.768750
26.341632,0.169262,-3.030226,-0.962993,-1.401726,-0.445322,9.773131,1.264138,-0.052147,0.042569,0.017028,-33.987891,10.825781,-48.600000
26.443741,0.195442,-2.980564,-0.974380,-1.343270,0.057461,9.964667,1.120486,0.175597,-0.058532,0.116000,-34.338281,12.921094,-49.275000
26.545317,0.055585,-3.055021,-0.989748,-1.421712,-0.349553,10.070012,0.933739,0.423561,0.142606,0.038312,-34.688672,10.825781,-51.300000
26.646913,0.086367,3.131972,-0.951043,-1.574298,0.062249,9.979033,-0.359130,0.031927,0.162826,0.071303,-36.791016,17.810156,-38.812500
26.748922,0.062905,-3.117822,-0.831184,-1.509408,-0.359130,9.629479,0.598550,-0.365029,0.000000,0.003193,-35.915039,14.143359,-41.006250
26.850588,0.487926,-3.046399,-0.888395,-1.417809,-0.258574,9.840169,0.866701,0.288405,0.004257,0.027670,-36.090234,8.381250,-50.962500
26.952136,0.235481,3.138439,-0.955985,-1.555242,-0.124498,10.089166,0.047884,0.019156,-0.142606,-0.007450,-36.090234,8.381250,-50.962500
27.053834,0.122703,-3.106203,-0.953305,-1.519277,0.014365,9.792285,0.296881,-0.003193,-0.085138,0.007450,-36.615820,8.555859,-51.131250
27.155507,0.322497,-3.123182,-0.955411,-1.522452,-0.143652,10.026917,0.177171,0.056404,-0.038312,0.018092,-36.615820,8.555859,-51.131250
27.257459,0.286503,-3.106986,-0.959193,-1.518940,-0.110133,10.036493,0.177171,0.001064,0.011706,0.018092,-35.389453,10.825781,-51.300000
27.359503,-0.086353,-3.127997,-0.962856,-1.528757,-0.158017,9.888053,0.248997,-0.001064,-0.014899,0.005321,-36.265430,11.000391,-51.806250
27.461204,0.021602,-3.090887,-0.949700,-1.490808,-0.100556,9.907206,0.541090,-0.025541,-0.001064,0.017028,-37.491797,11.175000,-51.975000
27.563244,0.263139,-3.099898,-0.968041,-1.517555,-0.057461,9.916783,0.296881,0.010642,-0.007450,0.034055,-35.739844,12.222656,-51.300000
27.665145,0.118119,-3.095230,-0.958973,-1.503348,-0.095768,9.950302,0.411803,-0.012771,-0.019156,0.006385,-36.090234,10.476562,-51.300000
27.767117,0.197940,-3.130388,-0.961603,-1.543596,-0.143652,9.979033,0.090980,-0.012771,0.012771,0.022349,-36.440625,10.476562,-52.312500
27.867925,0.169578,-3.063690,-0.990742,-1.456443,-0.225055,9.806650,0.531513,-0.012771,-0.002128,0.007450,-35.214258,11.000391,-52.818750
27.969270,0.130897,-3.111135,-1.002097,-1.495076,-0.344765,9.969456,0.392649,0.013835,-0.019156,0.005321,-33.812695,9.603516,-52.143750
28.071466,0.412511,-3.120443,-0.984970,-1.517456,-0.234632,9.955091,0.335188,0.040441,0.003193,0.021284,-34.513477,11.000391,-51.468750
28.173310,0.099174,-3.101574,-0.973979,-1.489740,-0.316035,9.878476,0.402226,0.003193,-0.009578,0.004257,-36.090234,11.524219,-51.637500
28.274882,0.504027,-3.089891,-0.965471,-1.477611,-0.191536,9.979033,0.517148,0.015963,0.006385,0.012771,-36.090234,11.524219,-51.637500
28.376054,0.304662,-3.115546,-0.975509,-1.506790,-0.205901,9.955091,0.450110,0.001064,-0.037248,0.015963,-34.863867,10.651172,-51.806250
28.478042,0.133515,-3.091437,-0.984073,-1.481455,-0.225055,10.002975,0.536301,0.036184,-0.002128,0.009578,-34.863867,10.651172,-51.806250
28.579294,0.110389,-3.116381,-0.955141,-1.511496,-0.210690,9.892841,0.354342,0.020220,0.005321,0.010642,-36.440625,10.127344,-50.962500
28.680753,0.647219,-3.110473,-0.979766,-1.514496,-0.148441,9.897630,0.330400,0.010642,-0.001064,0.010642,-35.389453,10.127344,-52.312500
28.782842,0.479965,-3.122334,-0.989460,-1.512022,-0.186748,9.878476,0.268151,0.014899,-0.003193,0.009578,-34.338281,10.127344,-51.975000
28.885233,0.272791,-3.097350,-0.989422,-1.518063,-0.090980,9.964667,0.368707,0.026606,0.004257,0.017028,-34.338281,10.127344,-51.975000
28.986329,0.214276,-3.071521,-0.988562,-1.484507,-0.047884,9.844957,0.450110,0.025541,-0.027670,0.009578,-34.338281,11.524219,-51.637500
29.088057,0.080140,-3.100180,-0.974795,-1.513025,-0.090980,9.945514,0.373495,0.015963,0.005321,0.017028,-35.039062,10.476562,-51.300000
29.189599,0.318644,-3.096317,-0.973730,-1.497024,-0.138864,9.921572,0.383072,0.009578,0.012771,0.019156,-35.739844,10.825781,-52.312500
29.291501,0.627821,-3.113116,-0.945334,-1.522018,-0.110133,9.835380,0.282516,0.029798,0.000000,0.007450,-37.491797,10.476562,-51.300000
29.393265,0.281125,-3.079097,-1.008773,-1.505788,-0.052672,9.840169,0.354342,0.012771,-0.004257,0.012771,-33.637500,10.127344,-52.987500
29.494785,0.544588,-3.103338,-0.975703,-1.503022,-0.186748,9.892841,0.292093,0.002128,0.006385,0.007450,-35.739844,10.476562,-51.975000
29.596382,0.410252,-3.100993,-0.972085,-1.500631,-0.172383,9.945514,0.383072,0.014899,0.004257,0.011706,-35.739844,10.476562,-51.975000
29.697595,0.494272,-3.094408,-0.990608,-1.498761,-0.162806,9.859322,0.387861,0.012771,0.003193,0.003193,-35.039062,10.825781,-52.650000
29.798937,0.361753,-3.110064,-0.989840,-1.523249,-0.172383,9.897630,0.311246,0.019156,0.008514,0.009578,-34.338281,10.825781,-51.300000
29.900285,0.118244,-3.119761,-0.993343,-1.509629,-0.277727,9.787496,0.339977,0.023413,0.007450,0.011706,-34.863867,9.952734,-52.818750
30.001956,0.291336,-3.110136,-0.976764,-1.508826,-0.196325,9.868899,0.320823,0.021284,0.007450,0.014899,-35.564648,12.746484,-51.468750
30.103562,0.478951,-3.099332,-0.971791,-1.499859,-0.158017,9.935937,0.411803,-0.013835,-0.006385,0.011706,-35.214258,10.651172,-51.131250
30.205436,0.167625,-3.090935,-0.973894,-1.497016,-0.196325,9.935937,0.258574,0.029798,0.004257,0.017028,-35.214258,10.651172,-51.131250
30.306662,0.488355,-3.127423,-0.962325,-1.527450,-0.234632,9.883264,0.258574,0.006385,0.005321,0.017028,-36.265430,11.349609,-51.806250
30.408486,0.245479,-3.096121,-0.990925,-1.503559,-0.095768,9.892841,0.354342,-0.037248,0.003193,0.020220,-34.163086,12.048047,-51.468750
30.510263,0.340301,-3.090145,-0.989313,-1.461767,-0.263362,9.859322,0.627281,0.006385,0.008514,0.021284,-34.688672,9.778125,-51.975000
30.611647,0.462543,-3.079164,-0.992700,-1.470876,-0.229843,9.964667,0.560243,0.038312,0.013835,0.011706,-33.987891,10.476562,-51.637500
30.713468,0.279002,-3.117671,-0.983495,-1.506727,-0.287304,9.945514,0.383072,0.085138,-0.009578,0.011706,-35.039062,10.825781,-51.637500
30.815291,0.458755,-3.118754,-0.982391,-1.514716,-0.148441,9.911995,0.354342,0.064918,-0.032991,0.008514,-35.039062,10.825781,-51.637500
30.916996,0.329961,-3.111517,-0.979728,-1.514323,-0.100556,9.979033,0.258574,0.015963,0.004257,0.025541,-35.039062,10.476562,-52.312500
31.018482,0.442826,-3.118785,-0.975255,-1.524587,-0.119710,10.007763,0.205901,-0.021284,0.004257,0.009578,-35.915039,11.000391,-52.818750
31.119971,0.077908,-3.137486,-0.991222,-1.532588,-0.306458,9.945514,0.148441,0.069175,0.003193,0.003193,-35.389453,9.778125,-53.325000
31.221596,0.384952,3.132990,-0.990761,-1.561129,-0.186748,9.844957,0.545878,-0.004257,0.006385,0.021284,-34.863867,11.698828,-52.818750
31.323144,0.345174,-3.083928,-0.982731,-1.476095,-0.210690,9.849746,0.502782,-0.027670,-0.012771,-0.002128,-35.039062,10.476562,-51.975000
31.425041,-0.012676,-3.074598,-0.980881,-1.493132,0.110133,9.351752,0.521936,0.014899,-0.023413,0.002128,-35.039062,10.476562,-51.975000
31.527163,0.155484,-3.087589,-0.985578,-1.487689,-0.100556,9.725247,0.416591,0.002128,0.090459,0.114936,-35.039062,10.476562,-51.975000
31.628740,0.175001,-3.074217,-0.970714,-1.492534,0.105345,9.844957,0.464475,-0.030863,-0.001064,0.020220,-35.389453,15.365625,-50.962500
31.730729,0.450283,-3.107193,-0.984950,-1.497701,-0.268151,9.897630,0.339977,0.100037,0.007450,0.009578,-35.389453,7.682812,-52.650000
31.832418,0.534569,-3.126126,-0.990012,-1.530072,-0.191536,10.050859,0.296881,-0.053211,-0.070239,0.003193,-35.214258,11.000391,-52.818750
31.934267,0.273902,-3.094621,-0.962060,-1.477058,-0.287304,9.787496,0.531513,0.060661,0.026606,0.012771,-35.915039,10.651172,-50.793750
32.035456,0.295933,3.141516,-0.991648,-1.543960,-0.205901,9.926360,0.095768,0.015963,0.005321,0.015963,-35.564648,11.349609,-53.156250
32.137380,0.604895,-3.088986,-0.994002,-1.488728,-0.158017,9.830592,0.435745,0.010642,0.006385,0.014899,-35.039062,11.873437,-52.987500
32.239626,0.319174,-3.117166,-0.975165,-1.528738,-0.124498,9.825804,0.268151,0.041505,0.019156,0.011706,-35.915039,9.952734,-52.481250
32.341066,0.418750,-3.137292,-0.976468,-1.528813,-0.234632,9.988609,0.311246,0.060661,0.056404,0.010642,-36.090234,10.127344,-52.650000
32.442689,0.646712,-3.115190,-0.979395,-1.516636,-0.186748,9.888053,0.373495,-0.013835,0.006385,0.052147,-35.389453,9.079687,-52.312500
32.544202,0.189167,-3.136390,-0.996245,-1.526950,-0.383072,9.892841,0.258574,-0.029798,-0.018092,0.000000,-35.389453,9.778125,-54.000000
32.646129,0.562184,-3.084913,-0.993855,-1.493209,-0.090980,9.873688,0.407014,0.034055,-0.002128,0.018092,-35.389453,9.778125,-54.000000
32.747905,0.238781,-3.095803,-0.979473,-1.503682,-0.095768,9.878476,0.354342,0.012771,-0.096844,-0.003193,-34.863867,8.555859,-51.468750
32.849279,0.149023,-3.100676,-0.985665,-1.476037,-0.497994,9.797073,0.507571,0.037248,0.007450,0.014899,-35.214258,9.603516,-52.818750
32.950769,0.688484,3.132723,-0.989803,-1.524163,-0.512359,10.060435,0.186748,-0.006385,-0.006385,0.028734,-34.688672,9.428906,-51.637500
33.052335,0.518956,-3.111954,-0.983796,-1.525588,-0.110133,9.940725,0.248997,-0.069175,-0.017028,0.017028,-34.688672,9.428906,-51.637500
33.154168,0.279038,-3.102448,-0.969490,-1.513662,-0.047884,10.031705,0.258574,0.116000,0.013835,0.034055,-36.090234,8.730469,-51.975000
33.255570,0.529011,-3.099154,-0.994383,-1.527428,-0.057461,9.888053,0.296881,-0.010642,-0.011706,-0.004257,-35.214258,8.206641,-53.831250
33.357042,0.649647,-3.115405,-0.971765,-1.522643,-0.095768,9.935937,0.335188,0.100037,0.029798,0.029798,-36.090234,7.333594,-52.312500
33.458752,0.544911,-3.091505,-0.980070,-1.512421,-0.067038,9.926360,0.301669,-0.037248,-0.006385,0.000000,-35.915039,9.603516,-52.818750
33.560731,0.666738,-3.084436,-0.990863,-1.483789,-0.191536,9.998186,0.435745,0.012771,-0.057468,-0.014899,-34.863867,9.254297,-52.818750
33.662035,0.745271,-3.055546,-0.968867,-1.439455,0.177171,9.773131,0.962469,-0.014899,-0.441653,0.119193,-36.791016,10.825781,-52.987500
33.763686,0.509434,-2.989520,-0.933354,-1.423834,-0.215478,9.701305,-0.723049,-0.287341,-0.434203,0.029798,-36.265430,14.492578,-49.106250
33.865618,0.441852,-2.998719,-0.939354,-1.423418,0.325611,9.830592,0.885855,0.144734,0.081945,0.046826,-36.265430,14.492578,-49.106250
33.966921,0.415287,-3.108677,-0.988677,-1.540381,-0.172383,10.366893,-0.459687,0.011706,-0.187303,0.024477,-35.214258,15.889453,-53.156250
34.068567,0.470712,-3.098611,-0.999604,-1.493181,-0.981623,9.868899,0.919373,-0.200074,0.039376,-0.097909,-35.214258,10.301953,-56.531250
34.169941,0.132078,-2.921046,-0.972879,-1.349666,0.957681,9.835380,1.120486,0.107487,0.217102,0.058532,-37.141406,15.714844,-54.000000
34.271873,0.722882,-3.115272,-1.005716,-1.512037,-0.359130,9.998186,0.306458,0.282019,0.217102,0.055340,-35.039062,6.635156,-55.012500
34.373531,0.386617,3.121709,-1.010915,-1.601103,-0.215478,10.141838,-0.641646,0.200074,0.232001,-0.012771,-35.039062,6.635156,-55.012500
34.475606,0.493210,3.108919,-0.999676,-1.575167,-0.407014,9.974244,-0.028730,0.002128,0.071303,-0.017028,-35.915039,4.016016,-55.518750
34.577418,0.787549,-3.098049,-0.996718,-1.499128,-0.124498,9.830592,0.344765,0.005321,0.005321,-0.012771,-35.915039,4.016016,-55.518750
34.678726,0.577484,-3.139402,-1.001955,-1.552668,-0.158017,9.878476,0.019154,0.048954,0.011706,0.001064,-35.214258,5.063672,-54.843750
34.780269,0.390220,3.108870,-0.995702,-1.593536,-0.143652,9.777920,-0.067038,-0.002128,0.001064,0.030863,-35.739844,5.936719,-55.012500
34.882445,0.764977,-3.091143,-1.005659,-1.529503,0.186748,9.859322,0.239420,-0.020220,0.064918,0.048954,-35.739844,5.587500,-56.362500
34.984267,0.420021,-3.137163,-1.011738,-1.513291,-0.450110,9.921572,0.248997,-0.079817,0.014899,0.005321,-35.214258,6.809766,-54.843750
35.085835,0.472593,-3.080197,-0.999593,-1.510410,0.028730,9.859322,0.320823,-0.014899,-0.006385,-0.034055,-35.214258,6.809766,-54.843750
35.187457,0.294679,-3.102017,-0.988804,-1.521060,-0.019154,9.979033,0.277727,0.077688,0.053211,0.009578,-35.739844,6.285937,-54.000000
35.289353,0.229694,3.123098,-1.013743,-1.555623,-0.239420,9.758766,0.359130,0.054275,-0.018092,0.024477,-34.338281,7.682812,-54.675000
35.390927,0.213838,3.140521,-1.026840,-1.544396,-0.153229,9.888053,0.205901,-0.011706,-0.039376,0.021284,-33.812695,7.158984,-55.518750
35.492974,0.545566,-3.091430,-0.999853,-1.519681,0.186748,9.959879,0.397437,-0.021284,0.013835,-0.007450,-35.389453,7.333594,-55.012500
35.594396,0.304658,-3.141086,-1.017213,-1.535883,-0.138864,9.768343,-0.143652,0.038312,-0.023413,0.001064,-34.863867,8.905078,-56.193750
35.696088,0.233421,3.111628,-1.018589,-1.578139,-0.143652,9.998186,-0.201113,0.008514,0.000000,-0.020220,-34.863867,8.905078,-56.193750
35.797902,0.449899,-3.098722,-1.015267,-1.507115,-0.129287,9.926360,0.430956,-0.061725,0.011706,0.006385,-34.688672,6.285937,-55.687500
35.899687,0.618673,-3.115623,-1.011102,-1.504238,-0.306458,10.002975,0.292093,0.013835,0.021284,0.060661,-35.389453,9.428906,-55.350000
36.001430,0.137463,-3.119528,-1.004986,-1.541039,-0.124498,10.031705,0.038307,0.041505,0.010642,-0.010642,-35.389453,9.428906,-55.350000
36.103797,0.543491,-3.089778,-1.011144,-1.492808,-0.153229,10.002975,0.363919,-0.025541,-0.009578,0.040441,-33.812695,7.857422,-53.831250
36.205248,0.316250,-3.111784,-1.003851,-1.514201,-0.196325,9.950302,0.335188,0.039376,-0.019156,0.002128,-35.389453,8.032031,-55.012500
36.307163,0.446772,-3.114598,-0.985347,-1.523145,-0.105345,9.825804,0.282516,-0.012771,-0.013835,0.028734,-35.739844,6.984375,-53.662500
36.408497,0.197696,-3.104220,-0.991029,-1.487439,-0.205901,9.921572,0.411803,0.005321,0.000000,0.001064,-35.739844,6.984375,-53.662500
36.510081,0.422038,-3.131678,-1.009028,-1.545445,-0.119710,9.883264,0.148441,0.036184,0.024477,-0.015963,-34.863867,9.254297,-54.843750
36.612035,0.284135,-3.104009,-1.012336,-1.504703,-0.114922,9.955091,0.359130,-0.025541,0.026606,0.017028,-34.513477,8.905078,-55.181250
36.713869,0.234162,-3.108830,-1.005939,-1.504754,-0.225055,9.883264,0.344765,0.008514,0.009578,-0.008514,-34.863867,10.651172,-54.168750
36.815553,0.239056,-3.114719,-1.015351,-1.488886,-0.363919,9.931148,0.397437,0.022349,-0.011706,0.003193,-34.688672,11.175000,-55.012500
36.916710,0.309410,3.137197,-1.018516,-1.530163,-0.292093,9.888053,0.263362,-0.017028,-0.057468,0.102166,-34.688672,11.175000,-55.012500
37.019007,0.398684,-3.112414,-1.013173,-1.486420,-0.474052,9.696517,0.306458,0.153248,-0.038312,-0.058532,-35.039062,11.524219,-54.675000
37.120738,0.374787,3.132984,-0.995551,-1.539054,-0.244209,9.916783,0.052672,0.324588,-0.224551,0.077688,-37.316602,13.794141,-54.506250
37.222186,0.588112,3.094869,-0.997402,-1.623145,-0.043096,10.041282,-0.421379,0.217102,-0.290533,0.100037,-36.265430,14.492578,-56.193750
37.323802,0.224808,3.079746,-0.968883,-1.696271,0.469264,9.950302,-0.723049,-0.026606,-0.002128,0.001064,-36.440625,11.873437,-54.337500
37.425498,0.096212,3.089974,-0.978860,-1.603520,-0.311246,9.883264,-0.062249,-0.161762,0.027670,-0.035119,-36.440625,11.873437,-54.337500
37.527513,0.185811,3.114724,-0.967126,-1.567685,-0.268151,9.883264,-0.004788,0.019156,0.037248,-0.011706,-38.718164,17.286328,-55.518750
37.628923,0.397413,3.081545,-0.954210,-1.615995,-0.430956,9.935937,-0.311246,0.027670,0.053211,0.024477,-38.367773,13.794141,-53.156250
37.731070,0.707986,3.095726,-0.949507,-1.589633,-0.205901,9.926360,-0.143652,-0.012771,0.029798,-0.006385,-38.367773,13.794141,-53.156250
37.832969,0.673299,3.015752,-0.966046,-1.685027,-0.306458,9.825804,-0.742203,0.025541,0.018092,-0.002128,-37.666992,12.746484,-54.843750
37.934798,0.355156,3.053726,-0.956446,-1.628646,-0.373495,9.777920,-0.191536,0.005321,0.019156,-0.004257,-38.192578,15.016406,-54.337500
38.036710,0.264115,3.090761,-0.956149,-1.609657,-0.263362,9.888053,-0.177171,0.047890,0.037248,0.025541,-37.491797,12.921094,-52.650000
38.138527,0.348099,3.045614,-0.966093,-1.654649,-0.263362,9.931148,-0.464475,-0.008514,0.013835,0.036184,-37.666992,14.143359,-54.843750
38.240901,0.095041,3.084873,-0.942673,-1.609638,-0.296881,10.031705,-0.090980,-0.012771,0.037248,0.003193,-38.017383,12.397266,-52.481250
38.342638,-0.048021,3.053197,-0.988698,-1.624864,-0.344765,9.911995,-0.316035,0.034055,0.002128,0.018092,-36.440625,14.667187,-54.337500
38.444111,0.348099,3.069314,-0.957980,-1.616878,-0.320823,9.792285,-0.244209,0.005321,0.135156,0.006385,-37.316602,11.698828,-53.156250
38.545937,0.583516,3.037120,-0.975795,-1.634387,-0.545878,9.940725,-0.421379,0.102166,0.026606,-0.018092,-37.316602,13.095703,-54.506250
38.647955,0.236337,3.036561,-0.972653,-1.671146,-0.325611,10.055647,-0.526724,0.046826,0.003193,0.019156,-37.316602,13.095703,-54.506250
38.749628,0.133348,3.081769,-0.908415,-1.603594,-0.287304,9.907206,-0.177171,-0.024477,0.035119,0.005321,-38.893359,10.825781,-49.275000
38.851050,-0.194516,3.087659,-0.947942,-1.609146,-0.186748,9.911995,-0.191536,0.070239,0.007450,0.012771,-36.791016,15.016406,-54.337500
38.952783,-0.020402,3.056272,-0.963285,-1.647711,-0.019154,9.797073,-0.656011,0.125578,0.072367,0.060661,-38.893359,12.921094,-54.000000
39.054688,0.284937,2.992955,-0.906020,-1.695254,-0.402226,10.017340,-0.799663,-0.050019,-0.009578,-0.005321,-38.718164,7.158984,-48.768750
39.156919,0.289221,3.015816,-0.898945,-1.652216,-0.694318,10.184934,-0.579397,0.000000,0.004257,0.041505,-38.718164,7.158984,-48.768750
39.258250,0.202818,3.066716,-0.898879,-1.621753,-0.349553,9.725247,-0.411803,-0.009578,0.013835,0.018092,-38.718164,7.158984,-48.768750
39.359877,0.408096,3.029628,-0.958792,-1.651292,-0.407014,9.993398,-0.502782,-0.059597,-0.006385,0.012771,-36.791016,8.730469,-52.987500
39.461861,0.233267,3.058667,-0.914202,-1.641265,-0.244209,9.873688,-0.411803,-0.022349,-0.032991,0.020220,-38.192578,8.730469,-49.950000
39.563247,0.207403,3.058035,-0.981032,-1.618157,-0.191536,10.127473,0.392649,0.146863,-0.112808,0.017028,-37.666992,9.603516,-55.856250
39.665255,0.233314,3.011298,-0.988524,-1.710146,-0.100556,9.859322,-0.790087,-0.076624,0.021284,0.054275,-36.615820,9.603516,-56.531250
39.766987,0.139851,3.136910,-0.995016,-1.576528,-0.038307,9.825804,0.105345,-0.108551,-0.067046,0.030863,-37.141406,7.333594,-57.375000
39.868097,-0.018436,3.069294,-0.979850,-1.610929,-0.469264,9.835380,-0.229843,0.035119,0.105358,-0.128771,-37.666992,8.905078,-56.193750
39.969300,0.239967,3.118248,-0.991442,-1.617085,0.143652,9.911995,-0.258574,0.030863,-0.021284,0.110679,-36.615820,11.349609,-56.193750
40.070739,0.185172,3.073853,-0.992540,-1.610683,-0.373495,9.892841,-0.167594,-0.008514,0.035119,0.059597,-35.915039,6.111328,-54.843750
40.171821,0.134205,3.134176,-0.997547,-1.566377,-0.277727,10.477026,0.210690,0.059597,-0.051083,-0.031927,-37.141406,8.381250,-57.375000
40.274047,0.206040,3.044822,-1.009864,-1.669971,-0.095768,10.151415,-0.536301,0.010642,0.007450,0.004257,-36.090234,6.984375,-58.387500
40.375631,0.241129,3.135690,-0.987611,-1.577721,-0.009577,9.868899,-0.057461,-0.013835,-0.022349,0.019156,-37.141406,8.032031,-56.362500
40.477038,0.366547,3.084129,-0.991981,-1.612282,-0.186748,9.749189,-0.282516,0.131964,-0.146863,-0.010642,-37.141406,8.032031,-56.362500
40.578960,0.518789,3.018765,-0.995309,-1.694866,-0.081403,9.730036,-0.517148,0.012771,0.055340,0.021284,-35.564648,5.063672,-58.218750
40.680643,0.127148,3.046547,-1.016171,-1.661014,-0.225055,9.849746,-0.469264,-0.089395,0.024477,0.018092,-35.564648,5.063672,-58.218750
40.782293,0.541426,3.099648,-1.004354,-1.594498,-0.225055,9.935937,-0.201113,0.128771,0.008514,0.031927,-36.615820,5.063672,-57.206250
40.883704,-0.149754,3.027283,-0.995961,-1.676033,-0.272939,9.787496,-0.541090,0.004257,-0.151120,0.031927,-37.141406,7.682812,-57.712500
40.985001,0.442930,3.053311,-0.985550,-1.648502,-0.110133,9.883264,-0.330400,-0.075560,0.054275,0.055340,-36.615820,3.317578,-55.518750
41.086546,0.288979,-3.132268,-0.984585,-1.561098,0.067038,9.911995,0.339977,0.032991,-0.143670,-0.029798,-36.791016,3.841406,-55.350000
41.188684,0.409416,3.008590,-0.976482,-1.732194,-0.062249,9.801862,-1.273715,-0.009578,-0.009578,0.022349,-36.791016,3.841406,-55.350000
41.289967,0.382655,3.067768,-0.978663,-1.614942,0.172383,9.624691,-0.124498,-0.030863,-0.100037,0.084074,-36.966211,1.920703,-55.518750
41.391818,0.285568,3.044408,-1.026389,-1.657904,-0.201113,9.911995,-0.478840,0.180918,-0.034055,0.062789,-35.214258,6.460547,-57.881250
41.493487,0.444727,3.080013,-0.989722,-1.625767,-0.186748,9.844957,-0.282516,-0.184111,-0.121322,-0.084074,-36.440625,2.444531,-56.025000
41.595140,0.207835,3.086550,-0.994933,-1.624836,-0.110133,9.921572,-0.253785,0.011706,0.015963,0.022349,-38.017383,5.063672,-58.893750
41.696564,0.269753,3.082878,-1.013090,-1.593682,-0.469264,9.773131,-0.124498,0.041505,-0.034055,0.045762,-35.039062,4.190625,-55.350000
41.798574,0.074360,3.064978,-1.000962,-1.651077,0.038307,9.950302,-0.521936,0.130900,-0.053211,0.024477,-37.141406,4.539844,-57.375000
41.900285,0.391317,3.033122,-0.991066,-1.654679,-0.292093,9.868899,-0.454898,-0.201138,0.008514,0.031927,-36.090234,2.793750,-55.350000
42.001953,0.259827,-3.126990,-0.997905,-1.576746,0.201113,9.859322,-0.028730,0.089395,0.062789,0.067046,-36.966211,8.206641,-57.206250
42.103755,0.521081,3.100070,-0.992158,-1.615349,-0.076614,9.940725,-0.210690,0.001064,0.036184,-0.081945,-36.966211,8.206641,-57.206250
42.205339,0.216896,3.124592,-0.963457,-1.580729,-0.162806,9.816227,-0.052672,0.141542,-0.130900,0.003193,-37.316602,2.619141,-53.493750
42.306937,0.678093,3.050371,-1.024045,-1.693006,0.258574,10.520122,-0.555455,-0.040441,0.004257,0.023413,-35.915039,6.111328,-59.906250
42.408578,0.216656,3.045905,-0.982637,-1.656268,-0.181959,9.662998,-0.478840,-0.098973,0.019156,0.062789,-36.090234,2.793750,-54.337500
42.509908,0.101411,-3.094765,-0.985154,-1.521174,0.071826,9.356540,0.287304,0.046826,-0.031927,-0.014899,-36.090234,2.793750,-54.337500
42.611350,-0.042317,3.117946,-1.014024,-1.589436,-0.124498,9.916783,-0.090980,0.143670,-0.004257,-0.028734,-34.688672,4.889062,-55.687500
42.712758,0.052213,3.031825,-1.016435,-1.709484,0.162806,10.060435,-0.746991,-0.048954,-0.057468,0.012771,-35.214258,1.920703,-57.543750
42.814529,0.363139,-3.139135,-0.989503,-1.570429,0.014365,9.868899,0.019154,-0.104294,0.092588,0.022349,-35.915039,1.571484,-54.843750
42.916071,-0.032216,3.073435,-1.017919,-1.587540,-0.454898,9.878476,-0.129287,0.031927,-0.021284,0.012771,-35.915039,4.714453,-57.543750
43.018202,0.012016,3.092189,-1.002648,-1.608526,-0.134075,9.873688,-0.148441,0.097909,-0.026606,-0.011706,-35.915039,3.317578,-56.193750
43.119589,0.025731,3.023560,-0.996955,-1.699239,-0.296881,10.060435,-0.780510,0.092588,0.092588,0.012771,-35.915039,3.317578,-56.193750
43.221179,-0.062375,-3.108709,-0.987444,-1.537982,0.110133,9.730036,0.402226,-0.108551,-0.022349,-0.034055,-35.739844,2.793750,-54.337500
43.323158,-0.075350,3.069808,-1.001556,-1.663698,0.062249,9.931148,-0.483629,0.028734,0.005321,0.021284,-36.440625,4.190625,-57.375000
43.424885,0.095208,3.051432,-0.997348,-1.642819,-0.272939,10.002975,-0.330400,-0.013835,0.042569,0.019156,-35.389453,4.190625,-55.012500
43.526438,0.473270,3.122208,-0.983361,-1.578167,-0.114922,9.864111,-0.047884,0.009578,0.005321,0.025541,-36.265430,6.111328,-54.168750
43.627611,0.088514,3.125645,-0.983200,-1.571383,-0.368707,9.777920,-0.086191,0.118129,0.047890,-0.003193,-36.265430,6.111328,-54.168750
43.729527,0.198275,3.040172,-0.997042,-1.662754,-0.430956,9.998186,-0.646434,0.169212,0.118129,0.040441,-35.214258,4.714453,-54.506250
43.832069,0.164776,3.010671,-0.986256,-1.702777,-0.057461,9.979033,-0.703895,-0.178790,-0.004257,0.012771,-35.214258,4.714453,-54.506250
43.934615,0.360015,3.106606,-0.953404,-1.572357,-0.043096,9.686940,0.325611,-0.106422,-0.011706,-0.013835,-36.090234,1.047656,-50.287500
44.036041,0.262625,3.073410,-0.989761,-1.608233,-0.387861,9.878476,-0.215478,-0.208588,-0.057468,-0.010642,-36.440625,6.285937,-55.350000
44.138105,0.079124,-3.084169,-0.973986,-1.481059,-0.181959,9.916783,0.430956,-0.218166,-0.169212,0.002128,-35.039062,6.984375,-51.637500
44.239840,0.118241,-3.104637,-0.971364,-1.502287,-0.129287,10.002975,0.469264,-0.171340,-0.122386,0.002128,-36.090234,11.873437,-52.650000
44.340441,0.243588,-3.046496,-0.980942,-1.418391,-0.268151,9.849746,0.809240,-0.194753,-0.003193,-0.029798,-35.564648,13.794141,-52.143750
44.442219,0.388556,-2.945439,-0.971459,-1.334297,0.019154,9.888053,1.383849,0.079817,0.111744,-0.010642,-35.564648,13.794141,-52.143750
44.543839,0.136955,-3.087764,-0.933668,-1.425142,-0.555455,9.840169,0.799663,0.095780,0.013835,0.005321,-36.966211,17.635547,-48.093750
44.645105,0.191267,-3.004403,-0.961738,-1.406123,-0.330400,9.844957,0.761356,0.162826,0.085138,0.001064,-36.265430,17.286328,-51.131250
44.747179,-0.063323,-3.033301,-0.964803,-1.439770,-0.071826,9.979033,0.694318,0.264992,0.096844,0.030863,-36.440625,11.175000,-52.312500
44.849302,0.067880,-3.050400,-1.005829,-1.497497,0.253785,9.911995,0.363919,0.512956,0.173469,0.021284,-35.564648,11.000391,-56.193750
44.950320,-0.075193,3.046179,-1.019369,-1.668118,-0.067038,9.955091,-0.627281,0.541690,0.062789,0.072367,-34.688672,-0.349219,-55.012500
45.052061,0.108807,2.922742,-0.987434,-1.806890,-0.220267,9.945514,-1.249773,-0.242643,-0.125578,-0.024477,-34.688672,-0.349219,-55.012500
45.154053,0.167349,3.040258,-0.958959,-1.655465,0.023942,9.926360,-0.363919,-0.455488,-0.223487,0.028734,-37.842188,5.587500,-44.550000
45.255652,-0.044532,3.064646,-0.877479,-1.626443,-0.373495,10.486603,-0.354342,-0.896077,-0.267120,-0.040441,-36.791016,9.079687,-55.350000
45.357977,-0.211152,-3.077687,-0.854219,-1.502631,1.733402,10.060435,0.330400,-1.722979,-0.890756,-0.145799,-35.915039,19.730859,-36.956250
45.459902,-0.007541,-2.954099,-0.649591,-1.304741,-0.311246,7.671022,3.969586,-2.167825,-0.210716,-0.121322,-35.915039,19.730859,-36.956250
45.561477,0.256640,-2.906272,-0.495845,-1.212568,-0.268151,7.383718,7.493851,-1.067417,0.223487,0.127707,-36.265430,27.064453,-26.493750
45.663228,0.176440,-2.840538,-0.491140,-1.094155,-0.411803,7.522582,6.593631,-0.087266,-0.025541,-0.026606,-36.265430,27.064453,-26.493750
