Time, Altitude, Yaw, Pitch, Roll, Ax, Ay, Az, Pitch_rate, Roll_rate,Yaw_rate, Magx, Magy, Magz0.920457,-0.023388,0.100269,-0.013355,-0.055099,0.028730,-0.656011,10.295067,0.014899,0.007450,0.014899,44.149219,-8.032031,50.962500
1.020589,0.079481,0.066215,-0.003022,-0.051661,-0.014365,-0.651223,10.060435,0.015963,0.006385,0.017028,43.273242,-6.111328,51.131250
1.121904,-0.136869,0.118179,-0.003017,-0.073790,-0.043096,-0.718260,10.199299,0.010642,0.011706,0.011706,43.098047,-8.381250,51.975000
1.223290,-0.188865,0.117376,-0.007652,-0.066365,0.014365,-0.603339,10.074801,0.012771,0.010642,0.013835,43.623633,-8.206641,51.131250
1.325338,-0.154658,0.072858,0.001232,-0.061266,0.004788,-0.579397,10.261548,0.045762,0.008514,0.023413,42.747656,-6.635156,51.637500
1.428158,-0.196594,0.081243,0.000709,-0.062591,0.885855,-0.766145,10.625467,-0.013835,-0.179854,0.004257,43.273242,-6.460547,50.118750
1.530266,-0.096149,0.080292,0.007646,-0.064136,-0.244209,-0.675165,10.156203,0.019156,0.026606,0.014899,43.273242,-6.460547,50.118750
1.632446,-0.180808,0.077764,-0.009592,-0.047861,0.047884,-0.641646,10.180145,0.017028,0.020220,0.010642,43.273242,-6.460547,50.118750
1.733078,-0.183409,0.086814,-0.012099,-0.054592,0.043096,-0.608127,10.070012,0.012771,-0.003193,0.012771,43.448438,-6.984375,50.962500
1.834388,-0.223007,0.094224,0.001438,-0.049468,-0.052672,-0.608127,10.232818,0.015963,0.007450,0.013835,44.149219,-7.682812,51.300000
1.936199,-0.403693,0.109303,0.000257,-0.054724,-0.114922,-0.550666,10.275914,0.018092,0.004257,0.012771,41.346094,-7.682812,50.962500
2.038545,-0.173194,0.101960,-0.021811,-0.042554,0.138864,-0.502782,10.275914,-0.004257,0.012771,0.018092,43.273242,-7.508203,52.143750
2.140206,-0.635458,0.115929,-0.001493,-0.053762,-0.052672,-0.622492,10.113108,0.014899,0.004257,0.011706,43.098047,-8.381250,50.962500
2.241758,-0.435226,0.098096,0.016859,-0.076178,-0.287304,-0.799663,9.768343,0.055340,-0.006385,0.014899,43.098047,-7.333594,51.637500
2.343716,-0.068682,0.130825,-0.011894,-0.071751,0.033519,-0.622492,10.333374,-0.004257,0.007450,0.014899,43.273242,-8.555859,51.468750
2.445537,-0.049604,0.107153,-0.022308,-0.044375,0.162806,-0.593762,10.184934,0.007450,0.019156,0.013835,44.149219,-6.635156,50.962500
2.546981,-0.254532,0.085988,-0.005360,-0.061423,0.004788,-0.694318,10.352528,0.012771,0.001064,0.013835,42.922852,-7.158984,50.793750
2.649172,0.072770,0.099455,0.012631,-0.048140,-0.114922,-0.483629,10.261548,0.007450,0.022349,0.010642,42.922852,-7.158984,50.793750
2.751318,-0.121903,0.095571,0.024063,-0.060382,-0.292093,-0.483629,9.993398,0.004257,-0.040441,0.005321,44.850000,-6.984375,49.612500
2.852784,-0.426713,0.068411,-0.005544,-0.073728,-0.076614,-0.612916,10.266337,0.012771,0.018092,0.011706,42.572461,-5.762109,49.443750
2.954233,-0.161819,0.109474,-0.008390,-0.072521,0.014365,-0.627281,10.103531,0.013835,0.008514,0.014899,42.747656,-7.682812,51.975000
3.056050,-0.497622,0.102318,-0.009029,-0.073892,0.038307,-0.665588,10.275914,0.013835,0.005321,0.012771,43.448438,-7.682812,51.637500
3.157339,-0.282654,0.099500,-0.009290,-0.062651,-0.023942,-1.565808,7.541735,0.086202,-0.006385,0.018092,42.747656,-7.333594,51.637500
3.258916,-0.155150,0.099142,-0.002100,-0.053224,-0.043096,-0.536301,10.232818,0.011706,0.008514,0.012771,42.747656,-7.333594,51.637500
3.360052,-0.343096,0.093467,-0.008627,-0.042805,0.014365,-0.603339,10.165780,0.013835,0.010642,0.012771,42.747656,-7.333594,51.637500
3.461162,-0.507280,0.103477,0.001373,-0.046286,-0.057461,-0.579397,10.170569,0.012771,0.007450,0.015963,43.273242,-7.508203,51.131250
3.562373,-0.336208,0.095745,-0.001196,-0.056545,-0.052672,-0.560243,10.084377,0.012771,0.006385,0.015963,43.974023,-7.508203,51.468750
3.663976,-0.384062,0.076024,-0.009441,-0.051727,0.047884,-0.646434,10.237606,0.014899,0.006385,0.013835,44.324414,-6.460547,50.793750
3.765490,-0.025304,0.069737,-0.007331,-0.048539,0.052672,-0.665588,10.184934,0.014899,0.003193,0.015963,42.397266,-6.635156,52.312500
3.867019,0.053050,0.071842,-0.005897,-0.051451,0.014365,-0.617704,10.213664,0.013835,0.004257,0.012771,44.499609,-6.285937,50.287500
3.968745,-0.231006,0.099585,-0.008195,-0.077155,0.004788,-0.646434,10.146627,0.015963,0.005321,0.014899,43.448438,-7.682812,51.637500
4.069841,-0.478170,0.075741,-0.004617,-0.046273,0.023942,-0.565032,10.194511,0.015963,0.005321,0.012771,45.200391,-5.936719,50.962500
4.171332,-0.225436,0.054914,-0.005538,-0.052576,-0.009577,-0.507571,10.242395,0.014899,0.002128,0.015963,45.550781,-5.587500,50.962500
4.273116,-0.375501,0.072777,0.000388,-0.081012,-0.047884,-0.646434,10.223241,0.017028,0.003193,0.017028,44.499609,-7.682812,51.637500
4.374814,-0.320698,0.104422,-0.001952,-0.068648,-0.043096,-0.656011,10.237606,0.015963,0.005321,0.013835,44.499609,-7.682812,51.637500
4.475989,-0.252206,0.109785,-0.003028,-0.070706,-0.033519,-0.627281,10.146627,0.014899,0.008514,0.013835,44.674805,-7.857422,51.806250
4.577805,-0.396872,0.125329,-0.003006,-0.050038,0.014365,-0.574608,10.280702,0.013835,0.004257,0.013835,42.922852,-8.206641,50.118750
4.679066,-0.526930,0.093504,-0.005608,-0.073452,-0.004788,-0.665588,10.184934,0.012771,0.005321,0.013835,44.324414,-7.158984,51.468750
4.780698,-0.014823,0.096179,-0.007421,-0.072754,-0.009577,-0.627281,10.165780,0.015963,0.006385,0.011706,44.324414,-7.158984,51.468750
4.882029,-0.458502,0.082207,0.004899,-0.059660,-0.009577,-0.512359,10.218453,0.015963,0.002128,0.014899,42.747656,-6.285937,50.625000
4.983966,-0.147473,0.074279,-0.001997,-0.048593,-0.009577,-0.565032,10.323798,0.015963,0.006385,0.011706,42.922852,-6.460547,50.456250
5.085065,-0.080915,0.064493,-0.004924,-0.060087,0.105345,-0.694318,10.180145,0.012771,0.007450,0.010642,43.974023,-6.111328,51.468750
5.186986,-0.262012,0.119499,-0.003034,-0.055672,-0.033519,-0.622492,10.146627,0.015963,0.008514,0.013835,45.375586,-9.254297,50.456250
5.289262,0.094042,0.104440,-0.003052,-0.051262,-0.038307,-0.660800,10.146627,0.017028,0.008514,0.014899,43.623633,-7.857422,51.131250
5.390703,-0.445402,0.093235,-0.005341,-0.051534,-0.033519,-0.656011,10.070012,0.012771,0.006385,0.013835,44.149219,-7.333594,50.287500
5.492420,-0.065627,0.092494,-0.020871,-0.055098,0.062249,-0.703895,10.204087,0.014899,0.005321,0.014899,42.397266,-7.682812,50.962500
5.593936,-0.147518,0.095388,-0.010264,-0.047245,0.057461,-0.603339,10.242395,0.014899,0.004257,0.013835,43.623633,-7.158984,51.131250
5.695216,-0.214167,0.084030,-0.004098,-0.051353,-0.009577,-0.574608,10.232818,0.014899,0.006385,0.015963,42.572461,-6.809766,50.793750
5.796788,-0.347542,0.091748,-0.006431,-0.070606,0.019154,-0.608127,10.242395,0.018092,0.005321,0.012771,42.572461,-6.809766,50.793750
5.898468,-0.202539,0.092138,0.003999,-0.060217,-0.019154,-0.665588,10.137050,0.014899,0.006385,0.014899,43.623633,-7.158984,50.456250
5.999504,0.001952,0.101445,-0.004312,-0.068674,-0.019154,-0.569820,10.141838,0.013835,0.004257,0.011706,42.747656,-7.333594,49.612500
6.100726,-0.357728,0.112785,-0.009219,-0.066852,0.028730,-0.608127,10.175357,0.015963,0.007450,0.012771,43.623633,-7.857422,50.456250
6.202562,0.040432,0.096746,-0.005097,-0.082060,-0.052672,-0.847547,9.777920,0.025541,0.006385,0.013835,43.623633,-7.857422,50.456250
6.304360,-0.297587,0.102344,-0.017070,-0.077496,0.047884,-0.751779,9.883264,0.013835,0.015963,0.011706,43.623633,-7.857422,50.456250
6.405582,-0.063331,0.107415,-0.022466,-0.057641,0.201113,-0.555455,10.290279,0.011706,0.003193,0.010642,43.623633,-7.857422,50.456250
6.506910,0.041665,0.120825,-0.006709,-0.048330,0.004788,-0.392649,10.304644,0.019156,-0.015963,0.013835,43.623633,-8.206641,51.806250
6.608600,-0.325067,0.097837,-0.003952,-0.056912,0.062249,-0.454898,10.117896,0.015963,-0.006385,0.012771,44.499609,-6.635156,51.975000
6.710483,-0.436349,0.090406,-0.001962,-0.060353,-0.023942,-0.670376,10.060435,0.017028,0.010642,0.015963,42.046875,-7.333594,50.625000
6.812369,-0.205223,0.096717,-0.007286,-0.066317,-0.019154,-0.541090,10.223241,0.020220,0.009578,0.012771,44.850000,-6.984375,50.287500
6.913856,-0.338501,0.114843,-0.010882,-0.068265,0.052672,-0.574608,10.237606,0.014899,0.010642,0.013835,45.025195,-8.206641,50.118750
7.015291,-0.442358,0.097261,-0.006794,-0.042626,0.019154,-0.627281,10.108319,0.013835,0.008514,0.015963,44.149219,-5.936719,50.962500
7.116966,-0.091133,0.064311,-0.006335,-0.054969,-0.028730,-0.636858,10.314221,0.014899,0.002128,0.018092,43.448438,-6.285937,49.950000
7.218412,-0.155635,0.071341,-0.008561,-0.072548,0.038307,-0.718260,9.983821,0.014899,0.005321,0.014899,43.448438,-6.285937,49.950000
7.320274,-0.264571,0.103679,-0.004867,-0.065723,-0.019154,-0.608127,10.299856,0.015963,0.004257,0.017028,43.273242,-7.508203,51.131250
7.421417,-0.245510,0.073114,-0.006444,-0.071248,0.019154,-0.660800,10.117896,0.014899,0.007450,0.014899,42.922852,-6.111328,50.456250
7.523056,-0.332575,0.066889,-0.003677,-0.063915,-0.023942,-0.526724,10.223241,0.011706,0.007450,0.013835,44.324414,-5.762109,50.793750
7.624242,-0.279084,0.058066,-0.003747,-0.050483,-0.004788,-0.617704,10.127473,0.013835,0.005321,0.011706,44.324414,-5.762109,50.793750
7.726039,-0.385468,0.095935,-0.007565,-0.068725,0.047884,-0.660800,10.146627,0.018092,0.007450,0.011706,43.974023,-7.508203,50.793750
7.827955,-0.412042,0.105317,-0.006644,-0.067273,0.004788,-0.617704,10.070012,0.013835,0.000000,0.013835,44.149219,-7.682812,50.962500
7.929767,-0.106219,0.101629,-0.004056,-0.069820,-0.028730,-0.584185,10.232818,0.015963,0.003193,0.014899,43.798828,-7.333594,50.625000
8.031635,-0.449717,0.099744,0.001228,-0.067530,-0.043096,-0.550666,10.429142,0.017028,0.003193,0.013835,42.572461,-6.809766,49.106250
8.133105,-0.160162,0.102542,-0.011734,-0.073207,0.090980,-0.708684,9.888053,0.010642,0.009578,0.011706,43.798828,-8.032031,50.287500
8.234637,-0.400580,0.097093,-0.010263,-0.039646,-0.047884,-0.526724,10.093954,0.017028,0.006385,0.013835,44.674805,-7.158984,51.131250
8.336596,0.155729,0.082421,-0.009935,-0.058934,-0.028730,-0.660800,10.156203,0.015963,0.007450,0.012771,43.974023,-6.460547,51.468750
8.437764,-0.345999,0.075700,-0.025136,-0.075225,0.129287,-0.703895,10.218453,0.011706,0.007450,0.014899,43.798828,-6.984375,50.287500
8.539296,0.071010,0.085260,-0.005508,-0.049616,0.009577,-0.560243,10.271125,0.013835,-0.003193,0.013835,43.798828,-6.984375,50.287500
8.641407,-0.081348,0.088277,-0.003406,-0.051052,-0.014365,-0.574608,10.338163,0.013835,0.006385,0.015963,42.572461,-7.158984,51.468750
8.742917,-0.249597,0.097756,-0.009966,-0.072175,0.033519,-0.636858,10.242395,0.015963,0.003193,0.011706,42.572461,-7.158984,51.468750
8.844750,-0.066041,0.069289,-0.002783,-0.070723,-0.014365,-0.651223,10.050859,0.019156,0.005321,0.013835,44.674805,-6.111328,51.468750
8.946012,-0.453522,0.103884,-0.003416,-0.067613,-0.014365,-0.579397,10.352528,0.017028,0.003193,0.017028,43.623633,-7.508203,50.118750
9.048015,-0.073647,0.108138,-0.009352,-0.066577,0.033519,-0.560243,10.175357,0.019156,0.007450,0.010642,43.623633,-7.508203,50.118750
9.149524,-0.003836,0.106206,-0.008944,-0.069174,0.023942,-0.632069,10.170569,0.013835,0.006385,0.013835,43.623633,-7.508203,50.118750
9.251269,-0.438175,0.099518,-0.003548,-0.071039,-0.028730,-0.612916,10.055647,0.015963,0.003193,0.013835,43.798828,-7.333594,50.625000
9.352530,-0.345570,0.077593,-0.020156,-0.059979,0.033519,-0.641646,10.084377,0.012771,0.007450,0.011706,44.149219,-6.635156,51.300000
9.454278,-0.206087,0.046882,0.004652,-0.053820,-0.067038,-0.665588,10.256760,0.017028,0.005321,0.015963,44.324414,-5.412891,51.131250
9.555881,-0.238363,0.114532,-0.001106,-0.067206,-0.028730,-0.536301,10.218453,0.014899,0.005321,0.012771,43.098047,-8.032031,50.625000
9.657430,-0.358295,0.088236,-0.003441,-0.070497,-0.033519,-0.646434,10.290279,0.015963,0.007450,0.010642,43.448438,-6.635156,50.625000
9.758827,-0.698147,0.092169,0.006870,-0.066840,0.009577,-0.713472,10.462661,0.012771,-0.008514,0.012771,43.448438,-7.333594,50.962500
9.860849,0.017330,0.087645,-0.005718,-0.060981,0.004788,-0.536301,10.184934,0.012771,0.000000,0.009578,43.623633,-6.809766,51.131250
9.962975,-0.436080,0.093104,-0.007149,-0.063771,0.019154,-0.531513,10.261548,0.013835,-0.001064,0.011706,43.448438,-6.984375,51.300000
10.064472,-0.368945,0.072565,-0.011211,-0.065747,-0.004788,-0.550666,10.127473,0.014899,0.003193,0.013835,43.273242,-5.762109,52.481250
10.165941,-0.383033,0.076238,-0.004285,-0.070550,-0.004788,-0.579397,10.079589,0.017028,0.002128,0.013835,43.798828,-6.635156,51.637500
10.267935,-0.306726,0.075698,0.012246,-0.069331,-0.124498,-0.641646,10.295067,0.015963,0.004257,0.013835,43.623633,-6.111328,50.118750
10.369635,-0.019513,0.067746,-0.026615,-0.063285,0.177171,-0.694318,10.433931,0.034055,0.160698,0.034055,43.623633,-6.111328,50.118750
10.471340,-0.046883,0.081399,0.025512,-0.072518,-0.272939,-0.766145,9.773131,0.014899,0.013835,0.013835,43.798828,-6.635156,50.625000
10.572418,-0.378339,0.088391,-0.016392,-0.067088,0.057461,-0.656011,10.180145,0.018092,-0.023413,0.013835,42.922852,-6.809766,49.443750
10.674274,-0.072190,0.080402,0.006252,-0.054293,-0.100556,-0.632069,10.189722,0.017028,0.006385,0.018092,43.273242,-6.460547,50.118750
10.775811,-0.030412,0.072607,-0.002190,-0.055578,-0.028730,-0.550666,10.103531,0.012771,0.008514,0.014899,43.448438,-6.635156,51.637500
10.877609,-0.424726,0.077164,0.002308,-0.060105,-0.043096,-0.651223,9.849746,0.313946,-0.089395,0.034055,45.200391,-6.984375,50.287500
10.979553,-0.369289,0.081673,-0.003921,-0.051744,0.009577,-0.646434,10.199299,0.053211,-0.004257,-0.002128,45.200391,-6.984375,50.287500
11.080866,-0.368304,0.100115,-0.021023,-0.062471,0.095768,-0.526724,10.295067,0.076624,-0.028734,0.014899,45.200391,-6.984375,50.287500
11.182667,-0.101904,0.093486,-0.008503,-0.052861,0.071826,-0.474052,10.170569,0.005321,0.010642,0.008514,44.324414,-6.809766,51.806250
11.283858,-0.666478,0.113756,-0.014125,-0.047323,0.071826,-0.541090,10.304644,0.001064,0.011706,0.007450,43.448438,-8.381250,51.637500
11.385290,-0.237664,0.102139,-0.017829,-0.046050,0.110133,-0.584185,10.132261,0.014899,0.004257,0.014899,44.324414,-7.158984,50.456250
11.486964,-0.240949,0.100450,-0.003816,-0.042245,-0.014365,-0.536301,10.184934,0.012771,0.012771,0.017028,43.974023,-6.809766,50.793750
11.588117,-0.395718,0.092639,-0.010101,-0.041675,0.071826,-0.565032,10.122685,0.056404,0.008514,0.023413,43.798828,-6.984375,50.962500
11.689558,-0.285498,0.101137,0.000932,-0.061889,-0.043096,-0.526724,10.218453,0.015963,-0.013835,0.007450,43.273242,-7.508203,50.793750
11.790995,-0.747870,0.114954,-0.000133,-0.062805,-0.033519,-0.512359,10.108319,0.028734,0.005321,0.015963,43.273242,-7.508203,50.793750
11.892407,-0.416043,0.094019,0.008624,-0.032999,-0.119710,-0.392649,10.223241,0.019156,-0.019156,0.021284,44.674805,-6.809766,50.456250
11.994054,-0.110590,0.100272,-0.022211,-0.059910,0.033519,-0.531513,10.065224,0.003193,0.025541,0.015963,43.798828,-6.984375,50.625000
12.096093,-0.149364,0.098225,-0.000829,-0.060270,-0.043096,-0.526724,10.074801,0.005321,-0.009578,0.011706,44.149219,-6.984375,51.975000
12.198008,-0.517809,0.079312,-0.013884,-0.058997,0.134075,-0.608127,10.204087,-0.002128,0.009578,0.002128,44.149219,-6.285937,51.300000
12.299377,-0.467158,0.125087,0.003704,-0.037242,-0.047884,-0.493206,10.237606,0.031927,-0.007450,0.020220,42.397266,-8.032031,51.637500
12.400890,-0.154528,0.113799,0.001093,-0.060609,-0.062249,-0.507571,10.280702,-0.004257,0.004257,0.009578,45.025195,-7.508203,50.793750
12.502170,-0.086602,0.124325,-0.014852,-0.063643,0.095768,-0.593762,10.055647,0.007450,0.007450,0.014899,42.747656,-8.381250,51.637500
12.603423,-0.390319,0.098369,-0.004558,-0.065136,0.009577,-0.588974,10.184934,0.011706,0.004257,0.017028,43.448438,-7.333594,51.637500
12.704979,-0.365394,0.107766,-0.005441,-0.058682,-0.009577,-0.627281,10.381258,0.009578,0.008514,0.009578,42.747656,-7.333594,51.637500
12.806583,-0.212263,0.111375,-0.005874,-0.055185,-0.028730,-0.579397,10.194511,0.013835,0.000000,0.011706,43.273242,-7.857422,50.118750
12.907587,0.014850,0.114742,0.008618,-0.069092,-0.071826,-0.588974,10.213664,0.011706,0.003193,0.018092,43.273242,-7.857422,50.118750
13.009213,-0.361492,0.121181,-0.006335,-0.067847,0.019154,-0.555455,10.328586,0.012771,0.007450,0.012771,43.273242,-7.857422,50.118750
13.111133,-0.208962,0.117892,0.001842,-0.062747,-0.095768,-0.574608,10.137050,0.015963,0.005321,0.010642,43.273242,-7.857422,50.118750
13.213123,-0.172217,0.114221,-0.008980,-0.069328,0.019154,-0.641646,10.204087,0.014899,0.002128,0.014899,43.273242,-7.857422,50.118750
13.314860,-0.318498,0.091819,-0.005318,-0.067485,0.014365,-0.588974,10.184934,0.015963,0.005321,0.013835,44.149219,-7.682812,50.962500
13.416414,-0.442187,0.099892,-0.001959,-0.074512,-0.004788,-0.636858,10.208876,0.013835,0.004257,0.009578,44.149219,-7.682812,50.962500
13.517820,-0.304822,0.090349,-0.006882,-0.071827,0.019154,-0.603339,10.113108,0.014899,0.006385,0.011706,43.623633,-6.809766,49.781250
13.619413,-0.131731,0.103101,-0.006207,-0.065887,0.004788,-0.636858,10.199299,0.014899,0.008514,0.013835,43.448438,-7.333594,51.300000
13.721720,-0.106012,0.098439,0.002656,-0.070255,-0.105345,-0.694318,10.352528,0.020220,0.004257,0.013835,43.273242,-7.158984,49.443750
13.823167,-0.420307,0.095827,-0.013324,-0.065293,0.052672,-0.646434,10.146627,0.014899,0.011706,0.015963,43.974023,-7.158984,51.131250
13.925372,-0.265333,0.061574,0.005332,-0.050868,-0.057461,-0.617704,10.199299,0.014899,0.012771,0.017028,44.149219,-5.587500,50.625000
14.026969,-0.404092,0.090487,-0.002025,-0.072745,-0.081403,-0.622492,10.232818,0.015963,0.012771,0.011706,42.747656,-6.635156,50.287500
14.129348,-0.136494,0.112748,-0.001826,-0.051556,-0.062249,-0.531513,10.108319,0.017028,0.007450,0.015963,43.448438,-8.032031,49.275000
14.230463,-0.310932,0.107319,-0.002627,-0.061508,-0.028730,-0.521936,10.103531,0.015963,0.007450,0.011706,43.448438,-7.333594,51.300000
14.332167,-0.364024,0.073521,-0.011842,-0.049123,0.076614,-0.593762,10.084377,0.013835,0.007450,0.010642,43.798828,-6.285937,51.300000
14.433980,-0.509756,0.086489,-0.001764,-0.053207,-0.033519,-0.694318,10.156203,0.014899,0.007450,0.011706,43.974023,-7.508203,50.793750
14.535393,-0.233806,0.075658,0.000038,-0.058472,-0.119710,-0.622492,10.218453,0.013835,0.007450,0.013835,43.098047,-6.285937,50.962500
14.637191,-0.485768,0.077155,-0.002821,-0.051171,-0.019154,-0.584185,10.199299,0.015963,0.004257,0.011706,43.623633,-6.460547,50.793750
14.738649,-0.347183,0.080984,-0.005682,-0.047397,-0.014365,-0.541090,10.079589,0.013835,0.004257,0.011706,43.798828,-6.635156,49.950000
14.840406,-0.314461,0.081298,0.000189,-0.048614,-0.043096,-0.574608,10.328586,0.014899,0.006385,0.013835,44.674805,-7.158984,50.793750
14.942125,-0.248832,0.088345,-0.003673,-0.050935,-0.019154,-0.632069,10.122685,0.014899,0.003193,0.010642,44.674805,-7.158984,50.793750
15.043827,-0.192348,0.100878,0.013840,-0.065452,-0.229843,-0.675165,10.156203,0.021284,0.020220,0.014899,44.149219,-7.682812,51.300000
15.144870,-0.477337,0.094983,-0.010399,-0.059193,-0.043096,-0.584185,10.170569,0.019156,0.011706,0.013835,43.098047,-6.984375,50.625000
15.246697,0.028877,0.102347,0.004163,-0.060277,-0.119710,-0.627281,10.213664,0.014899,0.014899,0.012771,43.974023,-7.857422,51.131250
15.348241,-0.674382,0.114263,0.002079,-0.059037,-0.052672,-0.493206,10.242395,0.015963,0.004257,0.017028,43.974023,-7.508203,51.806250
15.449954,-0.344899,0.095424,-0.006513,-0.065073,-0.033519,-0.588974,10.295067,0.017028,-0.005321,0.013835,43.974023,-7.508203,51.806250
15.551073,-0.253059,0.095210,-0.009206,-0.055171,-0.014365,-0.560243,10.223241,0.019156,0.007450,0.012771,43.974023,-7.508203,51.806250
15.653049,-0.045037,0.085039,-0.009133,-0.053018,0.071826,-0.502782,10.122685,0.015963,0.013835,0.011706,42.922852,-6.809766,51.468750
15.754302,-0.169619,0.097656,-0.012088,-0.065040,0.052672,-0.521936,10.156203,0.017028,0.003193,0.013835,43.448438,-7.333594,52.312500
15.856012,-0.535660,0.096873,-0.014224,-0.043066,0.071826,-0.531513,10.323798,0.011706,0.007450,0.010642,44.674805,-7.508203,51.131250
15.957327,-0.278690,0.108365,0.017039,-0.039622,-0.320823,-0.383072,10.347740,0.013835,0.010642,0.012771,43.798828,-6.635156,50.962500
16.059204,-0.335716,0.097577,-0.012796,-0.060879,0.076614,-0.632069,10.735600,0.015963,0.011706,0.012771,43.273242,-6.809766,52.481250
16.162252,-0.333137,0.088714,-0.011988,-0.076406,0.086191,-0.737414,10.280702,0.014899,0.029798,0.010642,43.974023,-7.158984,51.131250
16.263448,-0.310939,0.092200,-0.006674,-0.064312,-0.062249,-0.560243,10.127473,0.019156,-0.001064,0.012771,44.149219,-6.984375,50.625000
16.364908,-0.216292,0.093900,-0.021678,-0.065722,0.052672,-0.675165,10.170569,0.013835,0.008514,0.009578,43.448438,-7.333594,50.625000
16.466736,-0.314829,0.095251,0.010538,-0.054044,-0.229843,-0.392649,10.568006,0.015963,-0.026606,-0.036184,42.397266,-7.682812,50.287500
16.567497,-0.101459,0.089072,-0.000191,-0.067647,-0.023942,-0.694318,10.314221,0.003193,0.011706,0.014899,43.273242,-6.809766,50.456250
16.670221,-0.298358,0.086380,-0.012083,-0.075502,0.114922,-0.790087,10.199299,0.051083,0.028734,0.022349,43.098047,-7.333594,50.962500
16.771984,-0.446659,0.096481,-0.025123,-0.068491,0.493206,-0.814029,9.998186,0.057468,0.018092,0.034055,43.098047,-7.333594,50.962500
16.874370,0.097933,0.099409,0.003673,-0.068199,-0.201113,-0.718260,9.768343,0.017028,0.113872,-0.002128,43.098047,-7.333594,50.962500
16.975448,-0.326236,0.108327,0.007307,-0.056474,-0.057461,-0.699107,10.156203,0.047890,0.007450,0.038312,43.098047,-7.333594,50.962500
17.077356,-0.040413,0.122752,0.019650,-0.030952,-0.244209,-0.220267,10.228029,0.103230,0.549140,0.223487,43.098047,-7.682812,49.612500
17.179320,-0.118147,0.093958,0.078269,-0.043521,-0.627281,0.000000,9.878476,0.249028,-0.071303,0.042569,43.798828,-5.936719,51.300000
17.281423,-0.189418,0.028818,0.082471,0.007405,-0.770933,0.234632,10.419566,0.431011,0.110679,-0.056404,41.871680,-1.571484,52.818750
17.383024,-0.168834,0.054178,0.097748,0.035364,-0.818817,0.474052,9.576807,0.483158,0.069175,0.025541,38.542969,0.349219,52.987500
17.484609,-0.149085,0.075110,0.078150,0.114978,-0.679953,1.345541,10.285490,0.626828,0.048954,0.140478,33.987891,2.444531,51.637500
17.586437,0.017449,0.125031,0.105430,0.178994,-0.737414,2.092532,10.132261,0.868407,0.010642,0.191560,28.732031,3.492187,48.600000
17.687956,-0.371243,0.180507,0.136862,0.266150,-0.665588,3.107674,9.548076,0.914169,-0.040441,0.071303,20.497852,7.158984,48.768750
17.789359,-0.084098,0.302915,0.209131,0.338460,-0.699107,3.964798,8.992621,0.816260,0.162826,0.071303,14.015625,8.381250,42.862500
17.890972,-0.030884,0.418019,0.308579,0.365892,-0.708684,4.999093,8.767566,0.831159,0.000000,0.103230,8.234180,9.254297,41.343750
17.992172,-0.107311,0.568392,0.403795,0.370583,-0.392649,5.540183,8.422801,0.938646,0.046826,0.131964,2.803125,10.825781,37.462500
18.094175,-0.504606,0.689056,0.584346,0.352931,-0.493206,6.694188,7.340622,0.958866,0.057468,0.145799,-2.627930,12.048047,34.256250
18.195776,-0.083486,0.859672,0.743151,0.254097,-0.536301,7.369353,6.660669,0.933325,-0.025541,0.058532,-7.007812,11.524219,29.700000
18.296966,-0.122725,1.073887,0.893155,0.089745,-0.387861,8.183381,5.750872,0.951416,-0.053211,0.040441,-12.789258,11.349609,25.481250
18.398781,-0.254638,1.385414,1.010798,-0.157514,-0.507571,8.609549,4.730942,0.882242,-0.038312,0.034055,-12.789258,11.349609,25.481250
18.500865,0.026737,1.754109,1.071118,-0.431951,-0.306458,9.184158,4.003105,0.690682,-0.006385,0.074496,-12.789258,11.349609,25.481250
18.602430,-0.375719,2.136701,1.074221,-0.724816,-0.373495,9.265560,3.572149,0.598094,0.021284,0.048954,-22.600195,9.603516,12.656250
18.704276,-0.377472,2.477011,0.974657,-1.086568,-0.402226,9.533711,3.002329,0.589580,0.039376,0.102166,-24.527344,10.127344,10.800000
18.805420,-0.076651,2.716094,0.827892,-1.320833,-0.306458,9.667786,2.140416,0.495929,0.019156,0.064918,-24.527344,10.127344,10.800000
18.906945,-0.292051,2.876405,0.659855,-1.459123,-0.397437,9.763554,1.335965,0.336295,0.025541,0.035119,-25.403320,9.952734,8.943750
19.009347,0.104353,2.975683,0.479445,-1.518238,-0.339977,9.950302,1.326388,0.025541,0.002128,0.007450,-27.505664,8.206641,6.243750
19.110552,-0.323326,3.042630,0.308673,-1.478420,-0.196325,9.816227,1.881843,-0.029798,0.004257,0.013835,-27.856055,10.651172,6.243750
19.212787,-0.089538,3.080979,0.162862,-1.402218,-0.339977,9.844957,1.680730,0.010642,0.013835,0.000000,-27.155273,9.952734,6.243750
19.314752,-0.133963,3.090685,0.186288,-1.408749,-0.225055,9.691728,1.647211,-0.003193,0.010642,0.020220,-26.104102,9.952734,6.918750
19.416034,-0.421782,3.087928,0.113306,-1.400187,-0.320823,9.888053,1.680730,0.011706,0.004257,0.006385,-28.907227,10.301953,5.231250
19.517583,-0.120751,3.094584,0.167406,-1.406200,-0.177171,9.816227,1.599327,0.021284,0.021284,0.003193,-27.680859,10.825781,6.750000
19.618738,-0.159159,3.084275,0.174864,-1.398576,-0.311246,9.806650,1.719037,0.012771,0.008514,0.012771,-27.680859,9.778125,6.750000
19.720583,-0.184282,3.086609,0.172642,-1.409569,-0.311246,9.892841,1.565808,0.029798,0.010642,0.009578,-28.031250,9.778125,6.750000
19.821793,0.108144,3.090999,0.125309,-1.414783,-0.292093,9.777920,1.608904,0.032991,0.021284,0.017028,-28.381641,11.175000,5.400000
19.924049,-0.120025,3.094381,0.121135,-1.402614,-0.210690,9.734824,1.628057,0.034055,0.017028,0.013835,-28.381641,10.127344,5.400000
20.025772,0.079005,3.086563,0.117239,-1.404025,-0.383072,9.835380,1.608904,0.014899,0.004257,0.017028,-28.381641,10.127344,5.400000
20.127265,-0.087142,3.097465,0.130137,-1.426860,-0.263362,9.849746,1.441309,-0.017028,-0.007450,0.014899,-28.381641,10.127344,5.400000
20.228634,-0.076967,3.082950,0.138441,-1.449037,-0.430956,10.036493,1.168370,-0.282019,-0.046826,-0.011706,-28.381641,10.127344,5.400000
20.330122,0.005446,3.085579,0.144416,-1.384608,-0.220267,9.667786,2.116474,-0.877985,0.015963,-0.003193,-28.381641,10.127344,5.400000
20.431812,-0.087834,3.033889,0.259252,-1.246110,-0.239420,9.260772,3.562572,-1.024848,0.007450,0.022349,-26.104102,8.555859,9.281250
20.533476,-0.437506,2.958852,0.386454,-1.090820,0.019154,8.743624,4.601656,-1.083380,-0.002128,0.029798,-21.549023,10.301953,15.018750
20.635328,-0.077660,2.842242,0.491483,-0.926866,-0.225055,8.116344,5.741296,-1.096151,-0.003193,0.015963,-16.818750,9.079687,19.575000
20.737049,-0.311785,2.698088,0.549527,-0.742882,-0.191536,7.264008,6.770802,-1.005692,0.042569,0.023413,-11.913281,11.524219,25.987500
20.838398,0.106212,2.543865,0.574259,-0.554181,-0.153229,6.507440,7.637503,-1.048261,0.057468,0.005321,-8.234180,10.651172,31.556250
20.940324,0.112926,2.397751,0.563155,-0.371791,-0.311246,5.521029,8.825027,-0.931196,0.069175,-0.045762,-0.875977,10.651172,36.281250
21.041775,-0.295984,2.262874,0.514569,-0.214297,-0.689530,4.070143,9.193734,-0.620443,0.075560,-0.067046,5.606250,9.079687,39.825000
21.143150,-0.240476,2.147027,0.458533,-0.112831,-0.555455,4.424485,8.992621,-0.437396,0.032991,-0.006385,8.934961,8.555859,43.031250
21.244934,-0.158441,2.013020,0.451209,-0.024560,-0.521936,4.074931,9.165004,-0.652369,0.064918,-0.026606,12.438867,8.555859,46.068750
21.346959,-0.345079,1.906244,0.395699,0.050915,-0.723049,2.753332,9.940725,-0.611929,0.069175,-0.031927,17.169141,8.730469,47.250000
21.448410,0.010291,1.790730,0.366926,0.157776,-0.957681,1.886631,10.261548,-0.527855,0.026606,-0.034055,23.826563,6.285937,49.950000
21.550262,-0.023656,1.706166,0.300852,0.173958,-0.967257,1.331176,10.352528,-0.236258,0.041505,-0.028734,23.826563,6.285937,49.950000
21.651444,-0.128779,1.605517,0.277126,0.180640,-0.928950,1.288080,10.213664,-0.106422,0.011706,-0.001064,23.826563,6.285937,49.950000
21.752647,0.089075,1.499597,0.259250,0.191114,-0.909797,1.115698,10.319009,-0.010642,0.022349,0.014899,23.826563,6.285937,49.950000
21.854153,-0.282126,1.380396,0.266180,0.235710,-0.809240,1.249773,10.065224,0.007450,0.001064,0.007450,33.637500,5.587500,53.662500
21.955802,-0.109680,1.253163,0.253691,0.268288,-0.890643,1.268927,9.787496,-0.155377,-0.002128,-0.010642,33.287109,6.285937,52.987500
22.058050,0.097129,1.135476,0.207204,0.269308,-0.804452,0.895431,10.122685,-0.193689,0.020220,-0.022349,33.637500,5.238281,54.675000
22.159508,-0.033008,1.003998,0.172140,0.269575,-0.895431,0.507571,10.204087,-0.256478,0.038312,0.000000,38.718164,5.762109,55.856250
22.260933,-0.293279,0.868003,0.129797,0.255445,-0.938527,0.119710,10.184934,-0.266056,0.018092,-0.030863,39.944531,4.539844,55.687500
22.362397,-0.261354,0.727301,0.098928,0.215322,-1.072602,-0.201113,10.103531,-0.167083,0.015963,-0.015963,42.572461,2.269922,55.518750
22.463895,-0.262836,0.576884,0.090946,0.183773,-0.881066,-0.105345,10.137050,0.031927,-0.114936,-0.006385,45.550781,3.142969,57.712500
22.565414,-0.273829,0.414615,0.076965,0.126163,-0.871489,-0.248997,10.189722,0.021284,0.009578,0.015963,45.901172,1.396875,56.700000
22.667053,0.091859,0.237589,0.085360,0.079587,-0.933739,-0.181959,10.127473,0.011706,-0.045762,-0.015963,43.798828,3.841406,57.037500
22.768640,-0.264792,0.056267,0.085432,0.023425,-0.881066,-0.215478,10.050859,0.010642,-0.022349,-0.007450,43.974023,1.920703,55.856250
22.870396,-0.374817,-0.062115,0.088601,-0.029686,-0.895431,-0.339977,10.170569,-0.006385,-0.048954,-0.007450,43.974023,1.920703,55.856250
22.972362,0.114144,-0.070655,0.086436,-0.028640,-0.861913,-0.287304,10.299856,0.089395,0.062789,0.014899,45.025195,1.920703,55.856250
23.074567,0.091553,-0.093596,0.105707,-0.031482,-1.182736,-0.100556,11.166557,0.950352,-0.070239,0.046826,45.025195,1.920703,55.856250
23.175981,-0.457501,-0.022418,0.125720,0.064235,-0.641646,1.168370,10.654197,1.743199,-0.043633,0.163891,45.025195,1.920703,55.856250
23.277995,-0.046026,0.015292,0.198626,0.229318,-0.622492,3.433285,9.155427,1.683603,0.118129,0.171340,24.877734,7.682812,48.262500
23.379755,0.070788,0.090936,0.243819,0.370618,-0.579397,5.109226,8.255207,1.344115,-0.027670,0.127707,11.212500,10.127344,42.525000
23.481312,0.140448,0.207605,0.320399,0.472796,-0.497994,6.392518,7.393295,1.024848,-0.076624,0.019156,1.051172,11.524219,39.487500
23.582737,0.018586,0.346474,0.501416,0.461572,-0.699107,6.952762,7.134721,0.867343,-0.029798,0.052147,-6.131836,11.349609,32.906250
23.684436,-0.067068,0.500120,0.683228,0.421904,-0.593762,7.671022,6.564901,0.872664,-0.027670,0.055340,-10.336523,11.698828,28.518750
23.785712,-0.105231,0.645501,0.868794,0.358255,-0.560243,8.307880,5.511452,0.764113,-0.020220,0.045762,-14.891602,13.095703,22.781250
23.886678,0.159988,0.900908,1.037769,0.168794,-0.435745,8.647856,5.099650,0.741764,0.039376,0.127707,-16.993945,11.000391,21.431250
23.988960,0.229624,1.323950,1.148888,-0.189112,-0.277727,8.968679,4.237737,0.648113,-0.003193,0.108551,-20.147461,9.952734,17.718750
24.090017,0.295886,1.875401,1.165754,-0.687773,0.004788,9.351752,3.471592,0.617250,0.004257,0.025541,-22.249805,11.000391,14.681250
24.191645,0.175847,2.327478,1.083132,-1.095912,-0.426168,9.433155,3.026271,0.474644,0.001064,0.024477,-22.249805,11.000391,14.681250
24.293134,-0.060251,2.618310,0.943232,-1.324083,-0.110133,9.639056,2.614468,0.312882,-0.022349,0.008514,-23.125781,11.175000,12.150000
24.394657,0.012090,2.784742,0.778956,-1.439653,-0.258574,9.548076,2.461239,0.065982,0.015963,0.021284,-25.578516,9.778125,9.450000
24.496656,-0.018522,2.887456,0.600082,-1.445657,-0.392649,9.591172,2.590526,0.137285,0.024477,0.059597,-25.578516,9.778125,9.450000
24.598076,-0.011828,2.991487,0.417679,-1.439910,-0.110133,9.797073,2.140416,0.123450,0.009578,-0.003193,-25.578516,11.175000,8.100000
24.699318,0.139249,3.058569,0.244733,-1.386200,-0.201113,9.768343,2.035071,0.027670,0.003193,0.031927,-25.753711,9.952734,7.593750
24.801185,-0.106466,3.067964,0.248387,-1.334679,-0.143652,9.672575,2.226608,0.001064,0.007450,-0.002128,-25.753711,10.301953,9.281250
24.902571,-0.195419,3.064789,0.250434,-1.335558,-0.220267,9.662998,2.298434,0.025541,0.017028,0.017028,-26.454492,9.254297,9.281250
25.004099,-0.028961,3.083003,0.221776,-1.369237,-0.134075,9.782708,1.953669,-0.008514,-0.005321,0.006385,-25.403320,11.000391,8.268750
25.105814,0.073277,3.062088,0.217179,-1.347956,-0.248997,9.744401,2.097321,0.008514,0.009578,0.008514,-25.753711,11.000391,8.606250
25.207918,-0.025673,3.068356,0.193092,-1.352073,-0.239420,9.725247,2.193089,-0.018092,0.001064,0.004257,-25.928906,11.175000,8.100000
25.309988,-0.167933,3.063128,0.236526,-1.323541,-0.277727,9.691728,2.264915,0.007450,0.006385,0.009578,-26.104102,10.651172,9.956250
25.411373,0.176961,3.052496,0.265732,-1.327907,-0.234632,9.720459,2.269703,0.015963,-0.001064,0.014899,-26.104102,10.651172,9.956250
25.513571,-0.333006,3.072447,0.308996,-1.441099,-0.363919,10.108319,0.861913,-0.533176,-0.157505,-0.065982,-25.052930,9.952734,9.281250
25.615010,-0.488083,3.052459,0.384216,-1.411791,-0.320823,9.136274,1.934515,-2.420046,-0.123450,0.046826,-25.052930,9.952734,9.281250
25.717148,0.010077,2.952639,0.778219,-1.239866,1.249773,3.495534,11.707646,-3.486399,-0.061725,-0.339488,-6.307031,9.428906,31.387500
25.818954,-0.181590,2.715265,1.082486,-0.981274,-0.900220,-0.258574,12.162544,-2.325330,0.164955,-0.266056,17.694727,6.111328,47.081250
25.920707,-0.134334,2.407882,1.168317,-0.653848,4.855441,-10.644621,11.142615,0.564039,0.052147,0.071303,40.470117,2.619141,54.506250
26.022497,0.355495,2.211646,1.138569,-0.437828,-0.569820,-0.368707,9.806650,-0.029798,-0.058532,0.007450,43.974023,0.174609,56.531250
26.124185,0.158975,2.046485,1.094500,-0.254962,-0.861913,-0.330400,10.170569,0.005321,0.003193,0.014899,43.974023,0.174609,55.518750
26.225963,0.026441,1.904676,1.033308,-0.096015,-0.569820,-0.349553,10.462661,-0.007450,-0.028734,0.006385,46.076367,-0.873047,55.181250
26.327607,0.099114,1.788593,0.948854,0.035725,-0.656011,-0.464475,9.998186,-0.027670,-0.207524,-0.003193,44.674805,-0.523828,54.168750
26.429369,0.124776,1.701587,0.844783,0.141149,-0.196325,-0.507571,10.381258,-0.010642,-0.092588,0.004257,44.499609,-1.746094,54.000000
26.531429,0.332705,1.640212,0.737269,0.217392,-0.435745,-0.488417,10.189722,-0.011706,-0.085138,0.004257,44.149219,-2.793750,52.987500
26.632249,-0.024003,1.592114,0.616184,0.275698,-0.325611,-0.421379,10.093954,0.000000,-0.068110,0.003193,44.149219,-2.793750,52.987500
26.733867,-0.085353,1.554722,0.485979,0.317438,0.033519,-0.555455,10.290279,-0.004257,-0.067046,0.011706,46.251562,-5.238281,54.337500
26.835247,-0.047460,1.516544,0.359838,0.341876,-0.062249,-0.512359,10.170569,0.004257,0.006385,0.013835,45.200391,-6.285937,52.650000
26.937010,-0.147636,1.465830,0.241582,0.348129,-0.095768,-0.426168,10.232818,0.009578,-0.001064,0.014899,45.725977,-4.714453,53.493750
27.039098,-0.008809,1.390641,0.149987,0.340274,-0.210690,-0.521936,10.204087,0.011706,0.004257,0.011706,46.251562,-6.635156,53.325000
27.141403,-0.080717,1.289917,0.091223,0.324454,-0.196325,-0.474052,10.304644,0.012771,0.009578,0.018092,46.251562,-6.635156,53.325000
27.241860,-0.032941,1.174206,0.056297,0.299380,-0.124498,-0.488417,10.084377,0.013835,0.005321,0.012771,45.025195,-5.412891,52.818750
27.343882,-0.206329,1.047000,0.033308,0.271870,-0.196325,-0.474052,10.089166,0.011706,0.007450,0.010642,45.550781,-5.238281,52.987500
27.445633,0.018458,0.909191,0.014419,0.244413,-0.033519,-0.474052,10.156203,0.008514,0.001064,0.011706,46.601953,-4.889062,52.987500
27.546938,0.104568,0.763924,0.000795,0.201486,-0.052672,-0.560243,10.108319,0.008514,0.003193,0.014899,46.426758,-4.365234,54.168750
